2.97222         GPS_NMEA_FROM_GPS    iGPS            $GPGGA,164147.000,4221.5101,N,07105.2152,W,2,10,0.85,6.3,M,-33.7,M,0000,0000*58 
4.07558         GPS_NMEA_FROM_GPS    iGPS            $GPGSA,A,3,06,19,12,25,11,20,04,09,17,05,,,1.19,0.85,0.84*0C 
4.07558         GPS_NMEA_FROM_GPS    iGPS            $GPGSA,A,3,06,19,12,25,11,20,04,09,17,05,,,1.19,0.85,0.84*0C 
5.07788         GPS_NMEA_FROM_GPS    iGPS            $GPGSA,A,3,06,19,12,25,11,20,04,09,17,05,,,1.19,0.85,0.84*0C 
6.07977         GPS_NMEA_FROM_GPS    iGPS            $GPGGA,164150.000,4221.5098,N,07105.2162,W,2,10,0.85,6.4,M,-33.7,M,0000,0000*5B 
7.08172         GPS_NMEA_FROM_GPS    iGPS            $GPGGA,164151.000,4221.5097,N,07105.2165,W,2,10,0.85,6.5,M,-33.7,M,0000,0000*53 
8.08373         GPS_NMEA_FROM_GPS    iGPS            $GPGGA,164152.000,4221.5096,N,07105.2167,W,2,10,0.85,6.4,M,-33.7,M,0000,0000*52 
9.08666         GPS_NMEA_FROM_GPS    iGPS            $GPGGA,164153.000,4221.5095,N,07105.2169,W,2,10,0.85,6.4,M,-33.7,M,0000,0000*5E 
10.08943        GPS_NMEA_FROM_GPS    iGPS            $GPGGA,164154.000,4221.5095,N,07105.2170,W,2,10,0.85,6.3,M,-33.7,M,0000,0000*56 
11.09218        GPS_NMEA_FROM_GPS    iGPS            $GPGGA,164155.000,4221.5095,N,07105.2172,W,2,10,0.85,6.3,M,-33.7,M,0000,0000*55 
11.09218        GPS_NMEA_FROM_GPS    iGPS            $GPGGA,164155.000,4221.5095,N,07105.2172,W,2,10,0.85,6.3,M,-33.7,M,0000,0000*55 
11.99516        GPS_NMEA_FROM_GPS    iGPS            $GPGGA,164156.000,4221.5094,N,07105.2173,W,2,10,0.85,6.3,M,-33.7,M,0000,0000*56 
12.99829        GPS_NMEA_FROM_GPS    iGPS            $GPGGA,164157.000,4221.5094,N,07105.2173,W,2,10,0.85,6.3,M,-33.7,M,0000,0000*57 
14.00108        GPS_NMEA_FROM_GPS    iGPS            $GPGGA,164158.000,4221.5094,N,07105.2175,W,2,10,0.85,6.3,M,-33.7,M,0000,0000*5E 
15.10412        GPS_NMEA_FROM_GPS    iGPS            $GPGSA,A,3,06,19,12,25,11,20,04,09,17,05,,,1.19,0.85,0.84*0C 
16.00717        GPS_NMEA_FROM_GPS    iGPS            $GPGGA,164200.000,4221.5090,N,07105.2180,W,2,10,0.85,6.2,M,-33.7,M,0000,0000*5F 
16.00717        GPS_NMEA_FROM_GPS    iGPS            $GPGGA,164200.000,4221.5090,N,07105.2180,W,2,10,0.85,6.2,M,-33.7,M,0000,0000*5F 
17.11028        GPS_NMEA_FROM_GPS    iGPS            $GPGGA,164201.000,4221.5089,N,07105.2181,W,2,10,0.85,6.2,M,-33.7,M,0000,0000*57 
17.11028        GPS_NMEA_FROM_GPS    iGPS            $GPGGA,164201.000,4221.5089,N,07105.2181,W,2,10,0.85,6.2,M,-33.7,M,0000,0000*57 
18.01283        GPS_NMEA_FROM_GPS    iGPS            $GPGGA,164202.000,4221.5087,N,07105.2184,W,2,10,0.85,6.2,M,-33.7,M,0000,0000*5F 
19.11523        GPS_NMEA_FROM_GPS    iGPS            $GPGSA,A,3,06,19,12,25,11,20,04,09,17,05,,,1.76,0.85,1.54*09 
20.11747        GPS_NMEA_FROM_GPS    iGPS            $GPGSA,A,3,06,19,12,25,11,20,04,09,17,05,,,1.76,0.85,1.54*09 
21.02001        GPS_NMEA_FROM_GPS    iGPS            $GPGGA,164205.000,4221.5086,N,07105.2187,W,2,10,0.85,6.3,M,-33.7,M,0000,0000*5B 
22.02310        GPS_NMEA_FROM_GPS    iGPS            $GPGGA,164206.000,4221.5087,N,07105.2188,W,2,10,0.85,6.4,M,-33.7,M,0000,0000*51 
23.02591        GPS_NMEA_FROM_GPS    iGPS            $GPGGA,164207.000,4221.5087,N,07105.2188,W,2,10,0.85,6.4,M,-33.7,M,0000,0000*50 
24.03024        GPS_NMEA_FROM_GPS    iGPS            $GPGSA,A,3,06,19,12,25,11,20,04,09,17,05,,,1.76,0.85,1.54*09 
25.03297        GPS_NMEA_FROM_GPS    iGPS            $GPGGA,164209.000,4221.5087,N,07105.2190,W,2,10,0.85,6.4,M,-33.7,M,0000,0000*57 
26.03703        GPS_NMEA_FROM_GPS    iGPS            $GPGGA,164210.000,4221.5087,N,07105.2191,W,2,10,0.85,6.4,M,-33.7,M,0000,0000*5E 
27.04027        GPS_NMEA_FROM_GPS    iGPS            $GPGSA,A,3,06,19,12,25,11,20,04,09,17,05,,,1.76,0.85,1.54*09 
28.04342        GPS_NMEA_FROM_GPS    iGPS            $GPGGA,164212.000,4221.5087,N,07105.2192,W,2,10,0.85,6.4,M,-33.7,M,0000,0000*5F 
29.04664        GPS_NMEA_FROM_GPS    iGPS            $GPGGA,164213.000,4221.5087,N,07105.2193,W,2,10,0.85,6.4,M,-33.7,M,0000,0000*5F 
30.04958        GPS_NMEA_FROM_GPS    iGPS            $GPGGA,164214.000,4221.5087,N,07105.2194,W,2,10,0.85,6.4,M,-33.7,M,0000,0000*5F 
31.05216        GPS_NMEA_FROM_GPS    iGPS            $GPGGA,164215.000,4221.5087,N,07105.2195,W,2,10,0.85,6.4,M,-33.7,M,0000,0000*5F 
32.05481        GPS_NMEA_FROM_GPS    iGPS            $GPGGA,164216.000,4221.5086,N,07105.2196,W,2,10,0.85,6.4,M,-33.7,M,0000,0000*5E 
33.05722        GPS_NMEA_FROM_GPS    iGPS            $GPGGA,164217.000,4221.5086,N,07105.2197,W,2,10,0.85,6.4,M,-33.7,M,0000,0000*5E 
34.06054        GPS_NMEA_FROM_GPS    iGPS            $GPGGA,164218.000,4221.5086,N,07105.2198,W,2,10,0.85,6.4,M,-33.7,M,0000,0000*5E 
35.06336        GPS_NMEA_FROM_GPS    iGPS            $GPGGA,164219.000,4221.5086,N,07105.2200,W,2,10,0.85,6.4,M,-33.7,M,0000,0000*5D 
36.06647        GPS_NMEA_FROM_GPS    iGPS            $GPGGA,164220.000,4221.5085,N,07105.2201,W,2,10,0.85,6.4,M,-33.7,M,0000,0000*55 
37.06936        GPS_NMEA_FROM_GPS    iGPS            $GPGSA,A,3,06,19,12,25,11,20,04,09,17,05,,,1.76,0.85,1.54*09 
38.07267        GPS_NMEA_FROM_GPS    iGPS            $GPGGA,164222.000,4221.5083,N,07105.2203,W,2,10,0.85,6.4,M,-33.7,M,0000,0000*53 
39.07584        GPS_NMEA_FROM_GPS    iGPS            $GPGSA,A,3,06,19,12,25,11,20,04,09,17,05,,,1.76,0.85,1.55*08 
40.07873        GPS_NMEA_FROM_GPS    iGPS            $GPGGA,164224.000,4221.5081,N,07105.2206,W,2,10,0.85,6.4,M,-33.7,M,0000,0000*52 
41.08169        GPS_NMEA_FROM_GPS    iGPS            $GPGSA,A,3,06,19,12,25,11,20,04,09,17,05,,,1.76,0.85,1.55*08 
41.98442        GPS_NMEA_FROM_GPS    iGPS            $GPGGA,164226.000,4221.5079,N,07105.2210,W,2,10,0.85,6.5,M,-33.7,M,0000,0000*51 
43.08743        GPS_NMEA_FROM_GPS    iGPS            $GPGSA,A,3,06,19,12,25,11,20,04,09,17,05,,,1.76,0.85,1.54*09 
44.09065        GPS_NMEA_FROM_GPS    iGPS            $GPGSA,A,3,06,19,12,25,11,20,04,09,17,05,,,1.76,0.85,1.54*09 
45.09315        GPS_NMEA_FROM_GPS    iGPS            $GPGSA,A,3,06,19,12,25,11,20,04,09,17,05,,,1.19,0.85,0.84*0C 
45.99598        GPS_NMEA_FROM_GPS    iGPS            $GPGGA,164230.000,4221.5078,N,07105.2223,W,2,10,0.85,6.4,M,-33.7,M,0000,0000*56 
46.99892        GPS_NMEA_FROM_GPS    iGPS            $GPGGA,164231.000,4221.5077,N,07105.2226,W,2,10,0.85,6.4,M,-33.7,M,0000,0000*5D 
48.10214        GPS_NMEA_FROM_GPS    iGPS            $GPGSA,A,3,06,19,12,25,11,20,04,09,17,05,,,1.19,0.85,0.84*0C 
49.10508        GPS_NMEA_FROM_GPS    iGPS            $GPGGA,164233.000,4221.5075,N,07105.2233,W,2,10,0.85,6.3,M,-33.7,M,0000,0000*5E 
50.10827        GPS_NMEA_FROM_GPS    iGPS            $GPGSA,A,3,06,19,12,25,11,20,04,09,17,05,,,1.19,0.85,0.84*0C 
51.11125        GPS_NMEA_FROM_GPS    iGPS            $GPGGA,164235.000,4221.5073,N,07105.2238,W,2,10,0.85,6.1,M,-33.7,M,0000,0000*57 
52.11507        GPS_NMEA_FROM_GPS    iGPS            $GPGSA,A,3,06,19,12,25,11,20,04,09,17,05,,,1.76,0.85,1.55*08 
53.11880        GPS_NMEA_FROM_GPS    iGPS            $GPGSA,A,3,06,19,12,25,11,20,04,09,17,05,,,1.19,0.85,0.84*0C 
54.02249        GPS_NMEA_FROM_GPS    iGPS            $GPGGA,164238.000,4221.5068,N,07105.2246,W,2,10,0.85,5.8,M,-33.7,M,0000,0000*53 
55.02555        GPS_NMEA_FROM_GPS    iGPS            $GPGGA,164239.000,4221.5067,N,07105.2249,W,2,10,0.85,5.7,M,-33.7,M,0000,0000*5D 
56.02910        GPS_NMEA_FROM_GPS    iGPS            $GPGGA,164240.000,4221.5065,N,07105.2251,W,2,10,0.85,5.7,M,-33.7,M,0000,0000*58 
57.03165        GPS_NMEA_FROM_GPS    iGPS            $GPGGA,164241.000,4221.5064,N,07105.2255,W,2,10,0.85,5.6,M,-33.7,M,0000,0000*5D 
58.03434        GPS_NMEA_FROM_GPS    iGPS            $GPGGA,164242.000,4221.5063,N,07105.2258,W,2,10,0.85,5.6,M,-33.7,M,0000,0000*54 
59.13698        GPS_NMEA_FROM_GPS    iGPS            $GPGSA,A,3,06,19,12,25,11,20,04,09,17,05,,,1.19,0.85,0.84*0C 
60.04004        GPS_NMEA_FROM_GPS    iGPS            $GPGGA,164244.000,4221.5062,N,07105.2264,W,2,10,0.85,5.3,M,-33.7,M,0000,0000*59 
61.04277        GPS_NMEA_FROM_GPS    iGPS            $GPGGA,164245.000,4221.5062,N,07105.2268,W,2,10,0.85,5.2,M,-33.7,M,0000,0000*55 
62.14582        GPS_NMEA_FROM_GPS    iGPS            $GPGSA,A,3,06,19,12,25,11,20,04,09,17,05,,,1.19,0.85,0.84*0C 
63.04831        GPS_NMEA_FROM_GPS    iGPS            $GPGGA,164247.000,4221.5062,N,07105.2274,W,2,10,0.85,5.0,M,-33.7,M,0000,0000*58 
64.05168        GPS_NMEA_FROM_GPS    iGPS            $GPGGA,164248.000,4221.5062,N,07105.2277,W,2,10,0.85,5.0,M,-33.7,M,0000,0000*54 
65.05453        GPS_NMEA_FROM_GPS    iGPS            $GPGGA,164249.000,4221.5061,N,07105.2281,W,2,10,0.85,4.9,M,-33.7,M,0000,0000*57 
66.05763        GPS_NMEA_FROM_GPS    iGPS            $GPGSA,A,3,06,19,12,25,11,20,04,09,17,05,,,1.77,0.85,1.55*09 
67.06043        GPS_NMEA_FROM_GPS    iGPS            $GPGGA,164251.000,4221.5059,N,07105.2287,W,2,10,0.85,4.8,M,-33.7,M,0000,0000*52 
68.06347        GPS_NMEA_FROM_GPS    iGPS            $GPGGA,164252.000,4221.5058,N,07105.2290,W,2,10,0.85,4.7,M,-33.7,M,0000,0000*59 
69.06663        GPS_NMEA_FROM_GPS    iGPS            $GPGSA,A,3,06,19,12,25,11,20,04,09,17,05,,,1.19,0.85,0.84*0C 
70.06911        GPS_NMEA_FROM_GPS    iGPS            $GPGGA,164254.000,4221.5055,N,07105.2296,W,2,10,0.85,4.8,M,-33.7,M,0000,0000*5B 
71.07142        GPS_NMEA_FROM_GPS    iGPS            $GPGGA,164255.000,4221.5053,N,07105.2299,W,2,10,0.85,4.8,M,-33.7,M,0000,0000*53 
72.07379        GPS_NMEA_FROM_GPS    iGPS            $GPGGA,164256.000,4221.5052,N,07105.2301,W,2,10,0.85,4.8,M,-33.7,M,0000,0000*51 
73.07666        GPS_NMEA_FROM_GPS    iGPS            $GPGGA,164257.000,4221.5051,N,07105.2304,W,2,10,0.85,4.8,M,-33.7,M,0000,0000*56 
74.07998        GPS_NMEA_FROM_GPS    iGPS            $GPGGA,164258.000,4221.5050,N,07105.2308,W,2,10,0.85,4.8,M,-33.7,M,0000,0000*54 
75.08296        GPS_NMEA_FROM_GPS    iGPS            $GPGSA,A,3,06,19,12,25,11,20,04,09,17,05,,,1.19,0.85,0.84*0C 
76.08624        GPS_NMEA_FROM_GPS    iGPS            $GPGGA,164300.000,4221.5050,N,07105.2315,W,2,10,0.85,4.7,M,-33.7,M,0000,0000*5B 
77.08916        GPS_NMEA_FROM_GPS    iGPS            $GPGSA,A,3,06,19,12,25,11,20,04,09,17,05,,,1.77,0.85,1.55*09 
78.09201        GPS_NMEA_FROM_GPS    iGPS            $GPGGA,164302.000,4221.5050,N,07105.2322,W,2,10,0.85,4.6,M,-33.7,M,0000,0000*5C 
79.09499        GPS_NMEA_FROM_GPS    iGPS            $GPGGA,164303.000,4221.5050,N,07105.2326,W,2,10,0.85,4.6,M,-33.7,M,0000,0000*59 
80.09788        GPS_NMEA_FROM_GPS    iGPS            $GPGGA,164304.000,4221.5049,N,07105.2329,W,2,10,0.85,4.7,M,-33.7,M,0000,0000*58 
81.00066        GPS_NMEA_FROM_GPS    iGPS            $GPGGA,164305.000,4221.5048,N,07105.2332,W,2,10,0.85,4.7,M,-33.7,M,0000,0000*52 
82.00344        GPS_NMEA_FROM_GPS    iGPS            $GPGGA,164306.000,4221.5047,N,07105.2335,W,2,10,0.85,4.7,M,-33.7,M,0000,0000*59 
83.10609        GPS_NMEA_FROM_GPS    iGPS            $GPGGA,164307.000,4221.5046,N,07105.2338,W,2,10,0.85,4.8,M,-33.7,M,0000,0000*5B 
84.10833        GPS_NMEA_FROM_GPS    iGPS            $GPGGA,164308.000,4221.5046,N,07105.2341,W,2,10,0.85,4.9,M,-33.7,M,0000,0000*5B 
85.01044        GPS_NMEA_FROM_GPS    iGPS            $GPGGA,164309.000,4221.5045,N,07105.2345,W,2,10,0.85,5.0,M,-33.7,M,0000,0000*55 
86.01436        GPS_NMEA_FROM_GPS    iGPS            $GPGGA,164310.000,4221.5045,N,07105.2348,W,2,10,0.85,5.1,M,-33.7,M,0000,0000*51 
87.01709        GPS_NMEA_FROM_GPS    iGPS            $GPGGA,164311.000,4221.5044,N,07105.2351,W,2,10,0.85,5.2,M,-33.7,M,0000,0000*5A 
88.02011        GPS_NMEA_FROM_GPS    iGPS            $GPGGA,164312.000,4221.5043,N,07105.2355,W,2,10,0.85,5.2,M,-33.7,M,0000,0000*5A 
89.02323        GPS_NMEA_FROM_GPS    iGPS            $GPGGA,164313.000,4221.5043,N,07105.2358,W,2,10,0.85,5.3,M,-33.7,M,0000,0000*57 
90.02617        GPS_NMEA_FROM_GPS    iGPS            $GPGSA,A,3,06,19,12,25,11,20,04,09,17,05,,,1.77,0.85,1.55*09 
91.02900        GPS_NMEA_FROM_GPS    iGPS            $GPGGA,164315.000,4221.5042,N,07105.2365,W,2,10,0.85,5.5,M,-33.7,M,0000,0000*58 
92.13221        GPS_NMEA_FROM_GPS    iGPS            $GPGSA,A,3,06,19,12,25,11,20,04,09,17,05,,,1.77,0.85,1.55*09 
93.03483        GPS_NMEA_FROM_GPS    iGPS            $GPGGA,164317.000,4221.5040,N,07105.2374,W,2,10,0.85,5.5,M,-33.7,M,0000,0000*58 
94.03877        GPS_NMEA_FROM_GPS    iGPS            $GPGGA,164318.000,4221.5040,N,07105.2377,W,2,10,0.85,5.5,M,-33.7,M,0000,0000*54 
95.04144        GPS_NMEA_FROM_GPS    iGPS            $GPGGA,164319.000,4221.5039,N,07105.2381,W,2,10,0.85,5.5,M,-33.7,M,0000,0000*52 
96.14419        GPS_NMEA_FROM_GPS    iGPS            $GPGSA,A,3,06,19,12,25,11,20,04,09,17,05,,,1.77,0.85,1.55*09 
97.04649        GPS_NMEA_FROM_GPS    iGPS            $GPGGA,164321.000,4221.5037,N,07105.2388,W,2,10,0.85,5.5,M,-33.7,M,0000,0000*5E 
98.04951        GPS_NMEA_FROM_GPS    iGPS            $GPGGA,164322.000,4221.5035,N,07105.2392,W,2,10,0.85,5.6,M,-33.7,M,0000,0000*57 
99.05260        GPS_NMEA_FROM_GPS    iGPS            $GPGGA,164323.000,4221.5034,N,07105.2395,W,2,10,0.85,5.5,M,-33.7,M,0000,0000*53 
100.05563       GPS_NMEA_FROM_GPS    iGPS            $GPGGA,164324.000,4221.5033,N,07105.2398,W,2,10,0.85,5.5,M,-33.7,M,0000,0000*5E 
101.05844       GPS_NMEA_FROM_GPS    iGPS            $GPGGA,164325.000,4221.5031,N,07105.2402,W,2,10,0.85,5.4,M,-33.7,M,0000,0000*58 
102.06180       GPS_NMEA_FROM_GPS    iGPS            $GPGSA,A,3,06,19,12,25,11,20,04,09,17,05,,,1.77,0.85,1.55*09 
103.06572       GPS_NMEA_FROM_GPS    iGPS            $GPGSA,A,3,06,19,12,25,11,20,04,09,17,05,,,1.19,0.85,0.84*0C 
104.06784       GPS_NMEA_FROM_GPS    iGPS            $GPGGA,164328.000,4221.5026,N,07105.2412,W,2,10,0.85,5.1,M,-33.7,M,0000,0000*57 
105.07099       GPS_NMEA_FROM_GPS    iGPS            $GPGGA,164329.000,4221.5024,N,07105.2415,W,2,10,0.85,5.1,M,-33.7,M,0000,0000*53 
106.07395       GPS_NMEA_FROM_GPS    iGPS            $GPGSA,A,3,06,19,12,25,11,20,04,09,17,05,,,1.19,0.85,0.84*0C 
107.07669       GPS_NMEA_FROM_GPS    iGPS            $GPGSA,A,3,06,19,12,25,11,20,04,09,17,05,,,1.19,0.85,0.84*0C 
108.07935       GPS_NMEA_FROM_GPS    iGPS            $GPGSA,A,3,06,19,12,25,11,20,04,09,17,05,,,1.19,0.85,0.84*0C 
109.08200       GPS_NMEA_FROM_GPS    iGPS            $GPGSA,A,3,06,19,12,25,11,20,04,09,17,05,,,1.19,0.85,0.84*0C 
109.98452       GPS_NMEA_FROM_GPS    iGPS            $GPGGA,164334.000,4221.5020,N,07105.2431,W,2,10,0.85,5.0,M,-33.7,M,0000,0000*5C 
111.08749       GPS_NMEA_FROM_GPS    iGPS            $GPGSA,A,3,06,19,12,25,11,20,04,09,17,05,,,1.19,0.85,0.84*0C 
112.09057       GPS_NMEA_FROM_GPS    iGPS            $GPGGA,164336.000,4221.5019,N,07105.2438,W,2,10,0.85,5.0,M,-33.7,M,0000,0000*5D 
113.09339       GPS_NMEA_FROM_GPS    iGPS            $GPGGA,164337.000,4221.5018,N,07105.2441,W,2,10,0.85,5.0,M,-33.7,M,0000,0000*53 
114.09662       GPS_NMEA_FROM_GPS    iGPS            $GPGSA,A,3,06,19,12,25,11,20,04,09,17,05,,,1.19,0.85,0.84*0C 
114.99922       GPS_NMEA_FROM_GPS    iGPS            $GPGGA,164339.000,4221.5017,N,07105.2448,W,2,10,0.85,4.9,M,-33.7,M,0000,0000*53 
116.10342       GPS_NMEA_FROM_GPS    iGPS            $GPGSA,A,3,06,19,12,25,11,20,04,09,17,05,,,1.19,0.85,0.84*0C 
117.10682       GPS_NMEA_FROM_GPS    iGPS            $GPGGA,164341.000,4221.5017,N,07105.2455,W,2,10,0.85,4.8,M,-33.7,M,0000,0000*51 
118.10984       GPS_NMEA_FROM_GPS    iGPS            $GPGGA,164342.000,4221.5017,N,07105.2458,W,2,10,0.85,4.8,M,-33.7,M,0000,0000*5F 
119.11351       GPS_NMEA_FROM_GPS    iGPS            $GPGGA,164343.000,4221.5016,N,07105.2462,W,2,10,0.85,4.7,M,-33.7,M,0000,0000*59 
120.11675       GPS_NMEA_FROM_GPS    iGPS            $GPGSA,A,3,06,19,12,25,11,20,04,09,17,05,,,1.19,0.85,0.84*0C 
121.11941       GPS_NMEA_FROM_GPS    iGPS            $GPGSA,A,3,06,19,12,25,11,20,04,09,17,05,,,1.19,0.85,0.84*0C 
122.02179       GPS_NMEA_FROM_GPS    iGPS            $GPGGA,164346.000,4221.5011,N,07105.2469,W,2,10,0.85,4.6,M,-33.7,M,0000,0000*51 
123.02428       GPS_NMEA_FROM_GPS    iGPS            $GPGGA,164347.000,4221.5010,N,07105.2472,W,2,10,0.85,4.7,M,-33.7,M,0000,0000*5A 
124.02753       GPS_NMEA_FROM_GPS    iGPS            $GPGGA,164348.000,4221.5009,N,07105.2474,W,2,10,0.85,4.8,M,-33.7,M,0000,0000*54 
125.03039       GPS_NMEA_FROM_GPS    iGPS            $GPGGA,164349.000,4221.5008,N,07105.2478,W,2,10,0.85,4.8,M,-33.7,M,0000,0000*58 
126.03331       GPS_NMEA_FROM_GPS    iGPS            $GPGGA,164350.000,4221.5008,N,07105.2481,W,2,10,0.85,4.8,M,-33.7,M,0000,0000*56 
127.03621       GPS_NMEA_FROM_GPS    iGPS            $GPGGA,164351.000,4221.5007,N,07105.2484,W,2,10,0.85,4.8,M,-33.7,M,0000,0000*5D 
128.03951       GPS_NMEA_FROM_GPS    iGPS            $GPGGA,164352.000,4221.5007,N,07105.2488,W,2,10,0.85,4.7,M,-33.7,M,0000,0000*5D 
129.04249       GPS_NMEA_FROM_GPS    iGPS            $GPGSA,A,3,06,19,12,25,11,20,04,09,17,05,,,1.19,0.85,0.84*0C 
130.04542       GPS_NMEA_FROM_GPS    iGPS            $GPGSA,A,3,06,19,12,25,11,20,04,09,17,05,,,1.19,0.85,0.84*0C 
131.04816       GPS_NMEA_FROM_GPS    iGPS            $GPGSA,A,3,06,19,12,25,11,20,04,09,17,05,,,1.19,0.85,0.84*0C 
132.05121       GPS_NMEA_FROM_GPS    iGPS            $GPGSA,A,3,06,19,12,25,11,20,04,09,17,05,,,1.19,0.85,0.84*0C 
133.05390       GPS_NMEA_FROM_GPS    iGPS            $GPGGA,164357.000,4221.5006,N,07105.2505,W,2,10,0.85,4.5,M,-33.7,M,0000,0000*5F 
134.05665       GPS_NMEA_FROM_GPS    iGPS            $GPGGA,164358.000,4221.5005,N,07105.2507,W,2,10,0.85,4.6,M,-33.7,M,0000,0000*52 
135.05905       GPS_NMEA_FROM_GPS    iGPS            $GPGGA,164359.000,4221.5003,N,07105.2510,W,2,10,0.85,4.5,M,-33.7,M,0000,0000*50 
136.06151       GPS_NMEA_FROM_GPS    iGPS            $GPGSA,A,3,06,19,12,25,11,20,04,09,17,05,,,1.19,0.85,0.84*0C 
137.06482       GPS_NMEA_FROM_GPS    iGPS            $GPGSA,A,3,06,19,12,25,11,20,04,09,17,05,,,1.19,0.85,0.84*0C 
138.06689       GPS_NMEA_FROM_GPS    iGPS            $GPGGA,164402.000,4221.4999,N,07105.2518,W,2,10,0.85,4.6,M,-33.7,M,0000,0000*59 
139.07025       GPS_NMEA_FROM_GPS    iGPS            $GPGSA,A,3,06,19,12,25,11,20,04,09,17,05,,,1.19,0.85,0.84*0C 
140.07337       GPS_NMEA_FROM_GPS    iGPS            $GPGSA,A,3,06,19,12,25,11,20,04,09,17,05,,,1.19,0.85,0.84*0C 
141.07707       GPS_NMEA_FROM_GPS    iGPS            $GPGGA,164405.000,4221.4995,N,07105.2529,W,2,10,0.85,4.9,M,-33.7,M,0000,0000*5F 
142.07962       GPS_NMEA_FROM_GPS    iGPS            $GPGGA,164406.000,4221.4994,N,07105.2533,W,2,10,0.85,4.9,M,-33.7,M,0000,0000*56 
143.08260       GPS_NMEA_FROM_GPS    iGPS            $GPGSA,A,3,06,19,12,25,11,20,04,09,17,05,,,1.19,0.85,0.84*0C 
143.98549       GPS_NMEA_FROM_GPS    iGPS            $GPGGA,164408.000,4221.4994,N,07105.2540,W,2,10,0.85,5.0,M,-33.7,M,0000,0000*54 
145.08857       GPS_NMEA_FROM_GPS    iGPS            $GPGGA,164409.000,4221.4994,N,07105.2543,W,2,10,0.85,5.1,M,-33.7,M,0000,0000*57 
145.99117       GPS_NMEA_FROM_GPS    iGPS            $GPGGA,164410.000,4221.4993,N,07105.2546,W,2,10,0.85,5.1,M,-33.7,M,0000,0000*5D 
147.09376       GPS_NMEA_FROM_GPS    iGPS            $GPGGA,164411.000,4221.4992,N,07105.2549,W,2,10,0.85,5.1,M,-33.7,M,0000,0000*52 
147.99579       GPS_NMEA_FROM_GPS    iGPS            $GPGGA,164412.000,4221.4991,N,07105.2552,W,2,10,0.85,5.2,M,-33.7,M,0000,0000*5B 
149.09905       GPS_NMEA_FROM_GPS    iGPS            $GPGGA,164413.000,4221.4990,N,07105.2555,W,2,10,0.85,5.2,M,-33.7,M,0000,0000*5C 
150.00192       GPS_NMEA_FROM_GPS    iGPS            $GPGGA,164414.000,4221.4988,N,07105.2558,W,2,10,0.85,5.2,M,-33.7,M,0000,0000*5F 
151.00485       GPS_NMEA_FROM_GPS    iGPS            $GPGGA,164415.000,4221.4986,N,07105.2561,W,2,10,0.85,5.3,M,-33.7,M,0000,0000*5B 
152.00792       GPS_NMEA_FROM_GPS    iGPS            $GPGGA,164416.000,4221.4985,N,07105.2564,W,2,10,0.85,5.3,M,-33.7,M,0000,0000*5E 
153.01107       GPS_NMEA_FROM_GPS    iGPS            $GPGGA,164417.000,4221.4983,N,07105.2567,W,2,10,0.85,5.4,M,-33.7,M,0000,0000*5D 
154.01436       GPS_NMEA_FROM_GPS    iGPS            $GPGGA,164418.000,4221.4982,N,07105.2570,W,2,10,0.85,5.4,M,-33.7,M,0000,0000*55 
155.01724       GPS_NMEA_FROM_GPS    iGPS            $GPGGA,164419.000,4221.4981,N,07105.2574,W,2,10,0.85,5.4,M,-33.7,M,0000,0000*53 
156.02030       GPS_NMEA_FROM_GPS    iGPS            $GPGGA,164420.000,4221.4981,N,07105.2577,W,2,10,0.85,5.5,M,-33.7,M,0000,0000*5B 
157.12355       GPS_NMEA_FROM_GPS    iGPS            $GPGSA,A,3,06,19,12,25,11,20,04,09,17,05,,,1.19,0.85,0.84*0C 
158.12688       GPS_NMEA_FROM_GPS    iGPS            $GPGSA,A,3,06,19,12,25,11,20,04,09,17,05,,,1.77,0.85,1.56*0A 
159.12960       GPS_NMEA_FROM_GPS    iGPS            $GPGSA,A,3,06,19,12,25,11,20,04,09,17,05,,,1.19,0.85,0.84*0C 
160.13202       GPS_NMEA_FROM_GPS    iGPS            $GPGSA,A,3,06,19,12,25,11,20,04,09,17,05,,,1.19,0.85,0.84*0C 
161.13472       GPS_NMEA_FROM_GPS    iGPS            $GPGSA,A,3,06,19,12,25,11,20,04,09,17,05,,,1.77,0.85,1.56*0A 
162.13759       GPS_NMEA_FROM_GPS    iGPS            $GPGSA,A,3,06,19,12,25,11,20,04,09,17,05,,,1.19,0.85,0.84*0C 
163.04015       GPS_NMEA_FROM_GPS    iGPS            $GPGGA,164427.000,4221.4975,N,07105.2600,W,2,10,0.85,5.7,M,-33.7,M,0000,0000*56 
164.04373       GPS_NMEA_FROM_GPS    iGPS            $GPGSA,A,3,06,19,12,25,11,20,04,09,17,05,,,1.19,0.85,0.84*0C 
165.04556       GPS_NMEA_FROM_GPS    iGPS            $GPGGA,164429.000,4221.4972,N,07105.2607,W,2,10,0.85,5.9,M,-33.7,M,0000,0000*56 
166.04856       GPS_NMEA_FROM_GPS    iGPS            $GPGGA,164430.000,4221.4972,N,07105.2610,W,2,10,0.85,6.0,M,-33.7,M,0000,0000*52 
167.05167       GPS_NMEA_FROM_GPS    iGPS            $GPGGA,164431.000,4221.4971,N,07105.2613,W,2,10,0.85,6.1,M,-33.7,M,0000,0000*52 
168.05551       GPS_NMEA_FROM_GPS    iGPS            $GPGGA,164432.000,4221.4970,N,07105.2617,W,2,10,0.85,6.1,M,-33.7,M,0000,0000*54 
169.05883       GPS_NMEA_FROM_GPS    iGPS            $GPGSA,A,3,06,19,12,25,11,20,04,09,17,05,,,1.19,0.85,0.84*0C 
170.06161       GPS_NMEA_FROM_GPS    iGPS            $GPGGA,164434.000,4221.4969,N,07105.2624,W,2,10,0.85,6.1,M,-33.7,M,0000,0000*5A 
171.06459       GPS_NMEA_FROM_GPS    iGPS            $GPGSA,A,3,06,19,12,25,11,20,04,09,17,05,,,1.19,0.85,0.84*0C 
172.06740       GPS_NMEA_FROM_GPS    iGPS            $GPGSA,A,3,06,19,12,25,11,20,04,09,17,05,,,1.19,0.85,0.84*0C 
172.97002       GPS_NMEA_FROM_GPS    iGPS            $GPGGA,164437.000,4221.4967,N,07105.2635,W,2,10,0.85,6.2,M,-33.7,M,0000,0000*54 
174.07246       GPS_NMEA_FROM_GPS    iGPS            $GPGGA,164438.000,4221.4967,N,07105.2638,W,2,10,0.85,6.3,M,-33.7,M,0000,0000*57 
175.07541       GPS_NMEA_FROM_GPS    iGPS            $GPGSA,A,3,06,19,12,25,11,20,04,09,17,05,,,1.19,0.85,0.84*0C 
175.97814       GPS_NMEA_FROM_GPS    iGPS            $GPGGA,164440.000,4221.4964,N,07105.2644,W,2,10,0.85,6.2,M,-33.7,M,0000,0000*51 
177.08179       GPS_NMEA_FROM_GPS    iGPS            $GPGSA,A,3,06,19,12,25,11,20,04,09,17,05,,,1.19,0.85,0.84*0C 
178.08475       GPS_NMEA_FROM_GPS    iGPS            $GPGSA,A,3,06,19,12,25,11,20,04,09,17,05,,,1.19,0.85,0.84*0C 
179.08796       GPS_NMEA_FROM_GPS    iGPS            $GPGGA,164443.000,4221.4961,N,07105.2652,W,2,10,0.85,6.1,M,-33.7,M,0000,0000*53 
180.09092       GPS_NMEA_FROM_GPS    iGPS            $GPGGA,164444.000,4221.4960,N,07105.2655,W,2,10,0.85,6.1,M,-33.7,M,0000,0000*52 
181.09544       GPS_NMEA_FROM_GPS    iGPS            $GPGGA,164445.000,4221.4960,N,07105.2659,W,2,10,0.85,6.1,M,-33.7,M,0000,0000*5F 
182.09833       GPS_NMEA_FROM_GPS    iGPS            $GPGGA,164446.000,4221.4959,N,07105.2663,W,2,10,0.85,6.0,M,-33.7,M,0000,0000*5E 
183.10140       GPS_NMEA_FROM_GPS    iGPS            $GPGSA,A,3,06,19,12,25,11,20,04,09,17,05,,,1.19,0.85,0.84*0C 
184.00481       GPS_NMEA_FROM_GPS    iGPS            $GPGGA,164448.000,4221.4957,N,07105.2670,W,2,10,0.85,6.1,M,-33.7,M,0000,0000*5D 
185.10770       GPS_NMEA_FROM_GPS    iGPS            $GPGGA,164449.000,4221.4956,N,07105.2674,W,2,10,0.85,6.1,M,-33.7,M,0000,0000*59 
186.11028       GPS_NMEA_FROM_GPS    iGPS            $GPGGA,164450.000,4221.4955,N,07105.2677,W,2,10,0.85,6.2,M,-33.7,M,0000,0000*52 
187.11290       GPS_NMEA_FROM_GPS    iGPS            $GPGSA,A,3,06,19,12,25,11,20,04,09,17,05,,,1.19,0.85,0.84*0C 
188.01548       GPS_NMEA_FROM_GPS    iGPS            $GPGGA,164452.000,4221.4952,N,07105.2685,W,2,10,0.85,6.4,M,-33.7,M,0000,0000*5C 
189.01861       GPS_NMEA_FROM_GPS    iGPS            $GPGGA,164453.000,4221.4951,N,07105.2688,W,2,10,0.85,6.5,M,-33.7,M,0000,0000*52 
190.02170       GPS_NMEA_FROM_GPS    iGPS            $GPGGA,164454.000,4221.4950,N,07105.2693,W,2,10,0.85,6.4,M,-33.7,M,0000,0000*5F 
191.12493       GPS_NMEA_FROM_GPS    iGPS            $GPGGA,164455.000,4221.4950,N,07105.2697,W,2,10,0.85,6.4,M,-33.7,M,0000,0000*5A 
192.02768       GPS_NMEA_FROM_GPS    iGPS            $GPGGA,164456.000,4221.4949,N,07105.2701,W,2,10,0.85,6.4,M,-33.7,M,0000,0000*5F 
193.03074       GPS_NMEA_FROM_GPS    iGPS            $GPGGA,164457.000,4221.4949,N,07105.2704,W,2,10,0.85,6.3,M,-33.7,M,0000,0000*5C 
194.03396       GPS_NMEA_FROM_GPS    iGPS            $GPGGA,164458.000,4221.4948,N,07105.2708,W,2,10,0.85,6.3,M,-33.7,M,0000,0000*5E 
195.03695       GPS_NMEA_FROM_GPS    iGPS            $GPGGA,164459.000,4221.4947,N,07105.2710,W,2,10,0.85,6.2,M,-33.7,M,0000,0000*58 
196.04004       GPS_NMEA_FROM_GPS    iGPS            $GPGGA,164500.000,4221.4945,N,07105.2714,W,2,10,0.85,6.2,M,-33.7,M,0000,0000*53 
197.04306       GPS_NMEA_FROM_GPS    iGPS            $GPGGA,164501.000,4221.4943,N,07105.2717,W,2,10,0.85,6.0,M,-33.7,M,0000,0000*55 
198.04548       GPS_NMEA_FROM_GPS    iGPS            $GPGSA,A,3,06,19,12,25,11,20,04,09,17,05,,,1.78,0.85,1.56*05 
199.04813       GPS_NMEA_FROM_GPS    iGPS            $GPGGA,164503.000,4221.4940,N,07105.2722,W,2,10,0.85,6.0,M,-33.7,M,0000,0000*52 
200.05073       GPS_NMEA_FROM_GPS    iGPS            $GPGGA,164504.000,4221.4939,N,07105.2725,W,2,10,0.85,6.0,M,-33.7,M,0000,0000*5C 
201.05361       GPS_NMEA_FROM_GPS    iGPS            $GPGGA,164505.000,4221.4938,N,07105.2728,W,2,10,0.85,5.9,M,-33.7,M,0000,0000*5B 
202.05655       GPS_NMEA_FROM_GPS    iGPS            $GPGGA,164506.000,4221.4937,N,07105.2732,W,2,10,0.85,5.9,M,-33.7,M,0000,0000*5C 
203.05964       GPS_NMEA_FROM_GPS    iGPS            $GPGSA,A,3,06,19,12,25,11,20,04,09,17,05,,,1.20,0.85,0.84*06 
204.06293       GPS_NMEA_FROM_GPS    iGPS            $GPGGA,164508.000,4221.4936,N,07105.2740,W,2,10,0.85,5.8,M,-33.7,M,0000,0000*57 
205.06599       GPS_NMEA_FROM_GPS    iGPS            $GPGSA,A,3,06,19,12,25,11,20,04,09,17,05,,,1.20,0.85,0.84*06 
206.06941       GPS_NMEA_FROM_GPS    iGPS            $GPGSA,A,3,06,19,12,25,11,20,04,09,17,05,,,1.20,0.85,0.84*06 
206.97209       GPS_NMEA_FROM_GPS    iGPS            $GPGGA,164511.000,4221.4934,N,07105.2751,W,2,10,0.85,5.8,M,-33.7,M,0000,0000*5D 
208.07527       GPS_NMEA_FROM_GPS    iGPS            $GPGGA,164512.000,4221.4933,N,07105.2754,W,2,10,0.85,6.0,M,-33.7,M,0000,0000*57 
209.07835       GPS_NMEA_FROM_GPS    iGPS            $GPGSA,A,3,06,19,12,25,11,20,04,09,17,05,,,1.20,0.85,0.84*06 
210.08139       GPS_NMEA_FROM_GPS    iGPS            $GPGGA,164514.000,4221.4930,N,07105.2761,W,2,10,0.85,6.0,M,-33.7,M,0000,0000*54 
211.08390       GPS_NMEA_FROM_GPS    iGPS            $GPGGA,164515.000,4221.4930,N,07105.2765,W,2,10,0.85,6.0,M,-33.7,M,0000,0000*51 
211.98670       GPS_NMEA_FROM_GPS    iGPS            $GPGGA,164516.000,4221.4929,N,07105.2769,W,2,10,0.85,6.0,M,-33.7,M,0000,0000*56 
213.08961       GPS_NMEA_FROM_GPS    iGPS            $GPGGA,164517.000,4221.4929,N,07105.2773,W,2,10,0.85,6.0,M,-33.7,M,0000,0000*5C 
214.09333       GPS_NMEA_FROM_GPS    iGPS            $GPGSA,A,3,06,19,12,25,11,20,04,09,17,05,,,1.20,0.85,0.84*06 
214.99638       GPS_NMEA_FROM_GPS    iGPS            $GPGGA,164519.000,4221.4927,N,07105.2779,W,2,10,0.85,5.9,M,-33.7,M,0000,0000*5C 
215.99926       GPS_NMEA_FROM_GPS    iGPS            $GPGGA,164520.000,4221.4926,N,07105.2782,W,2,10,0.85,5.9,M,-33.7,M,0000,0000*53 
217.00247       GPS_NMEA_FROM_GPS    iGPS            $GPGGA,164521.000,4221.4926,N,07105.2784,W,2,10,0.85,5.9,M,-33.7,M,0000,0000*54 
218.00549       GPS_NMEA_FROM_GPS    iGPS            $GPGGA,164522.000,4221.4925,N,07105.2786,W,2,10,0.85,6.0,M,-33.7,M,0000,0000*5C 
219.00901       GPS_NMEA_FROM_GPS    iGPS            $GPGGA,164523.000,4221.4923,N,07105.2788,W,2,10,0.85,6.0,M,-33.7,M,0000,0000*55 
220.01197       GPS_NMEA_FROM_GPS    iGPS            $GPGSA,A,3,06,19,12,25,11,20,04,09,17,05,,,1.20,0.85,0.84*06 
221.11504       GPS_NMEA_FROM_GPS    iGPS            $GPGGA,164525.000,4221.4921,N,07105.2794,W,2,10,0.85,5.9,M,-33.7,M,0000,0000*56 
222.11794       GPS_NMEA_FROM_GPS    iGPS            $GPGSA,A,3,06,19,12,25,11,20,04,09,17,05,,,1.78,0.85,1.56*05 
223.12071       GPS_NMEA_FROM_GPS    iGPS            $GPGSA,A,3,06,19,12,25,11,20,04,09,17,05,,,1.78,0.85,1.56*05 
224.02314       GPS_NMEA_FROM_GPS    iGPS            $GPGGA,164528.000,4221.4920,N,07105.2803,W,2,10,0.85,5.8,M,-33.7,M,0000,0000*5A 
225.12594       GPS_NMEA_FROM_GPS    iGPS            $GPGSA,A,3,06,19,12,25,11,20,04,09,17,05,,,1.20,0.85,0.84*06 
226.02917       GPS_NMEA_FROM_GPS    iGPS            $GPGGA,164530.000,4221.4919,N,07105.2808,W,2,10,0.85,5.8,M,-33.7,M,0000,0000*52 
227.03224       GPS_NMEA_FROM_GPS    iGPS            $GPGGA,164531.000,4221.4919,N,07105.2812,W,2,10,0.85,5.8,M,-33.7,M,0000,0000*58 
228.03559       GPS_NMEA_FROM_GPS    iGPS            $GPGGA,164532.000,4221.4918,N,07105.2815,W,2,10,0.85,5.7,M,-33.7,M,0000,0000*52 
229.13910       GPS_NMEA_FROM_GPS    iGPS            $GPGSA,A,3,06,19,12,25,11,20,04,09,17,05,,,1.78,0.85,1.56*05 
230.14200       GPS_NMEA_FROM_GPS    iGPS            $GPGSA,A,3,06,19,12,25,11,20,04,09,17,05,,,1.20,0.85,0.84*06 
231.14548       GPS_NMEA_FROM_GPS    iGPS            $GPGSA,A,3,06,19,12,25,11,20,04,09,17,05,,,1.20,0.85,0.84*06 
232.04810       GPS_NMEA_FROM_GPS    iGPS            $GPGGA,164536.000,4221.4911,N,07105.2825,W,2,10,0.85,5.6,M,-33.7,M,0000,0000*5D 
233.05100       GPS_NMEA_FROM_GPS    iGPS            $GPGGA,164537.000,4221.4909,N,07105.2827,W,2,10,0.85,5.5,M,-33.7,M,0000,0000*54 
234.05411       GPS_NMEA_FROM_GPS    iGPS            $GPGGA,164538.000,4221.4907,N,07105.2829,W,2,10,0.85,5.4,M,-33.7,M,0000,0000*5A 
235.05708       GPS_NMEA_FROM_GPS    iGPS            $GPGGA,164539.000,4221.4905,N,07105.2831,W,2,10,0.85,5.4,M,-33.7,M,0000,0000*50 
236.06025       GPS_NMEA_FROM_GPS    iGPS            $GPGSA,A,3,06,19,12,25,11,20,04,09,17,05,,,1.78,0.85,1.56*05 
237.06271       GPS_NMEA_FROM_GPS    iGPS            $GPGSA,A,3,06,19,12,25,11,20,04,09,17,05,,,1.20,0.85,0.84*06 
238.06511       GPS_NMEA_FROM_GPS    iGPS            $GPGSA,A,3,06,19,12,25,11,20,04,09,17,05,,,1.78,0.85,1.56*05 
239.06822       GPS_NMEA_FROM_GPS    iGPS            $GPGSA,A,3,06,19,12,25,11,20,04,09,17,05,,,1.78,0.85,1.56*05 
240.07118       GPS_NMEA_FROM_GPS    iGPS            $GPGSA,A,3,06,19,12,25,11,20,04,09,17,05,,,1.20,0.85,0.84*06 
241.07421       GPS_NMEA_FROM_GPS    iGPS            $GPGSA,A,3,06,19,12,25,11,20,04,09,17,05,,,1.20,0.85,0.84*06 
242.07704       GPS_NMEA_FROM_GPS    iGPS            $GPGGA,164546.000,4221.4899,N,07105.2853,W,2,10,0.85,4.8,M,-33.7,M,0000,0000*55 
243.08000       GPS_NMEA_FROM_GPS    iGPS            $GPGGA,164547.000,4221.4899,N,07105.2857,W,2,10,0.85,4.7,M,-33.7,M,0000,0000*5F 
244.08323       GPS_NMEA_FROM_GPS    iGPS            $GPGSA,A,3,06,19,12,25,11,20,04,09,17,05,,,1.20,0.85,0.84*06 
245.08678       GPS_NMEA_FROM_GPS    iGPS            $GPGSA,A,3,06,19,12,25,11,20,04,09,17,05,,,1.20,0.85,0.84*06 
245.98940       GPS_NMEA_FROM_GPS    iGPS            $GPGGA,164550.000,4221.4896,N,07105.2867,W,2,10,0.85,4.5,M,-33.7,M,0000,0000*57 
247.09255       GPS_NMEA_FROM_GPS    iGPS            $GPGSA,A,3,06,19,12,25,11,20,04,09,17,05,,,1.20,0.85,0.84*06 
248.09537       GPS_NMEA_FROM_GPS    iGPS            $GPGSA,A,3,06,19,12,25,11,20,04,09,17,05,,,1.20,0.85,0.84*06 
248.99760       GPS_NMEA_FROM_GPS    iGPS            $GPGGA,164553.000,4221.4891,N,07105.2876,W,2,10,0.85,4.4,M,-33.7,M,0000,0000*52 
250.00017       GPS_NMEA_FROM_GPS    iGPS            $GPGGA,164554.000,4221.4890,N,07105.2880,W,2,10,0.85,4.4,M,-33.7,M,0000,0000*5D 
251.10306       GPS_NMEA_FROM_GPS    iGPS            $GPGSA,A,3,06,19,25,11,20,04,09,17,05,,,,1.22,0.88,0.84*0A 
252.00606       GPS_NMEA_FROM_GPS    iGPS            $GPGGA,164556.000,4221.4888,N,07105.2886,W,2,10,0.85,4.6,M,-33.7,M,0000,0000*52 
253.00917       GPS_NMEA_FROM_GPS    iGPS            $GPGGA,164557.000,4221.4888,N,07105.2889,W,2,10,0.85,4.7,M,-33.7,M,0000,0000*5D 
254.01233       GPS_NMEA_FROM_GPS    iGPS            $GPGGA,164558.000,4221.4886,N,07105.2892,W,2,10,0.85,4.7,M,-33.7,M,0000,0000*56 
255.11548       GPS_NMEA_FROM_GPS    iGPS            $GPGSA,A,3,06,19,12,25,11,20,04,09,17,05,,,1.20,0.85,0.84*06 
256.11831       GPS_NMEA_FROM_GPS    iGPS            $GPGSA,A,3,06,19,12,25,11,20,04,09,17,05,,,1.20,0.85,0.84*06 
257.02138       GPS_NMEA_FROM_GPS    iGPS            $GPGGA,164601.000,4221.4882,N,07105.2900,W,2,10,0.85,4.7,M,-33.7,M,0000,0000*57 
258.02428       GPS_NMEA_FROM_GPS    iGPS            $GPGGA,164602.000,4221.4881,N,07105.2901,W,2,10,0.85,4.8,M,-33.7,M,0000,0000*59 
259.02774       GPS_NMEA_FROM_GPS    iGPS            $GPGGA,164603.000,4221.4879,N,07105.2903,W,2,10,0.85,4.8,M,-33.7,M,0000,0000*5D 
260.03063       GPS_NMEA_FROM_GPS    iGPS            $GPGGA,164604.000,4221.4877,N,07105.2905,W,2,10,0.85,4.8,M,-33.7,M,0000,0000*52 
261.03358       GPS_NMEA_FROM_GPS    iGPS            $GPGGA,164605.000,4221.4877,N,07105.2906,W,2,10,0.85,4.7,M,-33.7,M,0000,0000*5F 
262.03604       GPS_NMEA_FROM_GPS    iGPS            $GPGGA,164606.000,4221.4875,N,07105.2908,W,2,10,0.85,4.8,M,-33.7,M,0000,0000*5F 
263.13877       GPS_NMEA_FROM_GPS    iGPS            $GPGSA,A,3,06,19,12,25,11,20,04,09,17,05,,,1.78,0.85,1.56*05 
264.14170       GPS_NMEA_FROM_GPS    iGPS            $GPGSA,A,3,06,19,12,25,11,20,04,09,17,05,,,1.78,0.85,1.56*05 
265.04445       GPS_NMEA_FROM_GPS    iGPS            $GPGSA,A,3,06,19,12,25,11,20,04,09,17,05,,,1.78,0.85,1.56*05 
266.04722       GPS_NMEA_FROM_GPS    iGPS            $GPGSA,A,3,06,19,12,25,11,20,04,09,17,05,,,1.20,0.85,0.84*06 
267.05011       GPS_NMEA_FROM_GPS    iGPS            $GPGGA,164611.000,4221.4870,N,07105.2921,W,2,10,0.85,5.1,M,-33.7,M,0000,0000*5F 
268.05312       GPS_NMEA_FROM_GPS    iGPS            $GPGGA,164612.000,4221.4869,N,07105.2924,W,2,10,0.85,5.1,M,-33.7,M,0000,0000*51 
269.15697       GPS_NMEA_FROM_GPS    iGPS            $GPGSA,A,3,06,19,12,25,11,20,04,09,17,05,,,1.78,0.85,1.56*05 
270.05955       GPS_NMEA_FROM_GPS    iGPS            $GPGSA,A,3,06,19,12,25,11,20,04,09,17,05,,,1.78,0.85,1.56*05 
271.06271       GPS_NMEA_FROM_GPS    iGPS            $GPGGA,164615.000,4221.4864,N,07105.2931,W,2,10,0.85,5.0,M,-33.7,M,0000,0000*5E 
272.06588       GPS_NMEA_FROM_GPS    iGPS            $GPGGA,164616.000,4221.4861,N,07105.2932,W,2,10,0.85,4.9,M,-33.7,M,0000,0000*53 
273.06933       GPS_NMEA_FROM_GPS    iGPS            $GPGSA,A,3,06,19,12,25,11,20,04,09,17,05,,,1.78,0.85,1.56*05 
274.07225       GPS_NMEA_FROM_GPS    iGPS            $GPGSA,A,3,06,19,12,25,11,20,04,09,17,05,,,1.20,0.85,0.84*06 
275.07469       GPS_NMEA_FROM_GPS    iGPS            $GPGGA,164619.000,4221.4854,N,07105.2937,W,2,10,0.85,4.7,M,-33.7,M,0000,0000*51 
276.07718       GPS_NMEA_FROM_GPS    iGPS            $GPGGA,164620.000,4221.4852,N,07105.2939,W,2,10,0.85,4.7,M,-33.7,M,0000,0000*53 
277.07942       GPS_NMEA_FROM_GPS    iGPS            $GPGGA,164621.000,4221.4851,N,07105.2941,W,2,10,0.85,4.8,M,-33.7,M,0000,0000*51 
278.08210       GPS_NMEA_FROM_GPS    iGPS            $GPGSA,A,3,06,19,12,25,11,20,04,09,17,05,,,1.78,0.85,1.56*05 
278.98497       GPS_NMEA_FROM_GPS    iGPS            $GPGGA,164623.000,4221.4850,N,07105.2946,W,2,10,0.85,5.0,M,-33.7,M,0000,0000*5C 
280.08797       GPS_NMEA_FROM_GPS    iGPS            $GPGSA,A,3,06,19,12,25,11,20,04,09,17,05,,,1.78,0.85,1.56*05 
281.09099       GPS_NMEA_FROM_GPS    iGPS            $GPGSA,A,3,06,19,12,25,11,20,04,09,17,05,,,1.78,0.85,1.56*05 
281.99366       GPS_NMEA_FROM_GPS    iGPS            $GPGGA,164626.000,4221.4847,N,07105.2954,W,2,10,0.85,5.3,M,-33.7,M,0000,0000*5F 
282.99679       GPS_NMEA_FROM_GPS    iGPS            $GPGGA,164627.000,4221.4846,N,07105.2955,W,2,10,0.85,5.3,M,-33.7,M,0000,0000*5E 
284.10021       GPS_NMEA_FROM_GPS    iGPS            $GPGSA,A,3,06,19,12,25,11,20,04,09,17,05,,,1.78,0.85,1.56*05 
285.10315       GPS_NMEA_FROM_GPS    iGPS            $GPGGA,164629.000,4221.4842,N,07105.2957,W,2,10,0.85,5.5,M,-33.7,M,0000,0000*50 
286.00584       GPS_NMEA_FROM_GPS    iGPS            $GPGGA,164630.000,4221.4841,N,07105.2958,W,2,10,0.85,5.5,M,-33.7,M,0000,0000*54 
287.00835       GPS_NMEA_FROM_GPS    iGPS            $GPGGA,164631.000,4221.4839,N,07105.2958,W,2,10,0.85,5.4,M,-33.7,M,0000,0000*5B 
288.11095       GPS_NMEA_FROM_GPS    iGPS            $GPGGA,164632.000,4221.4837,N,07105.2958,W,2,10,0.85,5.3,M,-33.7,M,0000,0000*51 
289.11390       GPS_NMEA_FROM_GPS    iGPS            $GPGSA,A,3,06,19,12,25,11,20,04,09,17,05,,,1.78,0.85,1.56*05 
290.11674       GPS_NMEA_FROM_GPS    iGPS            $GPGSA,A,3,06,19,12,25,11,20,04,09,17,05,,,1.20,0.85,0.84*06 
291.01995       GPS_NMEA_FROM_GPS    iGPS            $GPGGA,164635.000,4221.4830,N,07105.2959,W,2,10,0.85,5.3,M,-33.7,M,0000,0000*50 
292.12369       GPS_NMEA_FROM_GPS    iGPS            $GPGSA,A,3,06,19,12,25,11,20,04,09,17,05,,,1.78,0.85,1.56*05 
293.12667       GPS_NMEA_FROM_GPS    iGPS            $GPGSA,A,3,06,19,12,25,11,20,04,09,17,05,,,1.78,0.85,1.57*04 
294.02927       GPS_NMEA_FROM_GPS    iGPS            $GPGGA,164638.000,4221.4823,N,07105.2962,W,2,10,0.85,5.1,M,-33.7,M,0000,0000*55 
295.03274       GPS_NMEA_FROM_GPS    iGPS            $GPGGA,164639.000,4221.4822,N,07105.2963,W,2,10,0.85,5.0,M,-33.7,M,0000,0000*55 
296.03575       GPS_NMEA_FROM_GPS    iGPS            $GPGGA,164640.000,4221.4820,N,07105.2965,W,2,10,0.85,4.9,M,-33.7,M,0000,0000*57 
297.03919       GPS_NMEA_FROM_GPS    iGPS            $GPGGA,164641.000,4221.4817,N,07105.2967,W,2,10,0.85,4.8,M,-33.7,M,0000,0000*51 
298.14164       GPS_NMEA_FROM_GPS    iGPS            $GPGSA,A,3,06,19,12,25,11,20,04,09,17,05,,,1.20,0.85,0.84*06 
299.04450       GPS_NMEA_FROM_GPS    iGPS            $GPGGA,164643.000,4221.4813,N,07105.2971,W,2,10,0.85,4.8,M,-33.7,M,0000,0000*50 
300.04736       GPS_NMEA_FROM_GPS    iGPS            $GPGGA,164644.000,4221.4811,N,07105.2972,W,2,10,0.85,4.8,M,-33.7,M,0000,0000*56 
301.05046       GPS_NMEA_FROM_GPS    iGPS            $GPGGA,164645.000,4221.4809,N,07105.2972,W,2,10,0.85,4.7,M,-33.7,M,0000,0000*51 
302.05258       GPS_NMEA_FROM_GPS    iGPS            $GPGSA,A,3,06,19,12,25,11,20,04,09,17,05,,,1.78,0.85,1.57*04 
303.05589       GPS_NMEA_FROM_GPS    iGPS            $GPGGA,164647.000,4221.4804,N,07105.2972,W,2,10,0.85,4.5,M,-33.7,M,0000,0000*5C 
304.05921       GPS_NMEA_FROM_GPS    iGPS            $GPGGA,164648.000,4221.4802,N,07105.2972,W,2,10,0.85,4.4,M,-33.7,M,0000,0000*54 
305.06241       GPS_NMEA_FROM_GPS    iGPS            $GPGSA,A,3,06,19,12,25,11,20,04,09,17,05,,,1.78,0.85,1.57*04 
306.06580       GPS_NMEA_FROM_GPS    iGPS            $GPGSA,A,3,06,19,12,25,11,20,04,09,17,05,,,1.20,0.85,0.84*06 
307.06902       GPS_NMEA_FROM_GPS    iGPS            $GPGSA,A,3,06,19,12,25,11,20,04,09,17,05,,,1.20,0.85,0.84*06 
308.07180       GPS_NMEA_FROM_GPS    iGPS            $GPGGA,164652.000,4221.4793,N,07105.2969,W,2,10,0.85,4.4,M,-33.7,M,0000,0000*52 
309.07492       GPS_NMEA_FROM_GPS    iGPS            $GPGGA,164653.000,4221.4790,N,07105.2969,W,2,10,0.85,4.4,M,-33.7,M,0000,0000*50 
310.07788       GPS_NMEA_FROM_GPS    iGPS            $GPGGA,164654.000,4221.4789,N,07105.2969,W,2,10,0.85,4.4,M,-33.7,M,0000,0000*5F 
311.08109       GPS_NMEA_FROM_GPS    iGPS            $GPGGA,164655.000,4221.4787,N,07105.2969,W,2,10,0.85,4.3,M,-33.7,M,0000,0000*57 
312.08409       GPS_NMEA_FROM_GPS    iGPS            $GPGSA,A,3,06,19,12,25,11,20,04,09,17,05,,,1.78,0.85,1.57*04 
313.08667       GPS_NMEA_FROM_GPS    iGPS            $GPGGA,164657.000,4221.4784,N,07105.2971,W,2,10,0.85,4.3,M,-33.7,M,0000,0000*5F 
314.08934       GPS_NMEA_FROM_GPS    iGPS            $GPGGA,164658.000,4221.4782,N,07105.2973,W,2,10,0.85,4.3,M,-33.7,M,0000,0000*54 
315.09212       GPS_NMEA_FROM_GPS    iGPS            $GPGSA,A,3,06,19,12,25,11,20,04,09,17,05,,,1.78,0.85,1.57*04 
315.99474       GPS_NMEA_FROM_GPS    iGPS            $GPGGA,164700.000,4221.4778,N,07105.2975,W,2,10,0.85,4.3,M,-33.7,M,0000,0000*5B 
317.09883       GPS_NMEA_FROM_GPS    iGPS            $GPGGA,164701.000,4221.4775,N,07105.2976,W,2,10,0.85,4.4,M,-33.7,M,0000,0000*53 
318.00182       GPS_NMEA_FROM_GPS    iGPS            $GPGGA,164702.000,4221.4773,N,07105.2976,W,2,10,0.85,4.5,M,-33.7,M,0000,0000*57 
319.00508       GPS_NMEA_FROM_GPS    iGPS            $GPGGA,164703.000,4221.4771,N,07105.2977,W,2,10,0.85,4.5,M,-33.7,M,0000,0000*55 
320.00801       GPS_NMEA_FROM_GPS    iGPS            $GPGGA,164704.000,4221.4768,N,07105.2976,W,2,10,0.85,4.6,M,-33.7,M,0000,0000*58 
321.11145       GPS_NMEA_FROM_GPS    iGPS            $GPGSA,A,3,06,19,12,25,11,20,04,09,17,05,,,1.20,0.85,0.84*06 
322.11438       GPS_NMEA_FROM_GPS    iGPS            $GPGSA,A,3,06,19,12,25,11,20,04,09,17,05,,,1.20,0.85,0.84*06 
323.01714       GPS_NMEA_FROM_GPS    iGPS            $GPGGA,164707.000,4221.4762,N,07105.2972,W,2,10,0.85,4.8,M,-33.7,M,0000,0000*5B 
324.02039       GPS_NMEA_FROM_GPS    iGPS            $GPGGA,164708.000,4221.4761,N,07105.2972,W,2,10,0.85,4.8,M,-33.7,M,0000,0000*57 
325.02379       GPS_NMEA_FROM_GPS    iGPS            $GPGGA,164709.000,4221.4759,N,07105.2971,W,2,10,0.85,4.8,M,-33.7,M,0000,0000*5E 
326.02617       GPS_NMEA_FROM_GPS    iGPS            $GPGGA,164710.000,4221.4757,N,07105.2972,W,2,10,0.85,4.9,M,-33.7,M,0000,0000*5A 
327.02831       GPS_NMEA_FROM_GPS    iGPS            $GPGGA,164711.000,4221.4755,N,07105.2972,W,2,10,0.85,5.0,M,-33.7,M,0000,0000*51 
328.03065       GPS_NMEA_FROM_GPS    iGPS            $GPGGA,164712.000,4221.4753,N,07105.2973,W,2,10,0.85,5.2,M,-33.7,M,0000,0000*57 
329.03384       GPS_NMEA_FROM_GPS    iGPS            $GPGGA,164713.000,4221.4751,N,07105.2973,W,2,10,0.85,5.2,M,-33.7,M,0000,0000*54 
330.03658       GPS_NMEA_FROM_GPS    iGPS            $GPGGA,164714.000,4221.4749,N,07105.2974,W,2,10,0.85,5.3,M,-33.7,M,0000,0000*5C 
331.03985       GPS_NMEA_FROM_GPS    iGPS            $GPGGA,164715.000,4221.4747,N,07105.2975,W,2,10,0.85,5.3,M,-33.7,M,0000,0000*52 
332.14307       GPS_NMEA_FROM_GPS    iGPS            $GPGSA,A,3,06,19,12,25,11,20,04,09,17,05,,,1.78,0.85,1.57*04 
333.14596       GPS_NMEA_FROM_GPS    iGPS            $GPGSA,A,3,06,19,12,25,11,20,04,09,17,05,,,1.78,0.85,1.57*04 
334.14928       GPS_NMEA_FROM_GPS    iGPS            $GPGSA,A,3,06,19,12,25,11,20,04,09,17,05,,,1.20,0.85,0.84*06 
335.05229       GPS_NMEA_FROM_GPS    iGPS            $GPGGA,164719.000,4221.4738,N,07105.2973,W,2,10,0.85,5.1,M,-33.7,M,0000,0000*52 
336.05525       GPS_NMEA_FROM_GPS    iGPS            $GPGGA,164720.000,4221.4735,N,07105.2971,W,2,10,0.85,5.0,M,-33.7,M,0000,0000*56 
337.05823       GPS_NMEA_FROM_GPS    iGPS            $GPGSA,A,3,06,19,12,25,11,20,04,09,17,05,,,1.20,0.85,0.84*06 
338.06139       GPS_NMEA_FROM_GPS    iGPS            $GPGGA,164722.000,4221.4731,N,07105.2968,W,2,10,0.85,4.9,M,-33.7,M,0000,0000*50 
339.06436       GPS_NMEA_FROM_GPS    iGPS            $GPGSA,A,3,06,19,12,25,11,20,04,09,17,05,,,1.20,0.85,0.84*06 
340.06653       GPS_NMEA_FROM_GPS    iGPS            $GPGGA,164724.000,4221.4728,N,07105.2967,W,2,10,0.85,4.8,M,-33.7,M,0000,0000*50 
341.06971       GPS_NMEA_FROM_GPS    iGPS            $GPGGA,164725.000,4221.4726,N,07105.2967,W,2,10,0.85,4.7,M,-33.7,M,0000,0000*50 
342.07273       GPS_NMEA_FROM_GPS    iGPS            $GPGGA,164726.000,4221.4723,N,07105.2967,W,2,10,0.85,4.7,M,-33.7,M,0000,0000*56 
343.07589       GPS_NMEA_FROM_GPS    iGPS            $GPGGA,164727.000,4221.4720,N,07105.2967,W,2,10,0.85,4.6,M,-33.7,M,0000,0000*55 
344.07928       GPS_NMEA_FROM_GPS    iGPS            $GPGSA,A,3,06,19,12,25,11,20,04,09,17,05,,,1.20,0.85,0.84*06 
345.08295       GPS_NMEA_FROM_GPS    iGPS            $GPGSA,A,3,06,19,12,25,11,20,04,09,17,05,,,1.78,0.85,1.57*04 
345.98454       GPS_NMEA_FROM_GPS    iGPS            $GPGGA,164730.000,4221.4714,N,07105.2968,W,2,10,0.85,4.5,M,-33.7,M,0000,0000*58 
346.98772       GPS_NMEA_FROM_GPS    iGPS            $GPGGA,164731.000,4221.4711,N,07105.2967,W,2,10,0.85,4.5,M,-33.7,M,0000,0000*53 
348.09082       GPS_NMEA_FROM_GPS    iGPS            $GPGSA,A,3,06,19,12,25,11,20,04,09,17,05,,,1.79,0.85,1.57*05 
348.99378       GPS_NMEA_FROM_GPS    iGPS            $GPGGA,164733.000,4221.4705,N,07105.2967,W,2,10,0.85,4.2,M,-33.7,M,0000,0000*53 
349.99673       GPS_NMEA_FROM_GPS    iGPS            $GPGGA,164734.000,4221.4703,N,07105.2966,W,2,10,0.85,4.1,M,-33.7,M,0000,0000*50 
351.09993       GPS_NMEA_FROM_GPS    iGPS            $GPGSA,A,3,06,19,12,25,11,20,04,09,17,05,,,1.79,0.85,1.57*05 
352.10313       GPS_NMEA_FROM_GPS    iGPS            $GPGSA,A,3,06,19,12,25,11,20,04,09,17,05,,,1.79,0.85,1.57*05 
353.10572       GPS_NMEA_FROM_GPS    iGPS            $GPGGA,164737.000,4221.4697,N,07105.2961,W,2,10,0.85,3.9,M,-33.7,M,0000,0000*57 
354.10816       GPS_NMEA_FROM_GPS    iGPS            $GPGSA,A,3,06,19,12,25,11,20,04,09,17,05,,,1.20,0.85,0.84*06 
355.11160       GPS_NMEA_FROM_GPS    iGPS            $GPGSA,A,3,06,19,12,25,11,20,04,09,17,05,,,1.20,0.85,0.84*06 
356.01421       GPS_NMEA_FROM_GPS    iGPS            $GPGGA,164740.000,4221.4692,N,07105.2955,W,2,10,0.85,3.5,M,-33.7,M,0000,0000*59 
357.01764       GPS_NMEA_FROM_GPS    iGPS            $GPGGA,164741.000,4221.4690,N,07105.2953,W,2,10,0.85,3.5,M,-33.7,M,0000,0000*5C 
358.02073       GPS_NMEA_FROM_GPS    iGPS            $GPGGA,164742.000,4221.4688,N,07105.2950,W,2,10,0.85,3.5,M,-33.7,M,0000,0000*55 
359.12458       GPS_NMEA_FROM_GPS    iGPS            $GPGSA,A,3,06,19,12,25,11,20,04,09,17,05,,,1.20,0.85,0.84*06 
360.12738       GPS_NMEA_FROM_GPS    iGPS            $GPGSA,A,3,06,19,12,25,11,20,04,09,17,05,,,1.20,0.85,0.84*06 
361.13078       GPS_NMEA_FROM_GPS    iGPS            $GPGSA,A,3,06,19,12,25,11,20,04,09,17,05,,,1.20,0.85,0.84*06 
362.03349       GPS_NMEA_FROM_GPS    iGPS            $GPGGA,164746.000,4221.4681,N,07105.2943,W,2,10,0.85,3.5,M,-33.7,M,0000,0000*5A 
363.03648       GPS_NMEA_FROM_GPS    iGPS            $GPGGA,164747.000,4221.4679,N,07105.2942,W,2,10,0.85,3.5,M,-33.7,M,0000,0000*5D 
364.13921       GPS_NMEA_FROM_GPS    iGPS            $GPGSA,A,3,06,19,12,25,11,20,04,09,17,05,,,1.20,0.85,0.84*06 
365.14110       GPS_NMEA_FROM_GPS    iGPS            $GPGSA,A,3,06,19,12,25,11,20,04,09,17,05,,,1.20,0.85,0.84*06 
366.04328       GPS_NMEA_FROM_GPS    iGPS            $GPGGA,164750.000,4221.4675,N,07105.2933,W,2,10,0.85,3.6,M,-33.7,M,0000,0000*52 
367.04642       GPS_NMEA_FROM_GPS    iGPS            $GPGGA,164751.000,4221.4674,N,07105.2930,W,2,10,0.85,3.6,M,-33.7,M,0000,0000*51 
368.04948       GPS_NMEA_FROM_GPS    iGPS            $GPGGA,164752.000,4221.4674,N,07105.2926,W,2,10,0.85,3.6,M,-33.7,M,0000,0000*55 
369.05274       GPS_NMEA_FROM_GPS    iGPS            $GPGSA,A,3,06,19,12,25,11,20,04,09,17,05,,,1.20,0.85,0.84*06 
370.05614       GPS_NMEA_FROM_GPS    iGPS            $GPGSA,A,3,06,19,12,25,11,20,04,09,17,05,,,1.20,0.85,0.84*06 
371.05902       GPS_NMEA_FROM_GPS    iGPS            $GPGGA,164755.000,4221.4671,N,07105.2915,W,2,10,0.85,3.7,M,-33.7,M,0000,0000*56 
372.06219       GPS_NMEA_FROM_GPS    iGPS            $GPGGA,164756.000,4221.4670,N,07105.2911,W,2,10,0.85,3.8,M,-33.7,M,0000,0000*5F 
373.06523       GPS_NMEA_FROM_GPS    iGPS            $GPGGA,164757.000,4221.4670,N,07105.2908,W,2,10,0.85,3.8,M,-33.7,M,0000,0000*56 
374.06860       GPS_NMEA_FROM_GPS    iGPS            $GPGGA,164758.000,4221.4670,N,07105.2905,W,2,10,0.85,3.7,M,-33.7,M,0000,0000*5B 
375.07166       GPS_NMEA_FROM_GPS    iGPS            $GPGGA,164759.000,4221.4669,N,07105.2902,W,2,10,0.85,3.7,M,-33.7,M,0000,0000*55 
376.07475       GPS_NMEA_FROM_GPS    iGPS            $GPGGA,164800.000,4221.4670,N,07105.2899,W,2,10,0.85,3.6,M,-33.7,M,0000,0000*5C 
377.07763       GPS_NMEA_FROM_GPS    iGPS            $GPGSA,A,3,06,19,12,25,11,20,04,09,17,05,,,1.20,0.85,0.84*06 
378.07983       GPS_NMEA_FROM_GPS    iGPS            $GPGSA,A,3,06,19,12,25,11,20,04,09,17,05,,,1.20,0.85,0.84*06 
378.98249       GPS_NMEA_FROM_GPS    iGPS            $GPGGA,164803.000,4221.4669,N,07105.2890,W,2,10,0.85,3.6,M,-33.7,M,0000,0000*5E 
380.08574       GPS_NMEA_FROM_GPS    iGPS            $GPGGA,164804.000,4221.4668,N,07105.2886,W,2,10,0.85,3.6,M,-33.7,M,0000,0000*5F 
381.08936       GPS_NMEA_FROM_GPS    iGPS            $GPGGA,164805.000,4221.4667,N,07105.2883,W,2,10,0.85,3.6,M,-33.7,M,0000,0000*54 
382.09245       GPS_NMEA_FROM_GPS    iGPS            $GPGGA,164806.000,4221.4666,N,07105.2879,W,2,10,0.85,3.6,M,-33.7,M,0000,0000*53 
382.99518       GPS_NMEA_FROM_GPS    iGPS            $GPGGA,164807.000,4221.4666,N,07105.2875,W,2,10,0.85,3.7,M,-33.7,M,0000,0000*5F 
383.99835       GPS_NMEA_FROM_GPS    iGPS            $GPGGA,164808.000,4221.4666,N,07105.2871,W,2,10,0.85,3.7,M,-33.7,M,0000,0000*54 
385.10165       GPS_NMEA_FROM_GPS    iGPS            $GPGGA,164809.000,4221.4667,N,07105.2868,W,2,10,0.85,3.8,M,-33.7,M,0000,0000*53 
386.10492       GPS_NMEA_FROM_GPS    iGPS            $GPGSA,A,3,06,19,12,25,11,20,04,09,17,05,,,1.20,0.85,0.84*06 
387.10812       GPS_NMEA_FROM_GPS    iGPS            $GPGGA,164811.000,4221.4668,N,07105.2861,W,2,10,0.85,3.8,M,-33.7,M,0000,0000*5C 
388.01119       GPS_NMEA_FROM_GPS    iGPS            $GPGGA,164812.000,4221.4668,N,07105.2858,W,2,10,0.85,3.8,M,-33.7,M,0000,0000*55 
389.01452       GPS_NMEA_FROM_GPS    iGPS            $GPGGA,164813.000,4221.4668,N,07105.2854,W,2,10,0.85,3.7,M,-33.7,M,0000,0000*57 
390.01695       GPS_NMEA_FROM_GPS    iGPS            $GPGGA,164814.000,4221.4669,N,07105.2851,W,2,10,0.85,3.6,M,-33.7,M,0000,0000*55 
391.01952       GPS_NMEA_FROM_GPS    iGPS            $GPGGA,164815.000,4221.4668,N,07105.2847,W,2,10,0.85,3.6,M,-33.7,M,0000,0000*52 
392.02244       GPS_NMEA_FROM_GPS    iGPS            $GPGGA,164816.000,4221.4668,N,07105.2844,W,2,10,0.85,3.6,M,-33.7,M,0000,0000*52 
393.12597       GPS_NMEA_FROM_GPS    iGPS            $GPGSA,A,3,06,19,12,25,11,20,04,09,17,05,,,1.79,0.85,1.57*05 
394.12911       GPS_NMEA_FROM_GPS    iGPS            $GPGSA,A,3,06,19,12,25,11,20,04,09,17,05,,,1.20,0.85,0.84*06 
395.03178       GPS_NMEA_FROM_GPS    iGPS            $GPGGA,164819.000,4221.4667,N,07105.2833,W,2,10,0.85,3.5,M,-33.7,M,0000,0000*51 
396.03463       GPS_NMEA_FROM_GPS    iGPS            $GPGGA,164820.000,4221.4667,N,07105.2829,W,2,10,0.85,3.5,M,-33.7,M,0000,0000*50 
397.03769       GPS_NMEA_FROM_GPS    iGPS            $GPGGA,164821.000,4221.4667,N,07105.2825,W,2,10,0.85,3.5,M,-33.7,M,0000,0000*5D 
398.14093       GPS_NMEA_FROM_GPS    iGPS            $GPGSA,A,3,06,19,12,25,11,20,04,09,17,05,,,1.20,0.85,0.84*06 
399.04371       GPS_NMEA_FROM_GPS    iGPS            $GPGGA,164823.000,4221.4669,N,07105.2817,W,2,10,0.85,3.5,M,-33.7,M,0000,0000*50 
400.04657       GPS_NMEA_FROM_GPS    iGPS            $GPGGA,164824.000,4221.4670,N,07105.2813,W,2,10,0.85,3.5,M,-33.7,M,0000,0000*5B 
401.04960       GPS_NMEA_FROM_GPS    iGPS            $GPGGA,164825.000,4221.4670,N,07105.2810,W,2,10,0.85,3.4,M,-33.7,M,0000,0000*58 
402.05396       GPS_NMEA_FROM_GPS    iGPS            $GPGGA,164826.000,4221.4670,N,07105.2806,W,2,10,0.85,3.4,M,-33.7,M,0000,0000*5C 
403.05741       GPS_NMEA_FROM_GPS    iGPS            $GPGGA,164827.000,4221.4671,N,07105.2802,W,2,10,0.85,3.3,M,-33.7,M,0000,0000*5F 
404.06028       GPS_NMEA_FROM_GPS    iGPS            $GPGGA,164828.000,4221.4671,N,07105.2798,W,2,10,0.85,3.3,M,-33.7,M,0000,0000*5C 
405.06347       GPS_NMEA_FROM_GPS    iGPS            $GPGSA,A,3,06,19,12,25,11,20,04,09,17,05,,,1.20,0.85,0.84*06 
406.06650       GPS_NMEA_FROM_GPS    iGPS            $GPGGA,164830.000,4221.4671,N,07105.2790,W,2,10,0.85,3.3,M,-33.7,M,0000,0000*5D 
406.96936       GPS_NMEA_FROM_GPS    iGPS            $GPGGA,164831.000,4221.4671,N,07105.2786,W,2,10,0.85,3.4,M,-33.7,M,0000,0000*5C 
408.07265       GPS_NMEA_FROM_GPS    iGPS            $GPGGA,164832.000,4221.4672,N,07105.2783,W,2,10,0.85,3.5,M,-33.7,M,0000,0000*58 
409.07601       GPS_NMEA_FROM_GPS    iGPS            $GPGSA,A,3,06,19,12,25,11,20,04,09,17,05,,,1.20,0.85,0.84*06 
410.07949       GPS_NMEA_FROM_GPS    iGPS            $GPGSA,A,3,06,19,12,25,11,20,04,09,17,05,,,1.20,0.85,0.84*06 
410.98250       GPS_NMEA_FROM_GPS    iGPS            $GPGGA,164835.000,4221.4674,N,07105.2771,W,2,10,0.85,3.6,M,-33.7,M,0000,0000*57 
411.98552       GPS_NMEA_FROM_GPS    iGPS            $GPGGA,164836.000,4221.4674,N,07105.2767,W,2,10,0.85,3.6,M,-33.7,M,0000,0000*53 
412.98876       GPS_NMEA_FROM_GPS    iGPS            $GPGGA,164837.000,4221.4674,N,07105.2763,W,2,10,0.85,3.6,M,-33.7,M,0000,0000*56 
414.09216       GPS_NMEA_FROM_GPS    iGPS            $GPGGA,164838.000,4221.4674,N,07105.2759,W,2,10,0.85,3.6,M,-33.7,M,0000,0000*50 
414.99473       GPS_NMEA_FROM_GPS    iGPS            $GPGGA,164839.000,4221.4675,N,07105.2755,W,2,10,0.85,3.6,M,-33.7,M,0000,0000*5C 
415.99733       GPS_NMEA_FROM_GPS    iGPS            $GPGGA,164840.000,4221.4675,N,07105.2751,W,2,10,0.85,3.6,M,-33.7,M,0000,0000*56 
416.99989       GPS_NMEA_FROM_GPS    iGPS            $GPGGA,164841.000,4221.4675,N,07105.2746,W,2,10,0.85,3.6,M,-33.7,M,0000,0000*51 
418.00282       GPS_NMEA_FROM_GPS    iGPS            $GPGGA,164842.000,4221.4676,N,07105.2742,W,2,10,0.85,3.5,M,-33.7,M,0000,0000*56 
419.10666       GPS_NMEA_FROM_GPS    iGPS            $GPGSA,A,3,06,19,12,25,11,20,04,09,17,05,,,1.20,0.85,0.84*06 
420.10972       GPS_NMEA_FROM_GPS    iGPS            $GPGSA,A,3,06,19,12,25,11,20,04,09,17,05,,,1.20,0.85,0.84*06 
421.11304       GPS_NMEA_FROM_GPS    iGPS            $GPGSA,A,3,06,19,12,25,11,20,04,09,17,05,,,1.20,0.85,0.84*06 
422.11584       GPS_NMEA_FROM_GPS    iGPS            $GPGSA,A,3,06,19,12,25,11,20,04,09,17,05,,,1.20,0.85,0.84*06 
423.01858       GPS_NMEA_FROM_GPS    iGPS            $GPGGA,164847.000,4221.4678,N,07105.2724,W,2,10,0.85,3.9,M,-33.7,M,0000,0000*51 
424.02176       GPS_NMEA_FROM_GPS    iGPS            $GPGGA,164848.000,4221.4678,N,07105.2720,W,2,10,0.85,3.9,M,-33.7,M,0000,0000*5A 
425.02477       GPS_NMEA_FROM_GPS    iGPS            $GPGGA,164849.000,4221.4678,N,07105.2716,W,2,10,0.85,4.0,M,-33.7,M,0000,0000*50 
426.12789       GPS_NMEA_FROM_GPS    iGPS            $GPGSA,A,3,06,19,12,25,11,20,04,09,17,05,,,1.20,0.85,0.84*06 
427.13190       GPS_NMEA_FROM_GPS    iGPS            $GPGSA,A,3,06,19,12,25,11,20,04,09,17,05,,,1.20,0.85,0.84*06 
428.13446       GPS_NMEA_FROM_GPS    iGPS            $GPGSA,A,3,06,19,12,25,11,20,04,09,17,05,,,1.20,0.85,0.84*06 
429.03684       GPS_NMEA_FROM_GPS    iGPS            $GPGGA,164853.000,4221.4680,N,07105.2700,W,2,10,0.85,4.1,M,-33.7,M,0000,0000*5A 
430.03910       GPS_NMEA_FROM_GPS    iGPS            $GPGGA,164854.000,4221.4680,N,07105.2697,W,2,10,0.85,4.2,M,-33.7,M,0000,0000*51 
431.04143       GPS_NMEA_FROM_GPS    iGPS            $GPGGA,164855.000,4221.4681,N,07105.2694,W,2,10,0.85,4.3,M,-33.7,M,0000,0000*53 
432.04436       GPS_NMEA_FROM_GPS    iGPS            $GPGGA,164856.000,4221.4682,N,07105.2691,W,2,10,0.85,4.3,M,-33.7,M,0000,0000*56 
433.04728       GPS_NMEA_FROM_GPS    iGPS            $GPGGA,164857.000,4221.4684,N,07105.2688,W,2,10,0.85,4.3,M,-33.7,M,0000,0000*59 
434.05040       GPS_NMEA_FROM_GPS    iGPS            $GPGGA,164858.000,4221.4686,N,07105.2686,W,2,10,0.85,4.3,M,-33.7,M,0000,0000*5A 
435.05342       GPS_NMEA_FROM_GPS    iGPS            $GPGGA,164859.000,4221.4687,N,07105.2683,W,2,10,0.85,4.3,M,-33.7,M,0000,0000*5F 
436.05632       GPS_NMEA_FROM_GPS    iGPS            $GPGSA,A,3,06,19,12,25,11,20,04,09,17,05,,,1.20,0.85,0.84*06 
437.05919       GPS_NMEA_FROM_GPS    iGPS            $GPGGA,164901.000,4221.4691,N,07105.2678,W,2,10,0.85,4.3,M,-33.7,M,0000,0000*50 
438.06213       GPS_NMEA_FROM_GPS    iGPS            $GPGSA,A,3,06,19,12,25,11,20,04,09,17,05,,,1.20,0.85,0.84*06 
439.06553       GPS_NMEA_FROM_GPS    iGPS            $GPGSA,A,3,06,19,12,25,11,20,04,09,17,05,,,1.20,0.85,0.84*06 
440.06845       GPS_NMEA_FROM_GPS    iGPS            $GPGGA,164904.000,4221.4696,N,07105.2669,W,2,10,0.85,4.4,M,-33.7,M,0000,0000*55 
441.07142       GPS_NMEA_FROM_GPS    iGPS            $GPGGA,164905.000,4221.4698,N,07105.2666,W,2,10,0.85,4.5,M,-33.7,M,0000,0000*54 
442.07390       GPS_NMEA_FROM_GPS    iGPS            $GPGGA,164906.000,4221.4701,N,07105.2663,W,2,10,0.85,4.6,M,-33.7,M,0000,0000*50 
443.07662       GPS_NMEA_FROM_GPS    iGPS            $GPGGA,164907.000,4221.4703,N,07105.2660,W,2,10,0.85,4.8,M,-33.7,M,0000,0000*5E 
444.08001       GPS_NMEA_FROM_GPS    iGPS            $GPGGA,164908.000,4221.4706,N,07105.2657,W,2,10,0.85,5.0,M,-33.7,M,0000,0000*59 
444.98335       GPS_NMEA_FROM_GPS    iGPS            $GPGGA,164909.000,4221.4708,N,07105.2655,W,2,10,0.85,5.2,M,-33.7,M,0000,0000*56 
445.98643       GPS_NMEA_FROM_GPS    iGPS            $GPGGA,164910.000,4221.4711,N,07105.2654,W,2,10,0.85,5.4,M,-33.7,M,0000,0000*51 
447.09011       GPS_NMEA_FROM_GPS    iGPS            $GPGGA,164911.000,4221.4715,N,07105.2652,W,2,10,0.85,5.5,M,-33.7,M,0000,0000*53 
448.09319       GPS_NMEA_FROM_GPS    iGPS            $GPGSA,A,3,06,19,12,25,11,20,04,09,17,05,,,1.20,0.85,0.84*06 
449.09633       GPS_NMEA_FROM_GPS    iGPS            $GPGGA,164913.000,4221.4720,N,07105.2649,W,2,10,0.85,5.7,M,-33.7,M,0000,0000*5F 
450.09932       GPS_NMEA_FROM_GPS    iGPS            $GPGSA,A,3,06,19,12,25,11,20,04,09,17,05,,,1.20,0.85,0.84*06 
451.10228       GPS_NMEA_FROM_GPS    iGPS            $GPGSA,A,3,06,19,12,25,11,20,04,09,17,05,,,1.20,0.85,0.84*06 
452.10557       GPS_NMEA_FROM_GPS    iGPS            $GPGSA,A,3,06,19,12,25,11,20,04,09,17,05,,,1.20,0.85,0.84*06 
453.00822       GPS_NMEA_FROM_GPS    iGPS            $GPGGA,164917.000,4221.4732,N,07105.2645,W,2,09,0.99,5.8,M,-33.7,M,0000,0000*5E 
454.01102       GPS_NMEA_FROM_GPS    iGPS            $GPGGA,164918.000,4221.4735,N,07105.2645,W,2,10,0.85,5.9,M,-33.7,M,0000,0000*52 
455.01363       GPS_NMEA_FROM_GPS    iGPS            $GPGGA,164919.000,4221.4738,N,07105.2646,W,2,10,0.85,5.9,M,-33.7,M,0000,0000*5D 
456.01611       GPS_NMEA_FROM_GPS    iGPS            $GPGGA,164920.000,4221.4741,N,07105.2646,W,2,10,0.85,5.9,M,-33.7,M,0000,0000*59 
457.01901       GPS_NMEA_FROM_GPS    iGPS            $GPGGA,164921.000,4221.4744,N,07105.2645,W,2,10,0.85,6.1,M,-33.7,M,0000,0000*55 
458.02185       GPS_NMEA_FROM_GPS    iGPS            $GPGGA,164922.000,4221.4746,N,07105.2645,W,2,10,0.85,6.2,M,-33.7,M,0000,0000*57 
459.12535       GPS_NMEA_FROM_GPS    iGPS            $GPGSA,A,3,06,19,12,25,11,20,04,09,17,05,,,1.79,0.85,1.57*05 
460.02781       GPS_NMEA_FROM_GPS    iGPS            $GPGGA,164924.000,4221.4752,N,07105.2642,W,2,10,0.85,6.5,M,-33.7,M,0000,0000*54 
461.13092       GPS_NMEA_FROM_GPS    iGPS            $GPGSA,A,3,06,19,12,25,11,20,04,09,17,05,,,1.20,0.85,0.84*06 
462.13370       GPS_NMEA_FROM_GPS    iGPS            $GPGSA,A,3,06,19,12,25,11,20,04,09,17,05,,,1.79,0.85,1.57*05 
463.03709       GPS_NMEA_FROM_GPS    iGPS            $GPGGA,164927.000,4221.4759,N,07105.2640,W,2,10,0.85,6.4,M,-33.7,M,0000,0000*5F 
464.04186       GPS_NMEA_FROM_GPS    iGPS            $GPGGA,164928.000,4221.4761,N,07105.2640,W,2,10,0.85,6.5,M,-33.7,M,0000,0000*5A 
465.04489       GPS_NMEA_FROM_GPS    iGPS            $GPGGA,164929.000,4221.4764,N,07105.2639,W,2,10,0.85,6.4,M,-33.7,M,0000,0000*51 
466.04766       GPS_NMEA_FROM_GPS    iGPS            $GPGSA,A,3,06,19,12,25,11,20,04,09,17,05,,,1.79,0.85,1.57*05 
466.95012       GPS_NMEA_FROM_GPS    iGPS            $GPGGA,164931.000,4221.4768,N,07105.2640,W,2,10,0.85,6.6,M,-33.7,M,0000,0000*58 
468.05310       GPS_NMEA_FROM_GPS    iGPS            $GPGGA,164932.000,4221.4771,N,07105.2640,W,2,10,0.85,6.8,M,-33.7,M,0000,0000*5D 
