2.07205         GPS_NMEA_FROM_GPS    iGPS            $GPGGA,160334.000,4221.5214,N,07105.2313,W,2,08,1.18,4.4,M,-33.7,M,0000,0000*53 
3.07440         GPS_NMEA_FROM_GPS    iGPS            $GPGGA,160335.000,4221.5213,N,07105.2315,W,2,08,1.18,4.5,M,-33.7,M,0000,0000*52 
4.07685         GPS_NMEA_FROM_GPS    iGPS            $GPGSA,A,3,06,19,12,11,20,04,09,17,,,,,2.17,1.18,1.82*01 
4.07685         GPS_NMEA_FROM_GPS    iGPS            $GPGSA,A,3,06,19,12,11,20,04,09,17,,,,,2.17,1.18,1.82*01 
5.07885         GPS_NMEA_FROM_GPS    iGPS            $GPGGA,160337.000,4221.5211,N,07105.2319,W,2,08,1.18,4.7,M,-33.7,M,0000,0000*5C 
6.08208         GPS_NMEA_FROM_GPS    iGPS            $GPGSA,A,3,06,19,12,11,20,04,09,17,,,,,1.45,1.15,0.88*03 
7.08458         GPS_NMEA_FROM_GPS    iGPS            $GPGSA,A,3,06,19,12,11,20,04,09,17,,,,,1.45,1.15,0.88*03 
8.08737         GPS_NMEA_FROM_GPS    iGPS            $GPGSA,A,3,06,19,12,11,20,04,09,17,,,,,1.45,1.15,0.88*03 
8.98984         GPS_NMEA_FROM_GPS    iGPS            $GPGGA,160341.000,4221.5210,N,07105.2321,W,2,08,1.15,4.8,M,-33.7,M,0000,0000*55 
10.09280        GPS_NMEA_FROM_GPS    iGPS            $GPGSA,A,3,06,19,12,11,20,04,09,17,,,,,1.45,1.15,0.88*03 
11.09583        GPS_NMEA_FROM_GPS    iGPS            $GPGSA,A,3,06,19,12,11,20,04,09,17,,,,,1.45,1.15,0.88*03 
11.09583        GPS_NMEA_FROM_GPS    iGPS            $GPGSA,A,3,06,19,12,11,20,04,09,17,,,,,1.45,1.15,0.88*03 
12.09920        GPS_NMEA_FROM_GPS    iGPS            $GPGSA,A,3,06,19,12,11,20,04,09,17,,,,,1.45,1.15,0.88*03 
13.10242        GPS_NMEA_FROM_GPS    iGPS            $GPGSA,A,3,06,19,12,11,20,04,09,17,,,,,1.45,1.15,0.88*03 
14.10496        GPS_NMEA_FROM_GPS    iGPS            $GPGSA,A,3,06,19,12,11,20,04,09,17,,,,,1.45,1.15,0.88*03 
15.10772        GPS_NMEA_FROM_GPS    iGPS            $GPGGA,160347.000,4221.5208,N,07105.2322,W,2,08,1.15,4.8,M,-33.7,M,0000,0000*59 
16.11050        GPS_NMEA_FROM_GPS    iGPS            $GPGGA,160348.000,4221.5208,N,07105.2322,W,2,08,1.15,4.8,M,-33.7,M,0000,0000*56 
17.11284        GPS_NMEA_FROM_GPS    iGPS            $GPGGA,160349.000,4221.5207,N,07105.2322,W,2,08,1.15,4.8,M,-33.7,M,0000,0000*58 
18.11522        GPS_NMEA_FROM_GPS    iGPS            $GPGSA,A,3,06,19,12,11,20,04,09,17,,,,,1.45,1.15,0.88*03 
19.01750        GPS_NMEA_FROM_GPS    iGPS            $GPGGA,160351.000,4221.5207,N,07105.2323,W,2,08,1.15,4.8,M,-33.7,M,0000,0000*50 
20.02070        GPS_NMEA_FROM_GPS    iGPS            $GPGGA,160352.000,4221.5206,N,07105.2323,W,2,08,1.15,4.8,M,-33.7,M,0000,0000*52 
21.12356        GPS_NMEA_FROM_GPS    iGPS            $GPGSA,A,3,06,19,12,11,20,04,09,17,,,,,1.45,1.15,0.88*03 
22.12601        GPS_NMEA_FROM_GPS    iGPS            $GPGSA,A,3,06,19,12,11,20,04,09,17,,,,,1.45,1.15,0.88*03 
23.12838        GPS_NMEA_FROM_GPS    iGPS            $GPGSA,A,3,06,19,12,11,20,04,09,17,,,,,1.45,1.15,0.88*03 
24.13095        GPS_NMEA_FROM_GPS    iGPS            $GPGSA,A,3,06,19,12,11,20,04,09,17,,,,,1.45,1.15,0.88*03 
25.13364        GPS_NMEA_FROM_GPS    iGPS            $GPGSA,A,3,06,19,12,11,20,04,09,17,,,,,1.45,1.15,0.88*03 
26.13684        GPS_NMEA_FROM_GPS    iGPS            $GPGSA,A,3,06,19,12,11,20,04,09,17,,,,,1.45,1.15,0.88*03 
27.13986        GPS_NMEA_FROM_GPS    iGPS            $GPGSA,A,3,06,19,12,11,20,04,09,17,,,,,1.45,1.15,0.88*03 
27.13986        GPS_NMEA_FROM_GPS    iGPS            $GPGSA,A,3,06,19,12,11,20,04,09,17,,,,,1.45,1.15,0.88*03 
28.04248        GPS_NMEA_FROM_GPS    iGPS            $GPGGA,160400.000,4221.5204,N,07105.2324,W,2,08,1.15,4.9,M,-33.7,M,0000,0000*56 
29.04488        GPS_NMEA_FROM_GPS    iGPS            $GPGGA,160401.000,4221.5204,N,07105.2325,W,2,08,1.15,4.9,M,-33.7,M,0000,0000*56 
30.04880        GPS_NMEA_FROM_GPS    iGPS            $GPGGA,160402.000,4221.5204,N,07105.2325,W,2,08,1.15,4.8,M,-33.7,M,0000,0000*54 
31.05274        GPS_NMEA_FROM_GPS    iGPS            $GPGGA,160403.000,4221.5204,N,07105.2325,W,2,08,1.15,4.8,M,-33.7,M,0000,0000*55 
32.05579        GPS_NMEA_FROM_GPS    iGPS            $GPGSA,A,3,06,19,12,11,20,04,09,17,,,,,1.45,1.15,0.88*03 
33.05847        GPS_NMEA_FROM_GPS    iGPS            $GPGSA,A,3,06,19,12,11,20,04,09,17,,,,,1.45,1.15,0.88*03 
34.06176        GPS_NMEA_FROM_GPS    iGPS            $GPGGA,160406.000,4221.5204,N,07105.2325,W,2,08,1.18,4.8,M,-33.7,M,0000,0000*5D 
35.06462        GPS_NMEA_FROM_GPS    iGPS            $GPGGA,160407.000,4221.5204,N,07105.2325,W,2,08,1.18,4.8,M,-33.7,M,0000,0000*5C 
36.06799        GPS_NMEA_FROM_GPS    iGPS            $GPGGA,160408.000,4221.5204,N,07105.2325,W,2,08,1.18,4.8,M,-33.7,M,0000,0000*53 
37.07087        GPS_NMEA_FROM_GPS    iGPS            $GPGGA,160409.000,4221.5204,N,07105.2325,W,2,08,1.18,4.8,M,-33.7,M,0000,0000*52 
38.07337        GPS_NMEA_FROM_GPS    iGPS            $GPGGA,160410.000,4221.5204,N,07105.2325,W,2,08,1.18,4.8,M,-33.7,M,0000,0000*5A 
39.07563        GPS_NMEA_FROM_GPS    iGPS            $GPGGA,160411.000,4221.5204,N,07105.2325,W,2,08,1.18,4.8,M,-33.7,M,0000,0000*5B 
40.07831        GPS_NMEA_FROM_GPS    iGPS            $GPGGA,160412.000,4221.5204,N,07105.2325,W,2,08,1.18,4.8,M,-33.7,M,0000,0000*58 
41.08139        GPS_NMEA_FROM_GPS    iGPS            $GPGSA,A,3,06,19,12,11,20,04,09,17,,,,,2.18,1.18,1.83*0F 
42.08346        GPS_NMEA_FROM_GPS    iGPS            $GPGGA,160414.000,4221.5204,N,07105.2325,W,2,08,1.18,4.8,M,-33.7,M,0000,0000*5E 
42.98573        GPS_NMEA_FROM_GPS    iGPS            $GPGGA,160415.000,4221.5204,N,07105.2325,W,2,08,1.18,4.8,M,-33.7,M,0000,0000*5F 
44.08826        GPS_NMEA_FROM_GPS    iGPS            $GPGSA,A,3,06,19,12,11,20,04,09,17,,,,,2.18,1.18,1.83*0F 
45.09152        GPS_NMEA_FROM_GPS    iGPS            $GPGGA,160417.000,4221.5204,N,07105.2325,W,2,08,1.18,4.8,M,-33.7,M,0000,0000*5D 
46.09465        GPS_NMEA_FROM_GPS    iGPS            $GPGGA,160418.000,4221.5204,N,07105.2325,W,2,08,1.18,4.8,M,-33.7,M,0000,0000*52 
47.09760        GPS_NMEA_FROM_GPS    iGPS            $GPGGA,160419.000,4221.5204,N,07105.2325,W,2,08,1.18,4.8,M,-33.7,M,0000,0000*53 
48.10044        GPS_NMEA_FROM_GPS    iGPS            $GPGGA,160420.000,4221.5204,N,07105.2325,W,2,08,1.18,4.8,M,-33.7,M,0000,0000*59 
49.10312        GPS_NMEA_FROM_GPS    iGPS            $GPGSA,A,3,06,19,12,11,20,04,09,17,,,,,2.18,1.18,1.84*08 
50.10609        GPS_NMEA_FROM_GPS    iGPS            $GPGSA,A,3,06,19,12,11,20,04,09,17,,,,,2.18,1.18,1.83*0F 
51.00880        GPS_NMEA_FROM_GPS    iGPS            $GPGGA,160423.000,4221.5204,N,07105.2325,W,2,08,1.18,4.8,M,-33.7,M,0000,0000*5A 
52.01176        GPS_NMEA_FROM_GPS    iGPS            $GPGGA,160424.000,4221.5204,N,07105.2325,W,2,08,1.18,4.8,M,-33.7,M,0000,0000*5D 
53.01507        GPS_NMEA_FROM_GPS    iGPS            $GPGGA,160425.000,4221.5204,N,07105.2325,W,2,08,1.18,4.8,M,-33.7,M,0000,0000*5C 
54.01826        GPS_NMEA_FROM_GPS    iGPS            $GPGGA,160426.000,4221.5204,N,07105.2325,W,2,08,1.18,4.8,M,-33.7,M,0000,0000*5F 
55.02045        GPS_NMEA_FROM_GPS    iGPS            $GPGGA,160427.000,4221.5204,N,07105.2325,W,2,08,1.18,4.8,M,-33.7,M,0000,0000*5E 
56.02339        GPS_NMEA_FROM_GPS    iGPS            $GPGGA,160428.000,4221.5204,N,07105.2325,W,2,08,1.18,4.8,M,-33.7,M,0000,0000*51 
57.02637        GPS_NMEA_FROM_GPS    iGPS            $GPGGA,160429.000,4221.5204,N,07105.2325,W,2,08,1.18,4.8,M,-33.7,M,0000,0000*50 
58.12964        GPS_NMEA_FROM_GPS    iGPS            $GPGSA,A,3,06,19,12,11,20,04,09,17,,,,,2.18,1.18,1.84*08 
59.13249        GPS_NMEA_FROM_GPS    iGPS            $GPGSA,A,3,06,19,12,11,20,04,09,17,,,,,2.18,1.18,1.84*08 
60.03527        GPS_NMEA_FROM_GPS    iGPS            $GPGGA,160432.000,4221.5204,N,07105.2325,W,2,08,1.18,4.8,M,-33.7,M,0000,0000*5A 
61.13866        GPS_NMEA_FROM_GPS    iGPS            $GPGSA,A,3,06,19,12,11,20,04,09,17,,,,,2.18,1.18,1.84*08 
62.14185        GPS_NMEA_FROM_GPS    iGPS            $GPGSA,A,3,06,19,12,11,20,04,09,17,,,,,2.18,1.18,1.84*08 
63.04450        GPS_NMEA_FROM_GPS    iGPS            $GPGGA,160435.000,4221.5204,N,07105.2325,W,2,08,1.18,4.8,M,-33.7,M,0000,0000*5D 
64.04768        GPS_NMEA_FROM_GPS    iGPS            $GPGGA,160436.000,4221.5204,N,07105.2325,W,2,08,1.18,4.8,M,-33.7,M,0000,0000*5E 
65.05079        GPS_NMEA_FROM_GPS    iGPS            $GPGGA,160437.000,4221.5204,N,07105.2325,W,2,08,1.18,4.8,M,-33.7,M,0000,0000*5F 
66.05401        GPS_NMEA_FROM_GPS    iGPS            $GPGGA,160438.000,4221.5204,N,07105.2325,W,2,08,1.18,4.8,M,-33.7,M,0000,0000*50 
67.15840        GPS_NMEA_FROM_GPS    iGPS            $GPGSA,A,3,06,19,12,11,20,04,09,17,,,,,2.18,1.18,1.84*08 
68.06088        GPS_NMEA_FROM_GPS    iGPS            $GPGGA,160440.000,4221.5204,N,07105.2325,W,2,08,1.18,4.8,M,-33.7,M,0000,0000*5F 
69.06328        GPS_NMEA_FROM_GPS    iGPS            $GPGGA,160441.000,4221.5204,N,07105.2325,W,2,08,1.18,4.8,M,-33.7,M,0000,0000*5E 
70.06607        GPS_NMEA_FROM_GPS    iGPS            $GPGGA,160442.000,4221.5204,N,07105.2325,W,2,08,1.18,4.8,M,-33.7,M,0000,0000*5D 
71.06918        GPS_NMEA_FROM_GPS    iGPS            $GPGSA,A,3,06,19,12,11,20,04,09,17,,,,,2.18,1.18,1.84*08 
72.07223        GPS_NMEA_FROM_GPS    iGPS            $GPGSA,A,3,06,19,12,11,20,04,09,17,,,,,2.18,1.18,1.84*08 
73.07540        GPS_NMEA_FROM_GPS    iGPS            $GPGSA,A,3,06,19,12,11,20,04,09,17,,,,,2.18,1.18,1.84*08 
74.07848        GPS_NMEA_FROM_GPS    iGPS            $GPGSA,A,3,06,19,12,11,20,04,09,17,,,,,2.19,1.18,1.84*09 
75.08139        GPS_NMEA_FROM_GPS    iGPS            $GPGSA,A,3,06,19,12,11,20,04,09,17,,,,,2.19,1.18,1.84*09 
76.08466        GPS_NMEA_FROM_GPS    iGPS            $GPGSA,A,3,06,19,12,11,20,04,09,17,,,,,2.19,1.18,1.84*09 
77.08748        GPS_NMEA_FROM_GPS    iGPS            $GPGSA,A,3,06,19,12,11,20,04,09,17,,,,,2.19,1.18,1.84*09 
78.09047        GPS_NMEA_FROM_GPS    iGPS            $GPGSA,A,3,06,19,12,11,20,04,09,17,,,,,2.19,1.18,1.84*09 
79.09326        GPS_NMEA_FROM_GPS    iGPS            $GPGGA,160451.000,4221.5204,N,07105.2325,W,2,08,1.18,4.8,M,-33.7,M,0000,0000*5F 
80.09596        GPS_NMEA_FROM_GPS    iGPS            $GPGGA,160452.000,4221.5204,N,07105.2325,W,2,08,1.18,4.8,M,-33.7,M,0000,0000*5C 
80.99894        GPS_NMEA_FROM_GPS    iGPS            $GPGGA,160453.000,4221.5203,N,07105.2325,W,2,08,1.18,4.8,M,-33.7,M,0000,0000*5A 
82.00131        GPS_NMEA_FROM_GPS    iGPS            $GPGGA,160454.000,4221.5203,N,07105.2325,W,2,08,1.18,4.8,M,-33.7,M,0000,0000*5D 
83.10360        GPS_NMEA_FROM_GPS    iGPS            $GPGSA,A,3,06,19,12,11,20,04,09,17,,,,,2.19,1.18,1.84*09 
84.10604        GPS_NMEA_FROM_GPS    iGPS            $GPGGA,160456.000,4221.5203,N,07105.2325,W,2,08,1.18,4.8,M,-33.7,M,0000,0000*5F 
85.10907        GPS_NMEA_FROM_GPS    iGPS            $GPGGA,160457.000,4221.5203,N,07105.2325,W,2,08,1.18,4.8,M,-33.7,M,0000,0000*5E 
86.11279        GPS_NMEA_FROM_GPS    iGPS            $GPGSA,A,3,06,19,12,11,20,04,09,17,,,,,2.19,1.18,1.85*08 
87.11523        GPS_NMEA_FROM_GPS    iGPS            $GPGSA,A,3,06,19,12,11,20,04,09,17,,,,,2.19,1.18,1.85*08 
88.11789        GPS_NMEA_FROM_GPS    iGPS            $GPGSA,A,3,06,19,12,11,20,04,09,17,,,,,2.19,1.18,1.84*09 
89.01983        GPS_NMEA_FROM_GPS    iGPS            $GPGGA,160501.000,4221.5203,N,07105.2325,W,2,08,1.18,4.8,M,-33.7,M,0000,0000*5C 
90.12305        GPS_NMEA_FROM_GPS    iGPS            $GPGSA,A,3,06,19,12,11,20,04,09,17,,,,,2.19,1.18,1.85*08 
91.12617        GPS_NMEA_FROM_GPS    iGPS            $GPGSA,A,3,06,19,12,11,20,04,09,17,,,,,2.19,1.18,1.85*08 
92.02892        GPS_NMEA_FROM_GPS    iGPS            $GPGGA,160504.000,4221.5203,N,07105.2325,W,2,08,1.18,4.8,M,-33.7,M,0000,0000*59 
93.13134        GPS_NMEA_FROM_GPS    iGPS            $GPGSA,A,3,06,19,12,11,20,04,09,17,,,,,2.19,1.18,1.85*08 
94.03349        GPS_NMEA_FROM_GPS    iGPS            $GPGGA,160506.000,4221.5203,N,07105.2325,W,2,08,1.18,4.8,M,-33.7,M,0000,0000*5B 
95.03612        GPS_NMEA_FROM_GPS    iGPS            $GPGGA,160507.000,4221.5203,N,07105.2325,W,2,08,1.18,4.8,M,-33.7,M,0000,0000*5A 
96.04037        GPS_NMEA_FROM_GPS    iGPS            $GPGGA,160508.000,4221.5203,N,07105.2325,W,2,08,1.18,4.8,M,-33.7,M,0000,0000*55 
97.04320        GPS_NMEA_FROM_GPS    iGPS            $GPGGA,160509.000,4221.5203,N,07105.2325,W,2,08,1.18,4.8,M,-33.7,M,0000,0000*54 
98.04617        GPS_NMEA_FROM_GPS    iGPS            $GPGGA,160510.000,4221.5203,N,07105.2325,W,2,08,1.18,4.8,M,-33.7,M,0000,0000*5C 
99.04844        GPS_NMEA_FROM_GPS    iGPS            $GPGGA,160511.000,4221.5203,N,07105.2325,W,2,08,1.18,4.8,M,-33.7,M,0000,0000*5D 
100.15170       GPS_NMEA_FROM_GPS    iGPS            $GPGSA,A,3,06,19,12,11,20,04,09,17,,,,,2.19,1.18,1.85*08 
101.15470       GPS_NMEA_FROM_GPS    iGPS            $GPGSA,A,3,06,19,12,11,20,04,09,17,,,,,2.19,1.18,1.85*08 
102.05736       GPS_NMEA_FROM_GPS    iGPS            $GPGGA,160514.000,4221.5203,N,07105.2325,W,2,08,1.18,4.8,M,-33.7,M,0000,0000*58 
103.06023       GPS_NMEA_FROM_GPS    iGPS            $GPGGA,160515.000,4221.5203,N,07105.2325,W,2,08,1.18,4.8,M,-33.7,M,0000,0000*59 
104.06253       GPS_NMEA_FROM_GPS    iGPS            $GPGSA,A,3,06,19,12,11,20,04,09,17,,,,,2.19,1.18,1.85*08 
105.06751       GPS_NMEA_FROM_GPS    iGPS            $GPGGA,160517.000,4221.5203,N,07105.2325,W,2,08,1.18,4.8,M,-33.7,M,0000,0000*5B 
106.07070       GPS_NMEA_FROM_GPS    iGPS            $GPGGA,160518.000,4221.5203,N,07105.2325,W,2,08,1.18,4.8,M,-33.7,M,0000,0000*54 
107.07314       GPS_NMEA_FROM_GPS    iGPS            $GPGGA,160519.000,4221.5203,N,07105.2325,W,2,08,1.18,4.8,M,-33.7,M,0000,0000*55 
108.07590       GPS_NMEA_FROM_GPS    iGPS            $GPGGA,160520.000,4221.5203,N,07105.2325,W,2,08,1.18,4.8,M,-33.7,M,0000,0000*5F 
109.07821       GPS_NMEA_FROM_GPS    iGPS            $GPGSA,A,3,06,19,12,11,20,04,09,17,,,,,2.20,1.18,1.85*02 
110.08067       GPS_NMEA_FROM_GPS    iGPS            $GPGSA,A,3,06,19,12,11,20,04,09,17,,,,,2.20,1.18,1.85*02 
111.08445       GPS_NMEA_FROM_GPS    iGPS            $GPGGA,160523.000,4221.5203,N,07105.2324,W,2,08,1.18,4.8,M,-33.7,M,0000,0000*5D 
112.08734       GPS_NMEA_FROM_GPS    iGPS            $GPGGA,160524.000,4221.5203,N,07105.2324,W,2,08,1.18,4.8,M,-33.7,M,0000,0000*5A 
113.09025       GPS_NMEA_FROM_GPS    iGPS            $GPGSA,A,3,06,19,12,11,20,04,09,17,,,,,2.20,1.18,1.86*01 
114.09317       GPS_NMEA_FROM_GPS    iGPS            $GPGGA,160526.000,4221.5203,N,07105.2324,W,2,08,1.18,4.8,M,-33.7,M,0000,0000*58 
115.09603       GPS_NMEA_FROM_GPS    iGPS            $GPGSA,A,3,06,19,12,11,20,04,09,17,,,,,2.20,1.18,1.85*02 
116.09952       GPS_NMEA_FROM_GPS    iGPS            $GPGSA,A,3,06,19,12,11,20,04,09,17,,,,,2.20,1.18,1.86*01 
117.00306       GPS_NMEA_FROM_GPS    iGPS            $GPGGA,160529.000,4221.5203,N,07105.2324,W,2,08,1.18,4.8,M,-33.7,M,0000,0000*57 
118.10632       GPS_NMEA_FROM_GPS    iGPS            $GPGSA,A,3,06,19,12,11,20,04,09,17,,,,,2.20,1.18,1.86*01 
119.10864       GPS_NMEA_FROM_GPS    iGPS            $GPGSA,A,3,06,19,12,11,20,04,09,17,,,,,2.20,1.18,1.86*01 
120.01065       GPS_NMEA_FROM_GPS    iGPS            $GPGGA,160532.000,4221.5203,N,07105.2324,W,2,08,1.18,4.8,M,-33.7,M,0000,0000*5D 
