1.85459         IM300_RAW_NMEA       iM300           $CPNVG,175346.031,4221.46977,N,7105.19577,W,1,0,0,90,nan,nan,175345.990*6C 
1.95536         IM300_RAW_NMEA       iM300           $CPIMU,175346.142,-7.141118,-1.708986,0.305176,-0.28383,0.118562,-8.554409*4B 
1.95539         IM300_RAW_NMEA       iM300           $CPRCM,175346.145,0,199.850162,2.002188,-1.141865,175346.142*4D 
1.95541         IM300_RAW_NMEA       iM300           $CPNVR,175346.145,-0.135127,0.027368,0,-1.708986,-7.141118,0.305176*65 
2.05602         IM300_RAW_NMEA       iM300           $CPNVG,175346.281,4221.46977,N,7105.19575,W,1,0,0,90,nan,nan,175346.242*60 
2.15703         IM300_RAW_NMEA       iM300           $CPIMU,175346.346,4.089358,1.708986,0.976563,-0.30359,0.510175,-8.908298*48 
2.15706         IM300_RAW_NMEA       iM300           $CPRCM,175346.349,0,198.548718,1.792457,-2.973718,175346.346*4E 
2.15707         IM300_RAW_NMEA       iM300           $CPNVR,175346.349,-0.148709,0.071804,0,1.708986,4.089358,0.976563*67 
2.15709         IM300_RAW_NMEA       iM300           $GNGGA,175344.60,4221.46977,N,07105.19572,W,1,12,0.74,5.3,M,-33.2,M,,*7A 
2.15715         IM300_RAW_NMEA       iM300           $GNVTG,99.41,T,,M,0.321,N,0.594,K,A*1E 
2.15717         IM300_RAW_NMEA       iM300           $GNRMC,175344.60,A,4221.46977,N,07105.19572,W,0.321,99.41,110723,,,A*52 
2.25701         IM300_RAW_NMEA       iM300           $GNRMC,175344.80,A,4221.46978,N,07105.19570,W,0.300,97.33,110723,,,A*59 
2.35795         IM300_RAW_NMEA       iM300           $CPIMU,175346.597,2.624514,3.05176,-2.197267,0.01976,-0.314368,-9.457993*50 
2.35798         IM300_RAW_NMEA       iM300           $CPNVR,175346.600,0.009158,-0.154061,0,3.05176,2.624514,-2.197267*79 
2.35800         IM300_RAW_NMEA       iM300           $CPNVG,175346.531,4221.46978,N,7105.1957,W,1,0,0,90,nan,nan,175346.494*5B 
2.35809         IM300_RAW_NMEA       iM300           $GNGGA,175344.80,4221.46978,N,07105.19570,W,1,12,0.74,5.3,M,-33.2,M,,*79 
2.35815         IM300_RAW_NMEA       iM300           $GNVTG,97.33,T,,M,0.300,N,0.556,K,A*18 
2.45877         IM300_RAW_NMEA       iM300           $GNRMC,175345.00,A,4221.46978,N,07105.19568,W,0.249,,110723,,,A*75 
2.55964         IM300_RAW_NMEA       iM300           $CPNVG,175346.780,4221.46978,N,7105.19568,W,1,0,0,90,nan,nan,175346.746*66 
2.55973         IM300_RAW_NMEA       iM300           $GNGGA,175345.00,4221.46978,N,07105.19568,W,1,12,0.74,5.2,M,-33.2,M,,*78 
2.55979         IM300_RAW_NMEA       iM300           $GNVTG,,T,,M,0.249,N,0.460,K,A*30 
2.66060         IM300_RAW_NMEA       iM300           $GNRMC,175345.20,A,4221.46978,N,07105.19564,W,0.390,90.01,110723,,,A*58 
2.66083         IM300_RAW_NMEA       iM300           $CPIMU,175346.798,-3.295901,-4.028323,-3.112795,-0.048503,-0.039521,-9.114883*7F 
2.66085         IM300_RAW_NMEA       iM300           $CPNVR,175346.801,nan,nan,0,-4.028323,-3.295901,-3.112795*60 
2.76160         IM300_RAW_NMEA       iM300           $CPNVG,175346.981,4221.46978,N,7105.19564,W,1,0,0,62.806886,nan,nan,175346.949*4F 
2.76172         IM300_RAW_NMEA       iM300           $GNGGA,175345.20,4221.46978,N,07105.19564,W,1,12,0.74,5.2,M,-33.2,M,,*76 
2.76178         IM300_RAW_NMEA       iM300           $GNVTG,90.01,T,,M,0.390,N,0.723,K,A*17 
2.86248         IM300_RAW_NMEA       iM300           $GNRMC,175345.40,A,4221.46978,N,07105.19561,W,0.387,88.64,110723,,,A*57 
2.86274         IM300_RAW_NMEA       iM300           $CPIMU,175346.999,5.493168,-3.540042,-0.549317,-0.30359,0.501193,-8.712492*46 
2.86276         IM300_RAW_NMEA       iM300           $CPRCM,175347.002,0,196.640264,2.623174,-4.918068,175346.999*47 
2.86280         IM300_RAW_NMEA       iM300           $CPNVR,175347.002,0.178458,-0.091688,0,-3.540042,5.493168,-0.549317*6D 
2.96352         IM300_RAW_NMEA       iM300           $CPRBS,175347.202,15.062881,15.062881,15.062881,0*7E 
2.96361         IM300_RAW_NMEA       iM300           $GNGGA,175345.40,4221.46978,N,07105.19561,W,1,12,0.74,5.3,M,-33.2,M,,*74 
2.96367         IM300_RAW_NMEA       iM300           $GNVTG,88.64,T,,M,0.387,N,0.716,K,A*1D 
2.96367         IM300_RAW_NMEA       iM300           $GNVTG,88.64,T,,M,0.387,N,0.716,K,A*1D 
3.06445         IM300_RAW_NMEA       iM300           $GNGGA,175345.60,4221.46979,N,07105.19559,W,1,12,0.74,5.3,M,-33.2,M,,*7C 
3.06453         IM300_RAW_NMEA       iM300           $GNVTG,83.54,T,,M,0.297,N,0.549,K,A*1D 
3.06456         IM300_RAW_NMEA       iM300           $GNRMC,175345.60,A,4221.46979,N,07105.19559,W,0.297,83.54,110723,,,A*57 
3.06485         IM300_RAW_NMEA       iM300           $CPALT,175347.273,1*60 
3.06486         IM300_RAW_NMEA       iM300           $CPNVG,175347.230,4221.46978,N,7105.19561,W,1,0,0,90,nan,nan,175347.201*67 
3.06492         IM300_RAW_NMEA       iM300           $CPIMU,175347.201,4.57764,2.197267,-1.40381,-0.206585,-0.048503,-8.780754*75 
3.06494         IM300_RAW_NMEA       iM300           $CPNVR,175347.203,0.124474,0.15538,0,2.197267,4.57764,-1.40381*52 
3.16457         IM300_RAW_NMEA       iM300           $CPNVR,175347.406,0.146506,-0.043368,0,0.061035,-3.295901,-2.563478*6E 
3.26532         IM300_RAW_NMEA       iM300           $CPNVG,175347.482,4221.46979,N,7105.19559,W,1,0,0,90,nan,nan,175347.453*63 
3.26542         IM300_RAW_NMEA       iM300           $CPIMU,175347.404,-3.295901,0.061035,-2.563478,0,-0.167064,-8.888538*5C 
3.26544         IM300_RAW_NMEA       iM300           $CPRCM,175347.407,0,202.230029,-0.03278,0.946958,175347.404*74 
3.36622         IM300_RAW_NMEA       iM300           $CPNVR,175347.608,-0.070984,0.13588,0,-5.432133,-4.089358,-2.197267*79 
3.36625         IM300_RAW_NMEA       iM300           $GNGGA,175345.80,4221.46979,N,07105.19557,W,1,12,0.74,5.2,M,-33.2,M,,*7D 
3.36632         IM300_RAW_NMEA       iM300           $GNVTG,81.20,T,,M,0.298,N,0.552,K,A*19 
3.36634         IM300_RAW_NMEA       iM300           $GNRMC,175345.80,A,4221.46979,N,07105.19557,W,0.298,81.20,110723,,,A*59 
3.46648         IM300_RAW_NMEA       iM300           $GNRMC,175346.00,A,4221.46980,N,07105.19554,W,0.333,84.79,110723,,,A*5E 
3.46672         IM300_RAW_NMEA       iM300           $CPIMU,175347.605,-4.089358,-5.432133,-2.197267,-0.118562,-0.039521,-8.879556*79 
3.46674         IM300_RAW_NMEA       iM300           $CPRCM,175347.609,0,197.759455,0.950417,-0.813873,175347.605*48 
3.56650         IM300_RAW_NMEA       iM300           $CPIMU,175347.808,-1.586915,-1.831056,0.061035,-0.402391,0.334129,-8.712492*7D 
3.56653         IM300_RAW_NMEA       iM300           $CPNVR,175347.811,0.005652,-0.171217,0,-1.831056,-1.586915,0.061035*6A 
3.56655         IM300_RAW_NMEA       iM300           $CPNVG,175347.731,4221.4698,N,7105.19554,W,1,0,0,90,nan,nan,175347.707*51 
3.56663         IM300_RAW_NMEA       iM300           $GLGSV,3,1,10,66,03,031,19,67,53,039,45,68,69,192,40,69,18,206,40*6A 
3.56664         IM300_RAW_NMEA       iM300           $GNGGA,175346.00,4221.46980,N,07105.19554,W,1,12,0.74,5.2,M,-33.2,M,,*73 
3.56670         IM300_RAW_NMEA       iM300           $GNVTG,84.79,T,,M,0.333,N,0.618,K,A*1D 
3.66735         IM300_RAW_NMEA       iM300           $GNRMC,175346.20,A,4221.46979,N,07105.19551,W,0.387,93.50,110723,,,A*5D 
3.76822         IM300_RAW_NMEA       iM300           $CPNVG,175347.931,4221.4698,N,7105.19554,W,1,0,0,90,nan,nan,175347.908*5E 
3.76830         IM300_RAW_NMEA       iM300           $GNVTG,93.50,T,,M,0.387,N,0.716,K,A*10 
3.86904         IM300_RAW_NMEA       iM300           $GNGGA,175346.40,4221.46979,N,07105.19549,W,1,12,0.74,5.2,M,-33.2,M,,*7D 
3.86912         IM300_RAW_NMEA       iM300           $GNVTG,96.78,T,,M,0.306,N,0.568,K,A*1D 
3.86913         IM300_RAW_NMEA       iM300           $GNRMC,175346.40,A,4221.46979,N,07105.19549,W,0.306,96.78,110723,,,A*54 
3.86935         IM300_RAW_NMEA       iM300           $CPIMU,175348.060,6.835942,14.526378,-1.831056,-0.255087,0.34311,-8.947819*5B 
3.86937         IM300_RAW_NMEA       iM300           $CPNVR,175348.062,-0.135384,0.145973,0,14.526378,6.835942,-1.831056*7F 
3.97011         IM300_RAW_NMEA       iM300           $CPNVG,175348.181,4221.46979,N,7105.19549,W,1,0,0,90,nan,nan,175348.160*61 
4.07103         IM300_RAW_NMEA       iM300           $GLGSV,3,1,10,66,03,031,19,67,53,039,45,68,69,192,38,69,18,206,40*65 
4.07106         IM300_RAW_NMEA       iM300           $GNGGA,175346.60,4221.46979,N,07105.19547,W,1,12,0.74,5.2,M,-33.2,M,,*71 
4.07113         IM300_RAW_NMEA       iM300           $GNVTG,,T,,M,0.211,N,0.390,K,A*35 
4.07114         IM300_RAW_NMEA       iM300           $GNRMC,175346.60,A,4221.46979,N,07105.19547,W,0.211,,110723,,,A*71 
4.07164         IM300_RAW_NMEA       iM300           $CPIMU,175348.260,6.530766,5.126957,-4.089358,0.215567,-0.30359,-9.242427*60 
4.07166         IM300_RAW_NMEA       iM300           $CPRCM,175348.263,0,196.375485,-1.642383,2.627859,175348.260*45 
4.07168         IM300_RAW_NMEA       iM300           $CPNVR,175348.263,0.0901,-0.129086,0,5.126957,6.530766,-4.089358*45 
4.27194         IM300_RAW_NMEA       iM300           $GNGGA,175346.80,4221.46980,N,07105.19544,W,1,12,0.74,5.2,M,-33.2,M,,*7A 
4.27202         IM300_RAW_NMEA       iM300           $GNVTG,90.65,T,,M,0.306,N,0.567,K,A*18 
4.27203         IM300_RAW_NMEA       iM300           $GNRMC,175346.80,A,4221.46980,N,07105.19544,W,0.306,90.65,110723,,,A*59 
4.27245         IM300_RAW_NMEA       iM300           $CPIMU,175348.463,-6.835942,-11.657723,-0.976563,0.068263,-0.274848,-8.947819*63 
4.27246         IM300_RAW_NMEA       iM300           $CPNVR,175348.466,nan,nan,0,-11.657723,-6.835942,-0.976563*5D 
4.27248         IM300_RAW_NMEA       iM300           $CPNVG,175348.431,4221.46979,N,7105.19547,W,1,0,0,90,nan,nan,175348.410*63 
4.47282         IM300_RAW_NMEA       iM300           $GNGGA,175347.00,4221.46980,N,07105.19541,W,1,12,0.74,5.2,M,-33.2,M,,*76 
4.47290         IM300_RAW_NMEA       iM300           $GNVTG,86.96,T,,M,0.367,N,0.679,K,A*18 
4.47292         IM300_RAW_NMEA       iM300           $GNRMC,175347.00,A,4221.46980,N,07105.19541,W,0.367,86.96,110723,,,A*59 
4.47336         IM300_RAW_NMEA       iM300           $CPNVG,175348.680,4221.4698,N,7105.19544,W,1,0,0,90,nan,nan,175348.664*5F 
4.47342         IM300_RAW_NMEA       iM300           $CPIMU,175348.664,-5.310062,-4.882816,-2.563478,-0.450894,0.481433,-8.809497*58 
4.47360         IM300_RAW_NMEA       iM300           $CPNVR,175348.667,0.069348,-0.141322,0,-4.882816,-5.310062,-2.563478*4A 
4.67395         IM300_RAW_NMEA       iM300           $GNGGA,175347.20,4221.46981,N,07105.19539,W,1,12,0.74,5.2,M,-33.2,M,,*7A 
4.67403         IM300_RAW_NMEA       iM300           $GNVTG,79.16,T,,M,0.343,N,0.636,K,A*1D 
4.67405         IM300_RAW_NMEA       iM300           $GNRMC,175347.20,A,4221.46981,N,07105.19539,W,0.343,79.16,110723,,,A*5B 
4.67430         IM300_RAW_NMEA       iM300           $CPNVG,175348.880,4221.4698,N,7105.19541,W,1,0,0,90,nan,nan,175348.867*59 
4.67436         IM300_RAW_NMEA       iM300           $CPIMU,175348.867,5.920414,3.356936,-4.028323,-0.088023,0.118562,-9.064584*5E 
4.67438         IM300_RAW_NMEA       iM300           $CPNVR,175348.870,-0.159338,0.101279,0,3.356936,5.920414,-4.028323*43 
4.87466         IM300_RAW_NMEA       iM300           $GNGGA,175347.40,4221.46982,N,07105.19536,W,1,12,0.74,5.2,M,-33.2,M,,*70 
4.87474         IM300_RAW_NMEA       iM300           $GNVTG,71.21,T,,M,0.329,N,0.609,K,A*11 
4.87475         IM300_RAW_NMEA       iM300           $GNRMC,175347.40,A,4221.46982,N,07105.19536,W,0.329,71.21,110723,,,A*51 
4.87497         IM300_RAW_NMEA       iM300           $CPNVG,175349.081,4221.46981,N,7105.19539,W,1,0,0,90,nan,nan,175349.067*66 
4.87503         IM300_RAW_NMEA       iM300           $CPIMU,175349.067,3.662112,-5.126957,-1.831056,0.048503,-0.107783,-8.769976*74 
4.87505         IM300_RAW_NMEA       iM300           $CPNVR,175349.070,-0.102553,-0.143594,0,-5.126957,3.662112,-1.831056*41 
5.07531         IM300_RAW_NMEA       iM300           $CPRBS,175349.301,15.075528,15.075528,15.075528,0*7A 
5.07540         IM300_RAW_NMEA       iM300           $GNGGA,175347.60,4221.46982,N,07105.19534,W,1,12,0.74,5.2,M,-33.2,M,,*70 
5.07547         IM300_RAW_NMEA       iM300           $GNVTG,77.13,T,,M,0.341,N,0.632,K,A*10 
5.07549         IM300_RAW_NMEA       iM300           $GNRMC,175347.60,A,4221.46982,N,07105.19534,W,0.341,77.13,110723,,,A*58 
5.07569         IM300_RAW_NMEA       iM300           $CPIMU,175349.269,-0.549317,-3.112795,-2.685549,-0.422152,0.118562,-8.653211*5A 
5.07571         IM300_RAW_NMEA       iM300           $CPNVR,175349.272,0.146529,-0.084709,0,-3.112795,-0.549317,-2.685549*46 
5.17538         IM300_RAW_NMEA       iM300           $CPNVG,175349.330,4221.46982,N,7105.19534,W,1,0,0,90,nan,nan,175349.321*60 
5.27620         IM300_RAW_NMEA       iM300           $GNGGA,175347.80,4221.46982,N,07105.19531,W,1,12,0.74,5.2,M,-33.2,M,,*7B 
5.27628         IM300_RAW_NMEA       iM300           $GNVTG,82.03,T,,M,0.316,N,0.586,K,A*15 
5.27629         IM300_RAW_NMEA       iM300           $GNRMC,175347.80,A,4221.46982,N,07105.19531,W,0.316,82.03,110723,,,A*5A 
5.27651         IM300_RAW_NMEA       iM300           $CPIMU,175349.473,2.319338,10.620125,-3.662112,-0.391613,0.215567,-8.760994*61 
5.27653         IM300_RAW_NMEA       iM300           $CPRCM,175349.476,0,197.280044,1.87274,-1.389812,175349.473*7B 
5.27654         IM300_RAW_NMEA       iM300           $CPNVR,175349.476,0.173157,-0.028118,0,10.620125,2.319338,-3.662112*78 
5.37616         IM300_RAW_NMEA       iM300           $CPNVG,175349.531,4221.46982,N,7105.19531,W,1,0,0,90,nan,nan,175349.523*66 
5.47725         IM300_RAW_NMEA       iM300           $GNGGA,175348.00,4221.46983,N,07105.19529,W,1,12,0.74,5.2,M,-33.2,M,,*74 
5.47734         IM300_RAW_NMEA       iM300           $GNVTG,76.33,T,,M,0.289,N,0.536,K,A*11 
5.47735         IM300_RAW_NMEA       iM300           $GNRMC,175348.00,A,4221.46983,N,07105.19529,W,0.289,76.33,110723,,,A*5A 
5.47757         IM300_RAW_NMEA       iM300           $CPIMU,175349.675,1.708986,6.835942,-3.295901,0.127544,0.008982,-9.035842*79 
5.47758         IM300_RAW_NMEA       iM300           $CPRCM,175349.678,0,193.142207,-1.738937,1.117546,175349.675*49 
5.47760         IM300_RAW_NMEA       iM300           $CPNVR,175349.677,0.055528,0.152787,0,6.835942,1.708986,-3.295901*69 
5.57722         IM300_RAW_NMEA       iM300           $CPNVG,175349.730,4221.46983,N,7105.19529,W,1,0,0,90,nan,nan,175349.724*68 
5.67789         IM300_RAW_NMEA       iM300           $GNRMC,175348.20,A,4221.46983,N,07105.19527,W,0.224,,110723,,,A*7E 
5.77913         IM300_RAW_NMEA       iM300           $CPNVG,175349.933,4221.46983,N,7105.19527,W,1,0,0,90,nan,nan,175349.894*6F 
5.77922         IM300_RAW_NMEA       iM300           $CPIMU,175349.926,-6.347661,-9.887702,-3.601077,0.176046,-0.30359,-9.466975*6D 
5.77923         IM300_RAW_NMEA       iM300           $CPNVR,175349.932,nan,nan,0,-9.887702,-6.347661,-3.601077*65 
5.77925         IM300_RAW_NMEA       iM300           $CPRCM,175349.932,0,191.947414,-0.66489,1.134965,175349.926*73 
5.77927         IM300_RAW_NMEA       iM300           $GNGGA,175348.20,4221.46983,N,07105.19527,W,1,12,0.74,5.2,M,-33.2,M,,*78 
5.77933         IM300_RAW_NMEA       iM300           $GNVTG,,T,,M,0.224,N,0.416,K,A*3A 
5.88005         IM300_RAW_NMEA       iM300           $GNRMC,175348.40,A,4221.46984,N,07105.19525,W,0.313,84.07,110723,,,A*5D 
5.98113         IM300_RAW_NMEA       iM300           $CPIMU,175350.127,-2.319338,-6.591802,-2.807619,-0.373649,0.334129,-8.565188*52 
5.98116         IM300_RAW_NMEA       iM300           $CPRCM,175350.133,0,188.284323,3.056435,-3.098207,175350.127*41 
5.98118         IM300_RAW_NMEA       iM300           $CPNVG,175350.132,4221.46984,N,7105.19525,W,1,0,0,90,nan,nan,175350.087*69 
5.98133         IM300_RAW_NMEA       iM300           $CPNVR,175350.130,0.110111,-0.117487,0,-6.591802,-2.319338,-2.807619*4C 
5.98134         IM300_RAW_NMEA       iM300           $GNGGA,175348.40,4221.46984,N,07105.19525,W,1,12,0.74,5.2,M,-33.2,M,,*7B 
5.98140         IM300_RAW_NMEA       iM300           $GNVTG,84.07,T,,M,0.313,N,0.579,K,A*12 
6.08110         IM300_RAW_NMEA       iM300           $GNGGA,175348.60,4221.46984,N,07105.19522,W,1,12,0.74,5.2,M,-33.2,M,,*7E 
6.08118         IM300_RAW_NMEA       iM300           $GNVTG,85.46,T,,M,0.359,N,0.666,K,A*15 
6.08120         IM300_RAW_NMEA       iM300           $GNRMC,175348.60,A,4221.46984,N,07105.19522,W,0.359,85.46,110723,,,A*52 
6.08150         IM300_RAW_NMEA       iM300           $CPALT,175350.274,1*61 
6.18114         IM300_RAW_NMEA       iM300           $CPNVG,175350.380,4221.46984,N,7105.19522,W,1,0,0,90,nan,nan,175350.330*6A 
6.18123         IM300_RAW_NMEA       iM300           $CPIMU,175350.330,7.934576,8.056646,-3.356936,-0.529935,0.6467,-8.004714*59 
6.18124         IM300_RAW_NMEA       iM300           $CPNVR,175350.333,-0.109848,-0.148466,0,8.056646,7.934576,-3.356936*66 
6.28193         IM300_RAW_NMEA       iM300           $GNRMC,175348.80,A,4221.46984,N,07105.19520,W,0.275,85.69,110723,,,A*5C 
6.38294         IM300_RAW_NMEA       iM300           $CPNVG,175350.631,4221.46984,N,7105.1952,W,1,0,0,90,nan,nan,175350.582*58 
6.38303         IM300_RAW_NMEA       iM300           $CPIMU,175350.530,8.178717,9.826667,-4.333499,0.068263,-0.098801,-9.152607*57 
6.38304         IM300_RAW_NMEA       iM300           $CPNVR,175350.534,-0.107857,-0.091549,0,9.826667,8.178717,-4.333499*65 
6.38306         IM300_RAW_NMEA       iM300           $GNGGA,175348.80,4221.46984,N,07105.19520,W,1,12,0.74,5.2,M,-33.2,M,,*72 
6.38312         IM300_RAW_NMEA       iM300           $GNVTG,85.69,T,,M,0.275,N,0.509,K,A*1D 
6.48378         IM300_RAW_NMEA       iM300           $CPNVR,175350.734,nan,nan,0,-6.835942,-2.563478,-4.028323*6F 
6.48382         IM300_RAW_NMEA       iM300           $GNGGA,175349.00,4221.46985,N,07105.19519,W,1,12,0.74,5.1,M,-33.2,M,,*73 
6.48388         IM300_RAW_NMEA       iM300           $GNVTG,,T,,M,0.186,N,0.345,K,A*30 
6.48390         IM300_RAW_NMEA       iM300           $GNRMC,175349.00,A,4221.46985,N,07105.19519,W,0.186,,110723,,,A*7D 
6.58469         IM300_RAW_NMEA       iM300           $CPIMU,175350.731,-2.563478,-6.835942,-4.028323,0.28383,-0.481433,-9.713081*61 
6.68549         IM300_RAW_NMEA       iM300           $GNGSA,A,3,05,06,09,11,12,20,25,29,13,07,15,,1.08,0.74,0.78*1F 
6.68568         IM300_RAW_NMEA       iM300           $GNGGA,175349.20,4221.46985,N,07105.19516,W,1,12,0.74,5.1,M,-33.2,M,,*7E 
6.68575         IM300_RAW_NMEA       iM300           $GNVTG,84.31,T,,M,0.275,N,0.509,K,A*11 
6.68577         IM300_RAW_NMEA       iM300           $GNRMC,175349.20,A,4221.46985,N,07105.19516,W,0.275,84.31,110723,,,A*5F 
6.68599         IM300_RAW_NMEA       iM300           $CPNVG,175350.881,4221.46985,N,7105.19519,W,1,0,0,90,nan,nan,175350.833*61 
6.78567         IM300_RAW_NMEA       iM300           $CPIMU,175350.935,-7.75147,-10.498054,-2.685549,-0.206585,-0,-8.987339*5C 
6.78570         IM300_RAW_NMEA       iM300           $CPRCM,175350.939,0,188.15808,1.630759,-2.248263,175350.935*71 
6.78572         IM300_RAW_NMEA       iM300           $CPNVR,175350.938,0.069434,-0.123261,0,-10.498054,-7.75147,-2.685549*48 
6.88660         IM300_RAW_NMEA       iM300           $GNGGA,175349.40,4221.46985,N,07105.19513,W,1,12,0.74,5.2,M,-33.2,M,,*7E 
6.88668         IM300_RAW_NMEA       iM300           $GNVTG,84.43,T,,M,0.382,N,0.708,K,A*1E 
6.88670         IM300_RAW_NMEA       iM300           $GNRMC,175349.40,A,4221.46985,N,07105.19513,W,0.382,84.43,110723,,,A*50 
6.88708         IM300_RAW_NMEA       iM300           $CPNVG,175351.081,4221.46985,N,7105.19516,W,1,0,0,90,nan,nan,175351.035*68 
6.98685         IM300_RAW_NMEA       iM300           $CPIMU,175351.136,0.549317,3.295901,-3.112795,-0.470654,0.657479,-8.32986*6B 
6.98689         IM300_RAW_NMEA       iM300           $CPNVR,175351.139,0.075259,-0.181536,0,3.295901,0.549317,-3.112795*4C 
7.08761         IM300_RAW_NMEA       iM300           $GNRMC,175349.60,A,4221.46986,N,07105.19512,W,0.271,83.94,110723,,,A*50 
7.18903         IM300_RAW_NMEA       iM300           $CPRBS,175351.401,15.069204,15.069204,15.069204,0*70 
7.18913         IM300_RAW_NMEA       iM300           $CPIMU,175351.337,8.605963,12.023934,-4.821781,-0.246105,0.079041,-8.840035*69 
7.18915         IM300_RAW_NMEA       iM300           $CPNVR,175351.339,0.107718,-0.088505,0,12.023934,8.605963,-4.821781*7A 
7.18916         IM300_RAW_NMEA       iM300           $CPNVG,175351.331,4221.46986,N,7105.19512,W,1,0,0,90,nan,nan,175351.298*62 
7.18923         IM300_RAW_NMEA       iM300           $GNGGA,175349.60,4221.46986,N,07105.19512,W,1,12,0.74,5.2,M,-33.2,M,,*7E 
7.18928         IM300_RAW_NMEA       iM300           $GNVTG,83.94,T,,M,0.271,N,0.502,K,A*16 
7.28891         IM300_RAW_NMEA       iM300           $GNGGA,175349.80,4221.46987,N,07105.19511,W,1,12,0.74,5.1,M,-33.2,M,,*71 
7.28898         IM300_RAW_NMEA       iM300           $GNVTG,,T,,M,0.168,N,0.312,K,A*32 
7.28900         IM300_RAW_NMEA       iM300           $GNRMC,175349.80,A,4221.46987,N,07105.19511,W,0.168,,110723,,,A*7F 
7.38984         IM300_RAW_NMEA       iM300           $CPNVG,175351.580,4221.46987,N,7105.19511,W,1,0,0,90,nan,nan,175351.539*60 
7.38993         IM300_RAW_NMEA       iM300           $CPIMU,175351.539,0,3.845218,-5.676274,0.176046,-0.373649,-9.202906*72 
7.39005         IM300_RAW_NMEA       iM300           $CPRCM,175351.542,0,186.711914,-1.345225,2.448823,175351.539*41 
7.39007         IM300_RAW_NMEA       iM300           $CPNVR,175351.542,nan,nan,0,3.845218,0,-5.676274*43 
7.49094         IM300_RAW_NMEA       iM300           $GNGGA,175350.00,4221.46988,N,07105.19509,W,1,12,0.74,5.1,M,-33.2,M,,*77 
7.49101         IM300_RAW_NMEA       iM300           $GNVTG,71.98,T,,M,0.263,N,0.488,K,A*17 
7.49102         IM300_RAW_NMEA       iM300           $GNRMC,175350.00,A,4221.46988,N,07105.19509,W,0.263,71.98,110723,,,A*58 
7.59092         IM300_RAW_NMEA       iM300           $CPNVG,175351.781,4221.46988,N,7105.19509,W,1,0,0,90,nan,nan,175351.742*6B 
7.59100         IM300_RAW_NMEA       iM300           $CPIMU,175351.742,-5.432133,-9.27735,-4.394534,0.118562,0.118562,-8.908298*4B 
7.59102         IM300_RAW_NMEA       iM300           $CPRCM,175351.745,0,182.768388,-0.328697,-1.651161,175351.742*63 
7.59103         IM300_RAW_NMEA       iM300           $CPNVR,175351.744,0.036952,-0.130155,0,-9.27735,-5.432133,-4.394534*7A 
7.69163         IM300_RAW_NMEA       iM300           $GNVTG,68.31,T,,M,0.316,N,0.586,K,A*10 
7.69165         IM300_RAW_NMEA       iM300           $GNRMC,175350.20,A,4221.46988,N,07105.19507,W,0.316,68.31,110723,,,A*5C 
7.79251         IM300_RAW_NMEA       iM300           $CPNVG,175352.031,4221.46988,N,7105.19509,W,1,0,0,90,nan,nan,175351.994*61 
7.79259         IM300_RAW_NMEA       iM300           $CPIMU,175351.943,1.464845,-13.488779,-1.892091,-0.195807,0.373649,-8.505907*49 
7.79261         IM300_RAW_NMEA       iM300           $CPRCM,175351.946,0,181.623059,1.813299,-2.241532,175351.943*42 
7.79263         IM300_RAW_NMEA       iM300           $CPNVR,175351.945,-0.117186,0.112671,0,-13.488779,1.464845,-1.892091*55 
7.89328         IM300_RAW_NMEA       iM300           $GNTXT,01,01,00,txbuf alloc*61 
7.89331         IM300_RAW_NMEA       iM300           $GNGGA,175350.40,4221.46989,N,07105.19505,W,1,12,0.74,5.1,M,-33.2,M,,*7E 
7.89337         IM300_RAW_NMEA       iM300           $GNVTG,,T,,M,0.263,N,0.487,K,A*31 
7.89339         IM300_RAW_NMEA       iM300           $GNRMC,175350.40,A,4221.46989,N,07105.19505,W,0.263,,110723,,,A*78 
7.99363         IM300_RAW_NMEA       iM300           $CPIMU,175352.145,5.432133,-0.366211,-5.126957,-0.558677,0.008982,-8.908298*73 
7.99366         IM300_RAW_NMEA       iM300           $CPRCM,175352.148,0,183.895291,3.732111,1.299902,175352.145*64 
7.99368         IM300_RAW_NMEA       iM300           $CPNVR,175352.147,nan,nan,0,-0.366211,5.432133,-5.126957*4B 
8.09442         IM300_RAW_NMEA       iM300           $GNGGA,175350.60,4221.46990,N,07105.19504,W,1,12,0.74,5.1,M,-33.2,M,,*75 
8.09450         IM300_RAW_NMEA       iM300           $GNVTG,,T,,M,0.199,N,0.368,K,A*31 
8.09451         IM300_RAW_NMEA       iM300           $GNRMC,175350.60,A,4221.46990,N,07105.19504,W,0.199,,110723,,,A*75 
8.09471         IM300_RAW_NMEA       iM300           $CPNVG,175352.281,4221.46989,N,7105.19505,W,1,0,0,90,nan,nan,175352.245*61 
8.09477         IM300_RAW_NMEA       iM300           $CPALT,175352.274,1*63 
8.19546         IM300_RAW_NMEA       iM300           $CPIMU,175352.347,-2.014162,12.939462,-6.408696,-0.274848,-0.226345,-9.007099*64 
8.19550         IM300_RAW_NMEA       iM300           $CPRCM,175352.351,0,183.167695,0.812789,1.213199,175352.347*6B 
8.19551         IM300_RAW_NMEA       iM300           $CPNVR,175352.350,nan,nan,0,12.939462,-2.014162,-6.408696*75 
8.29612         IM300_RAW_NMEA       iM300           $GNRMC,175350.80,A,4221.46990,N,07105.19502,W,0.270,69.10,110723,,,A*59 
8.39711         IM300_RAW_NMEA       iM300           $CPIMU,175352.548,-2.624514,7.019048,-5.98145,0.195807,0.246105,-8.928058*66 
8.39714         IM300_RAW_NMEA       iM300           $CPRCM,175352.550,0,177.492108,-1.559344,-1.650523,175352.548*62 
8.39716         IM300_RAW_NMEA       iM300           $CPNVR,175352.550,-0.002089,0.138884,0,7.019048,-2.624514,-5.98145*57 
8.39718         IM300_RAW_NMEA       iM300           $CPNVG,175352.530,4221.4699,N,7105.19502,W,1,0,0,90,nan,nan,175352.499*54 
8.39725         IM300_RAW_NMEA       iM300           $GNGSA,A,3,05,06,09,11,12,20,25,29,13,07,15,,1.08,0.74,0.78*1F 
8.39727         IM300_RAW_NMEA       iM300           $GNGGA,175350.80,4221.46990,N,07105.19502,W,1,12,0.74,5.1,M,-33.2,M,,*7D 
8.39733         IM300_RAW_NMEA       iM300           $GNVTG,69.10,T,,M,0.270,N,0.499,K,A*1C 
8.49800         IM300_RAW_NMEA       iM300           $GNGGA,175351.00,4221.46991,N,07105.19500,W,1,12,0.74,5.1,M,-33.2,M,,*77 
8.49807         IM300_RAW_NMEA       iM300           $GNVTG,76.71,T,,M,0.297,N,0.550,K,A*18 
8.49808         IM300_RAW_NMEA       iM300           $GNRMC,175351.00,A,4221.46991,N,07105.19500,W,0.297,76.71,110723,,,A*53 
8.59891         IM300_RAW_NMEA       iM300           $CPNVG,175352.781,4221.46991,N,7105.195,W,1,0,0,90,nan,nan,175352.751*68 
8.59900         IM300_RAW_NMEA       iM300           $CPIMU,175352.751,6.347661,-5.432133,-5.126957,-0.01976,0.34311,-8.987339*73 
8.59902         IM300_RAW_NMEA       iM300           $CPNVR,175352.754,0.147693,0.039135,0,-5.432133,6.347661,-5.126957*4A 
8.69966         IM300_RAW_NMEA       iM300           $GNGGA,175351.20,4221.46991,N,07105.19499,W,1,12,0.74,5.1,M,-33.2,M,,*74 
8.69974         IM300_RAW_NMEA       iM300           $GNVTG,,T,,M,0.228,N,0.423,K,A*30 
8.69975         IM300_RAW_NMEA       iM300           $GNRMC,175351.20,A,4221.46991,N,07105.19499,W,0.228,,110723,,,A*7D 
8.80071         IM300_RAW_NMEA       iM300           $CPNVG,175353.031,4221.46991,N,7105.19499,W,1,0,0,90,nan,nan,175353.001*67 
8.80079         IM300_RAW_NMEA       iM300           $CPIMU,175352.952,3.112795,-2.014162,-4.45557,-0.294608,-0.195807,-8.967579*66 
8.80081         IM300_RAW_NMEA       iM300           $CPNVR,175352.954,nan,nan,0,-2.014162,3.112795,-4.45557*70 
8.90191         IM300_RAW_NMEA       iM300           $GNGGA,175351.40,4221.46991,N,07105.19498,W,1,12,0.74,5.1,M,-33.2,M,,*73 
8.90198         IM300_RAW_NMEA       iM300           $GNVTG,,T,,M,0.187,N,0.347,K,A*33 
8.90200         IM300_RAW_NMEA       iM300           $GNRMC,175351.40,A,4221.46991,N,07105.19498,W,0.187,,110723,,,A*7C 
9.00185         IM300_RAW_NMEA       iM300           $CPNVG,175353.231,4221.46991,N,7105.19498,W,1,0,0,90,nan,nan,175353.203*64 
9.00233         IM300_RAW_NMEA       iM300           $CPIMU,175353.153,-4.333499,3.906253,-4.57764,-0.156286,-0.176046,-8.741234*67 
9.00268         IM300_RAW_NMEA       iM300           $CPRCM,175353.157,0,176.155973,0.562868,1.198729,175353.153*63 
9.00299         IM300_RAW_NMEA       iM300           $CPNVR,175353.156,nan,nan,0,3.906253,-4.333499,-4.57764*79 
9.10299         IM300_RAW_NMEA       iM300           $CPNVR,175353.358,0.140955,0.000822,0,-2.624514,-2.441408,-5.004886*6E 
9.10320         IM300_RAW_NMEA       iM300           $GNGGA,175351.60,4221.46992,N,07105.19496,W,1,12,0.74,5.1,M,-33.2,M,,*7C 
9.10361         IM300_RAW_NMEA       iM300           $GNVTG,70.68,T,,M,0.274,N,0.508,K,A*16 
9.10380         IM300_RAW_NMEA       iM300           $GNRMC,175351.60,A,4221.46992,N,07105.19496,W,0.274,70.68,110723,,,A*5B 
9.20377         IM300_RAW_NMEA       iM300           $CPIMU,175353.355,-2.441408,-2.624514,-5.004886,0.039521,0.30359,-8.908298*45 
9.30462         IM300_RAW_NMEA       iM300           $CPRBS,175353.500,15.073721,15.073721,15.073721,0*7B 
9.30505         IM300_RAW_NMEA       iM300           $GNGGA,175351.80,4221.46992,N,07105.19494,W,1,12,0.74,5.1,M,-33.2,M,,*70 
9.30547         IM300_RAW_NMEA       iM300           $GNVTG,,T,,M,0.258,N,0.478,K,A*39 
9.30566         IM300_RAW_NMEA       iM300           $GNRMC,175351.80,A,4221.46992,N,07105.19494,W,0.258,,110723,,,A*7E 
9.30788         IM300_RAW_NMEA       iM300           $CPNVG,175353.481,4221.46992,N,7105.19496,W,1,0,0,90,nan,nan,175353.456*62 
9.40487         IM300_RAW_NMEA       iM300           $CPIMU,175353.558,1.464845,-5.98145,-4.882816,-0.206585,0.127544,-9.172367*4F 
9.40507         IM300_RAW_NMEA       iM300           $CPNVR,175353.561,nan,nan,0,-5.98145,1.464845,-4.882816*72 
9.50628         IM300_RAW_NMEA       iM300           $GNGGA,175352.00,4221.46993,N,07105.19493,W,1,12,0.74,5.1,M,-33.2,M,,*7D 
9.50670         IM300_RAW_NMEA       iM300           $GNVTG,,T,,M,0.247,N,0.458,K,A*35 
9.50690         IM300_RAW_NMEA       iM300           $GNRMC,175352.00,A,4221.46993,N,07105.19493,W,0.247,,110723,,,A*7D 
9.50916         IM300_RAW_NMEA       iM300           $CPNVG,175353.681,4221.46992,N,7105.19494,W,1,0,0,90,nan,nan,175353.657*61 
9.60611         IM300_RAW_NMEA       iM300           $CPIMU,175353.759,4.69971,2.624514,-5.432133,-0.373649,0.136526,-8.574169*6E 
9.60631         IM300_RAW_NMEA       iM300           $CPRCM,175353.762,0,172.276089,2.427838,-0.513507,175353.759*47 
9.60650         IM300_RAW_NMEA       iM300           $CPNVR,175353.762,nan,nan,0,2.624514,4.69971,-5.432133*5A 
9.70632         IM300_RAW_NMEA       iM300           $GNGGA,175352.20,4221.46994,N,07105.19492,W,1,12,0.74,5.1,M,-33.2,M,,*79 
9.70640         IM300_RAW_NMEA       iM300           $GNVTG,,T,,M,0.234,N,0.434,K,A*3B 
9.70642         IM300_RAW_NMEA       iM300           $GNRMC,175352.20,A,4221.46994,N,07105.19492,W,0.234,,110723,,,A*7D 
9.70662         IM300_RAW_NMEA       iM300           $CPNVG,175353.881,4221.46993,N,7105.19493,W,1,0,0,90,nan,nan,175353.859*69 
9.80733         IM300_RAW_NMEA       iM300           $CPIMU,175354.011,4.272464,5.187992,-5.187992,-0.01976,-0.136526,-8.820275*4A 
9.80736         IM300_RAW_NMEA       iM300           $CPRCM,175354.014,0,174.902943,-0.273594,1.265477,175354.011*44 
9.80738         IM300_RAW_NMEA       iM300           $CPNVR,175354.014,nan,nan,0,5.187992,4.272464,-5.187992*69 
9.90899         IM300_RAW_NMEA       iM300           $CPNVG,175354.131,4221.46994,N,7105.19491,W,1,0,0,90,nan,nan,175354.111*6B 
9.90969         IM300_RAW_NMEA       iM300           $GNGGA,175352.40,4221.46994,N,07105.19491,W,1,12,0.74,5.1,M,-33.2,M,,*7C 
9.91030         IM300_RAW_NMEA       iM300           $GNVTG,,T,,M,0.185,N,0.343,K,A*35 
9.91050         IM300_RAW_NMEA       iM300           $GNRMC,175352.40,A,4221.46994,N,07105.19491,W,0.185,,110723,,,A*71 
10.00969        IM300_RAW_NMEA       iM300           $CPIMU,175354.212,-5.432133,-3.540042,-3.295901,0.028742,-0.34311,-9.418473*66 
10.01009        IM300_RAW_NMEA       iM300           $CPRCM,175354.215,0,170.907635,0.119649,1.808118,175354.212*65 
10.01030        IM300_RAW_NMEA       iM300           $CPNVR,175354.215,nan,nan,0,-3.540042,-5.432133,-3.295901*6F 
10.11065        IM300_RAW_NMEA       iM300           $CPNVG,175354.331,4221.46995,N,7105.19489,W,1,0,0,90,nan,nan,175354.314*66 
10.11124        IM300_RAW_NMEA       iM300           $GPGSV,3,1,12,05,72,274,49,06,17,103,42,07,06,068,41,09,06,035,36*76 
10.11143        IM300_RAW_NMEA       iM300           $GNGGA,175352.60,4221.46995,N,07105.19489,W,1,12,0.74,5.1,M,-33.2,M,,*76 
10.11198        IM300_RAW_NMEA       iM300           $GNVTG,,T,,M,0.227,N,0.421,K,A*3D 
10.11220        IM300_RAW_NMEA       iM300           $GNRMC,175352.60,A,4221.46995,N,07105.19489,W,0.227,,110723,,,A*70 
10.21072        IM300_RAW_NMEA       iM300           $CPIMU,175354.415,-5.554203,-5.920414,-3.05176,-0.127544,0.255087,-8.987339*6E 
10.21075        IM300_RAW_NMEA       iM300           $CPRCM,175354.418,0,169.85396,1.196221,-2.273518,175354.415*78 
10.21076        IM300_RAW_NMEA       iM300           $CPNVR,175354.417,nan,nan,0,-5.920414,-5.554203,-3.05176*52 
10.31150        IM300_RAW_NMEA       iM300           $GNGGA,175352.80,4221.46996,N,07105.19488,W,1,12,0.74,5.1,M,-33.2,M,,*7A 
10.31157        IM300_RAW_NMEA       iM300           $GNVTG,69.39,T,,M,0.276,N,0.512,K,A*13 
10.31159        IM300_RAW_NMEA       iM300           $GNRMC,175352.80,A,4221.46996,N,07105.19488,W,0.276,69.39,110723,,,A*53 
10.41250        IM300_RAW_NMEA       iM300           $CPIMU,175354.617,5.126957,1.586915,-7.263189,-0.28383,0.617958,-8.407105*69 
10.41252        IM300_RAW_NMEA       iM300           $CPNVR,175354.620,0.038551,0.136653,0,1.586915,5.126957,-7.263189*6F 
10.41254        IM300_RAW_NMEA       iM300           $CPNVG,175354.581,4221.46996,N,7105.19488,W,1,0,0,90,nan,nan,175354.564*68 
10.51326        IM300_RAW_NMEA       iM300           $GNGGA,175353.00,4221.46996,N,07105.19486,W,1,12,0.74,5.1,M,-33.2,M,,*7D 
10.51334        IM300_RAW_NMEA       iM300           $GNVTG,,T,,M,0.246,N,0.456,K,A*3A 
10.51336        IM300_RAW_NMEA       iM300           $GNRMC,175353.00,A,4221.46996,N,07105.19486,W,0.246,,110723,,,A*7C 
10.61355        IM300_RAW_NMEA       iM300           $CPIMU,175354.818,3.601077,2.075197,-9.094245,-0.147304,-0.206585,-8.712492*76 
10.61357        IM300_RAW_NMEA       iM300           $CPRCM,175354.821,0,170.131432,-0.354727,1.483326,175354.818*4F 
10.61359        IM300_RAW_NMEA       iM300           $CPNVR,175354.821,nan,nan,0,2.075197,3.601077,-9.094245*6E 
10.61361        IM300_RAW_NMEA       iM300           $CPNVG,175354.781,4221.46996,N,7105.19486,W,1,0,0,90,nan,nan,175354.765*67 
10.71432        IM300_RAW_NMEA       iM300           $GNGGA,175353.20,4221.46997,N,07105.19486,W,1,12,0.74,5.1,M,-33.2,M,,*7E 
10.71439        IM300_RAW_NMEA       iM300           $GNVTG,,T,,M,0.102,N,0.190,K,A*36 
10.71441        IM300_RAW_NMEA       iM300           $GNRMC,175353.20,A,4221.46997,N,07105.19486,W,0.102,,110723,,,A*7C 
10.71441        IM300_RAW_NMEA       iM300           $GNRMC,175353.20,A,4221.46997,N,07105.19486,W,0.102,,110723,,,A*7C 
10.81537        IM300_RAW_NMEA       iM300           $CPNVG,175355.030,4221.46997,N,7105.19486,W,1,0,0,90,nan,nan,175355.019*67 
10.81545        IM300_RAW_NMEA       iM300           $CPIMU,175355.019,-4.882816,-0.915528,-4.272464,-0.098801,-0.274848,-9.075362*77 
10.81547        IM300_RAW_NMEA       iM300           $CPRCM,175355.022,0,166.871501,0.640733,2.504263,175355.019*63 
10.81549        IM300_RAW_NMEA       iM300           $CPNVR,175355.021,nan,nan,0,-0.915528,-4.882816,-4.272464*65 
10.91617        IM300_RAW_NMEA       iM300           $GNGGA,175353.40,4221.46997,N,07105.19484,W,1,12,0.74,5.1,M,-33.2,M,,*7A 
10.91624        IM300_RAW_NMEA       iM300           $GNVTG,,T,,M,0.241,N,0.447,K,A*3D 
10.91625        IM300_RAW_NMEA       iM300           $GNRMC,175353.40,A,4221.46997,N,07105.19484,W,0.241,,110723,,,A*7C 
11.01711        IM300_RAW_NMEA       iM300           $CPNVG,175355.230,4221.46997,N,7105.19484,W,1,0,0,90,nan,nan,175355.222*6D 
11.01720        IM300_RAW_NMEA       iM300           $CPIMU,175355.222,1.831056,1.953126,-3.967288,-0.176046,0.628736,-8.741234*56 
11.01722        IM300_RAW_NMEA       iM300           $CPRCM,175355.225,0,162.103121,1.186461,-4.968235,175355.222*44 
11.01724        IM300_RAW_NMEA       iM300           $CPNVR,175355.224,nan,nan,0,1.953126,1.831056,-3.967288*66 
11.11792        IM300_RAW_NMEA       iM300           $GNGGA,175353.60,4221.46998,N,07105.19482,W,1,12,0.74,5.1,M,-33.2,M,,*71 
11.11799        IM300_RAW_NMEA       iM300           $GNVTG,74.54,T,,M,0.335,N,0.621,K,A*11 
11.11800        IM300_RAW_NMEA       iM300           $GNRMC,175353.60,A,4221.46998,N,07105.19482,W,0.335,74.54,110723,,,A*59 
11.11821        IM300_RAW_NMEA       iM300           $CPALT,175355.272,1*62 
11.21893        IM300_RAW_NMEA       iM300           $CPNVR,175355.428,-0.130406,0.112672,0,5.554203,8.972174,-6.835942*4B 
11.31962        IM300_RAW_NMEA       iM300           $CPRBS,175355.500,15.082754,15.082754,15.082754,0*71 
11.31969        IM300_RAW_NMEA       iM300           $GNGGA,175353.80,4221.46998,N,07105.19480,W,1,12,0.74,5.1,M,-33.2,M,,*7D 
11.31975        IM300_RAW_NMEA       iM300           $GNVTG,,T,,M,0.213,N,0.395,K,A*32 
11.31977        IM300_RAW_NMEA       iM300           $GNRMC,175353.80,A,4221.46998,N,07105.19480,W,0.213,,110723,,,A*7C 
11.32001        IM300_RAW_NMEA       iM300           $CPIMU,175355.425,8.972174,5.554203,-6.835942,-0.147304,0.246105,-8.89752*67 
11.32004        IM300_RAW_NMEA       iM300           $CPNVG,175355.433,4221.46998,N,7105.19482,W,1,0,0,90,nan,nan,175355.425*60 
11.32010        IM300_RAW_NMEA       iM300           $CPRCM,175355.429,0,165.940052,0.62712,-0.988363,175355.425*77 
11.41973        IM300_RAW_NMEA       iM300           $CPNVR,175355.629,nan,nan,0,-0.976563,0.427246,-5.98145*75 
11.52090        IM300_RAW_NMEA       iM300           $GNGGA,175354.00,4221.46998,N,07105.19479,W,1,12,0.74,5.1,M,-33.2,M,,*74 
11.52097        IM300_RAW_NMEA       iM300           $GNVTG,,T,,M,0.165,N,0.306,K,A*3A 
11.52099        IM300_RAW_NMEA       iM300           $GNRMC,175354.00,A,4221.46998,N,07105.19479,W,0.165,,110723,,,A*77 
11.52118        IM300_RAW_NMEA       iM300           $CPNVG,175355.634,4221.46998,N,7105.1948,W,1,0,0,90,nan,nan,175355.574*52 
11.52125        IM300_RAW_NMEA       iM300           $CPIMU,175355.626,0.427246,-0.976563,-5.98145,0.098801,-0.558677,-9.359192*45 
11.52127        IM300_RAW_NMEA       iM300           $CPRCM,175355.629,0,167.12414,-0.572427,3.093944,175355.626*70 
11.62091        IM300_RAW_NMEA       iM300           $CPIMU,175355.827,-5.493168,-7.812506,-7.019048,-0.107783,0.008982,-8.908298*53 
11.62093        IM300_RAW_NMEA       iM300           $CPNVR,175355.832,nan,nan,0,-7.812506,-5.493168,-7.019048*69 
11.72179        IM300_RAW_NMEA       iM300           $GNGGA,175354.20,4221.46999,N,07105.19477,W,1,12,0.74,5.1,M,-33.2,M,,*79 
11.72188        IM300_RAW_NMEA       iM300           $GNVTG,72.36,T,,M,0.306,N,0.568,K,A*1D 
11.72189        IM300_RAW_NMEA       iM300           $GNRMC,175354.20,A,4221.46999,N,07105.19477,W,0.306,72.36,110723,,,A*53 
11.72210        IM300_RAW_NMEA       iM300           $CPNVG,175355.882,4221.46998,N,7105.19479,W,1,0,0,90,nan,nan,175355.827*6C 
11.72210        IM300_RAW_NMEA       iM300           $CPNVG,175355.882,4221.46998,N,7105.19479,W,1,0,0,90,nan,nan,175355.827*6C 
11.92362        IM300_RAW_NMEA       iM300           $GNGGA,175354.40,4221.46999,N,07105.19476,W,1,12,0.74,5.1,M,-33.2,M,,*7E 
11.92370        IM300_RAW_NMEA       iM300           $GNVTG,70.27,T,,M,0.291,N,0.539,K,A*14 
11.92372        IM300_RAW_NMEA       iM300           $GNRMC,175354.40,A,4221.46999,N,07105.19476,W,0.291,70.27,110723,,,A*59 
11.92393        IM300_RAW_NMEA       iM300           $CPIMU,175356.078,1.281739,3.540042,-6.530766,-0.373649,0.637718,-8.358603*56 
11.92395        IM300_RAW_NMEA       iM300           $CPNVR,175356.084,-0.016243,-0.15658,0,3.540042,1.281739,-6.530766*5E 
11.92397        IM300_RAW_NMEA       iM300           $CPNVG,175356.081,4221.46999,N,7105.19477,W,1,0,0,90,nan,nan,175356.027*60 
12.12439        IM300_RAW_NMEA       iM300           $CPNVG,175356.330,4221.46999,N,7105.19475,W,1,0,0,90,nan,nan,175356.295*60 
12.12449        IM300_RAW_NMEA       iM300           $GNGGA,175354.60,4221.46999,N,07105.19475,W,1,12,0.74,5.1,M,-33.2,M,,*7F 
12.12454        IM300_RAW_NMEA       iM300           $GNVTG,,T,,M,0.076,N,0.141,K,A*38 
12.12456        IM300_RAW_NMEA       iM300           $GNRMC,175354.60,A,4221.46999,N,07105.19475,W,0.076,,110723,,,A*7F 
12.12475        IM300_RAW_NMEA       iM300           $CPIMU,175356.281,4.882816,6.286626,-5.371098,0,-0.195807,-9.183146*79 
12.12477        IM300_RAW_NMEA       iM300           $CPRCM,175356.284,0,158.281301,-0.404807,1.748605,175356.281*4A 
12.12479        IM300_RAW_NMEA       iM300           $CPNVR,175356.284,0.136946,0.060473,0,6.286626,4.882816,-5.371098*6C 
12.32504        IM300_RAW_NMEA       iM300           $GNGSA,A,3,05,06,09,11,12,20,25,29,13,07,15,,1.08,0.74,0.78*1F 
12.32507        IM300_RAW_NMEA       iM300           $GNGGA,175354.80,4221.47000,N,07105.19475,W,1,12,0.74,5.1,M,-33.2,M,,*79 
12.32513        IM300_RAW_NMEA       iM300           $GNVTG,,T,,M,0.099,N,0.184,K,A*30 
12.32515        IM300_RAW_NMEA       iM300           $GNRMC,175354.80,A,4221.47000,N,07105.19475,W,0.099,,110723,,,A*78 
12.32535        IM300_RAW_NMEA       iM300           $CPIMU,175356.482,-1.892091,-6.10352,-7.019048,0.176046,-0.538917,-9.075362*65 
12.32537        IM300_RAW_NMEA       iM300           $CPRCM,175356.486,0,155.805989,-0.667428,4.706866,175356.482*48 
12.32538        IM300_RAW_NMEA       iM300           $CPNVR,175356.485,nan,nan,0,-6.10352,-1.892091,-7.019048*58 
12.42510        IM300_RAW_NMEA       iM300           $CPNVG,175356.580,4221.47,N,7105.19475,W,1,0,0,90,nan,nan,175356.534*59 
12.52600        IM300_RAW_NMEA       iM300           $GNGGA,175355.00,4221.47000,N,07105.19473,W,1,12,0.74,5.1,M,-33.2,M,,*76 
12.52608        IM300_RAW_NMEA       iM300           $GNVTG,67.69,T,,M,0.300,N,0.555,K,A*1B 
12.52610        IM300_RAW_NMEA       iM300           $GNRMC,175355.00,A,4221.47000,N,07105.19473,W,0.300,67.69,110723,,,A*54 
12.52631        IM300_RAW_NMEA       iM300           $CPIMU,175356.682,-7.446294,-5.676274,-4.882816,-0.391613,0.34311,-8.407105*62 
12.52633        IM300_RAW_NMEA       iM300           $CPNVR,175356.685,nan,nan,0,-5.676274,-7.446294,-4.882816*64 
12.62599        IM300_RAW_NMEA       iM300           $CPNVG,175356.781,4221.47,N,7105.19473,W,1,0,0,90,nan,nan,175356.734*5E 
12.72686        IM300_RAW_NMEA       iM300           $GNGGA,175355.20,4221.47001,N,07105.19471,W,1,12,0.74,5.1,M,-33.2,M,,*77 
12.72694        IM300_RAW_NMEA       iM300           $GNVTG,68.88,T,,M,0.309,N,0.573,K,A*16 
12.72696        IM300_RAW_NMEA       iM300           $GNRMC,175355.20,A,4221.47001,N,07105.19471,W,0.309,68.88,110723,,,A*5C 
12.72718        IM300_RAW_NMEA       iM300           $CPIMU,175356.886,8.544928,9.521491,-6.530766,-0.391613,0.952087,-8.662193*5D 
12.72720        IM300_RAW_NMEA       iM300           $CPRCM,175356.890,0,151.352791,1.42893,-4.761547,175356.886*72 
12.72721        IM300_RAW_NMEA       iM300           $CPNVR,175356.889,-0.152697,0.022416,0,9.521491,8.544928,-6.530766*48 
12.82758        IM300_RAW_NMEA       iM300           $CPNVG,175356.982,4221.47001,N,7105.19471,W,1,0,0,90,nan,nan,175356.935*6F 
12.92847        IM300_RAW_NMEA       iM300           $CPIMU,175357.089,13.366709,5.432133,-6.958013,0.195807,-0.391613,-9.6538*6C 
12.92850        IM300_RAW_NMEA       iM300           $GNGGA,175355.40,4221.47001,N,07105.19471,W,1,12,0.74,5.1,M,-33.2,M,,*71 
12.92858        IM300_RAW_NMEA       iM300           $GNVTG,,T,,M,0.052,N,0.097,K,A*34 
12.92860        IM300_RAW_NMEA       iM300           $GNRMC,175355.40,A,4221.47001,N,07105.19471,W,0.052,,110723,,,A*77 
12.92882        IM300_RAW_NMEA       iM300           $CPRCM,175357.092,0,156.636116,-1.501388,2.598529,175357.089*4F 
12.92884        IM300_RAW_NMEA       iM300           $CPNVR,175357.091,-0.037019,0.154593,0,5.432133,13.366709,-6.958013*72 
13.02859        IM300_RAW_NMEA       iM300           $CPALT,175357.273,1*61 
13.02861        IM300_RAW_NMEA       iM300           $CPNVG,175357.230,4221.47001,N,7105.19471,W,1,0,0,90,nan,nan,175357.189*62 
13.12946        IM300_RAW_NMEA       iM300           $CPIMU,175357.290,-7.934576,-10.864266,-5.615238,0.255087,-0.774244,-9.378952*6E 
13.12950        IM300_RAW_NMEA       iM300           $CPRCM,175357.293,0,156.676026,-1.186088,4.266645,175357.290*41 
13.12951        IM300_RAW_NMEA       iM300           $CPNVR,175357.292,nan,nan,0,-10.864266,-7.934576,-5.615238*59 
13.12953        IM300_RAW_NMEA       iM300           $GNGGA,175355.60,4221.47001,N,07105.19470,W,1,12,0.74,5.1,M,-33.2,M,,*72 
13.12960        IM300_RAW_NMEA       iM300           $GNVTG,,T,,M,0.099,N,0.184,K,A*30 
13.12961        IM300_RAW_NMEA       iM300           $GNRMC,175355.60,A,4221.47001,N,07105.19470,W,0.099,,110723,,,A*73 
13.22945        IM300_RAW_NMEA       iM300           $CPNVG,175357.431,4221.47001,N,7105.1947,W,1,0,0,90,nan,nan,175357.392*5C 
13.33024        IM300_RAW_NMEA       iM300           $GNGGA,175355.80,4221.47002,N,07105.19468,W,1,12,0.74,5.2,M,-33.2,M,,*75 
13.33032        IM300_RAW_NMEA       iM300           $GNVTG,63.69,T,,M,0.335,N,0.621,K,A*19 
13.33034        IM300_RAW_NMEA       iM300           $GNRMC,175355.80,A,4221.47002,N,07105.19468,W,0.335,63.69,110723,,,A*56 
13.33055        IM300_RAW_NMEA       iM300           $CPIMU,175357.492,-13.305674,-8.972174,-5.065922,-0.362871,0.34311,-8.279562*50 
13.33057        IM300_RAW_NMEA       iM300           $CPRCM,175357.496,0,149.742318,2.413131,-1.82592,175357.492*7D 
13.33059        IM300_RAW_NMEA       iM300           $CPNVR,175357.495,nan,nan,0,-8.972174,-13.305674,-5.065922*5A 
13.43031        IM300_RAW_NMEA       iM300           $CPNVG,175357.681,4221.47002,N,7105.19468,W,1,0,0,90,nan,nan,175357.642*67 
13.43040        IM300_RAW_NMEA       iM300           $CPRBS,175357.601,15.083658,15.083658,15.083658,0*7D 
13.53160        IM300_RAW_NMEA       iM300           $CPIMU,175357.695,3.479006,9.948738,-5.493168,-0.558677,0.75628,-8.417884*60 
13.53163        IM300_RAW_NMEA       iM300           $CPRCM,175357.699,0,141.909515,2.691483,-4.892956,175357.695*4B 
13.53165        IM300_RAW_NMEA       iM300           $GNGGA,175356.00,4221.47002,N,07105.19466,W,1,12,0.74,5.2,M,-33.2,M,,*70 
13.53172        IM300_RAW_NMEA       iM300           $GNVTG,66.50,T,,M,0.294,N,0.544,K,A*1C 
13.53173        IM300_RAW_NMEA       iM300           $GNRMC,175356.00,A,4221.47002,N,07105.19466,W,0.294,66.50,110723,,,A*56 
13.53194        IM300_RAW_NMEA       iM300           $CPNVR,175357.698,0.130397,0.112682,0,9.948738,3.479006,-5.493168*67 
13.73232        IM300_RAW_NMEA       iM300           $CPNVG,175357.931,4221.47002,N,7105.19465,W,1,0,0,90,nan,nan,175357.894*6B 
13.73241        IM300_RAW_NMEA       iM300           $CPIMU,175357.894,14.404307,12.268075,-6.774907,-0.01976,0.156286,-9.143625*63 
13.73243        IM300_RAW_NMEA       iM300           $CPNVR,175357.898,nan,nan,0,12.268075,14.404307,-6.774907*63 
13.73245        IM300_RAW_NMEA       iM300           $GNGGA,175356.20,4221.47002,N,07105.19465,W,1,12,0.74,5.2,M,-33.2,M,,*71 
13.73250        IM300_RAW_NMEA       iM300           $GNVTG,,T,,M,0.158,N,0.292,K,A*38 
13.73252        IM300_RAW_NMEA       iM300           $GNRMC,175356.20,A,4221.47002,N,07105.19465,W,0.158,,110723,,,A*7F 
13.93302        IM300_RAW_NMEA       iM300           $CPNVG,175358.181,4221.47002,N,7105.19464,W,1,0,0,90,nan,nan,175358.148*61 
13.93311        IM300_RAW_NMEA       iM300           $GNTXT,01,01,00,txbuf alloc*61 
13.93312        IM300_RAW_NMEA       iM300           $CPIMU,175358.097,8.422858,-5.615238,-4.089358,0.353889,-0.373649,-8.908298*75 
13.93314        IM300_RAW_NMEA       iM300           $CPNVR,175358.098,nan,nan,0,-5.615238,8.422858,-4.089358*45 
13.93316        IM300_RAW_NMEA       iM300           $GNGGA,175356.40,4221.47002,N,07105.19464,W,1,12,0.74,5.2,M,-33.2,M,,*76 
13.93321        IM300_RAW_NMEA       iM300           $GNVTG,,T,,M,0.100,N,0.185,K,A*30 
13.93323        IM300_RAW_NMEA       iM300           $GNRMC,175356.40,A,4221.47002,N,07105.19464,W,0.100,,110723,,,A*75 
14.03300        IM300_RAW_NMEA       iM300           $GNRMC,175356.60,A,4221.47001,N,07105.19463,W,0.177,,110723,,,A*73 
14.13401        IM300_RAW_NMEA       iM300           $CPNVG,175358.380,4221.47001,N,7105.19463,W,1,0,0,90,nan,nan,175358.349*65 
14.13408        IM300_RAW_NMEA       iM300           $CPIMU,175358.299,-10.009773,-11.657723,-3.295901,-0.215567,-0.538917,-8.662193*71 
14.13410        IM300_RAW_NMEA       iM300           $CPRCM,175358.302,0,147.846374,2.057984,3.090667,175358.299*62 
14.13412        IM300_RAW_NMEA       iM300           $CPNVR,175358.302,nan,nan,0,-11.657723,-10.009773,-3.295901*68 
14.13414        IM300_RAW_NMEA       iM300           $GNGGA,175356.60,4221.47001,N,07105.19463,W,1,12,0.74,5.2,M,-33.2,M,,*70 
14.13419        IM300_RAW_NMEA       iM300           $GNVTG,,T,,M,0.177,N,0.328,K,A*35 
14.33550        IM300_RAW_NMEA       iM300           $CPNVG,175358.580,4221.47002,N,7105.19461,W,1,0,0,90,nan,nan,175358.550*6C 
14.33558        IM300_RAW_NMEA       iM300           $CPIMU,175358.501,-15.930187,4.882816,-8.300787,-0.549695,0.32335,-9.231648*76 
14.33559        IM300_RAW_NMEA       iM300           $CPNVR,175358.503,nan,nan,0,4.882816,-15.930187,-8.300787*74 
14.33561        IM300_RAW_NMEA       iM300           $GNGGA,175356.80,4221.47002,N,07105.19461,W,1,12,0.74,5.2,M,-33.2,M,,*7F 
14.33567        IM300_RAW_NMEA       iM300           $GNVTG,,T,,M,0.248,N,0.460,K,A*31 
14.33569        IM300_RAW_NMEA       iM300           $GNRMC,175356.80,A,4221.47002,N,07105.19461,W,0.248,,110723,,,A*73 
14.53718        IM300_RAW_NMEA       iM300           $CPIMU,175358.702,2.014162,9.948738,-7.6294,-0.068263,0.794004,-9.231648*5D 
14.53721        IM300_RAW_NMEA       iM300           $CPRCM,175358.704,0,137.899147,-0.104448,-4.836029,175358.702*67 
14.53722        IM300_RAW_NMEA       iM300           $CPNVR,175358.704,nan,nan,0,9.948738,2.014162,-7.6294*6A 
14.53724        IM300_RAW_NMEA       iM300           $GNGSA,A,3,05,06,09,11,12,20,25,29,13,07,15,,1.08,0.74,0.78*1F 
14.53726        IM300_RAW_NMEA       iM300           $GNGGA,175357.00,4221.47002,N,07105.19459,W,1,12,0.74,5.2,M,-33.2,M,,*7D 
14.53732        IM300_RAW_NMEA       iM300           $GNVTG,,T,,M,0.252,N,0.466,K,A*3C 
14.53734        IM300_RAW_NMEA       iM300           $GNRMC,175357.00,A,4221.47002,N,07105.19459,W,0.252,,110723,,,A*7A 
14.63754        IM300_RAW_NMEA       iM300           $CPNVG,175358.781,4221.47002,N,7105.19459,W,1,0,0,90,nan,nan,175358.752*64 
14.73845        IM300_RAW_NMEA       iM300           $CPIMU,175358.902,16.845715,-0.061035,-2.868654,0.147304,0.274848,-8.61369*57 
14.73879        IM300_RAW_NMEA       iM300           $CPRCM,175358.904,0,138.702707,-0.893175,-0.931078,175358.902*6D 
14.73911        IM300_RAW_NMEA       iM300           $CPNVR,175358.904,nan,nan,0,-0.061035,16.845715,-2.868654*7A 
14.73942        IM300_RAW_NMEA       iM300           $GNGGA,175357.20,4221.47002,N,07105.19458,W,1,12,0.74,5.2,M,-33.2,M,,*7E 
14.73951        IM300_RAW_NMEA       iM300           $GNVTG,,T,,M,0.188,N,0.349,K,A*32 
14.73952        IM300_RAW_NMEA       iM300           $GNRMC,175357.20,A,4221.47002,N,07105.19458,W,0.188,,110723,,,A*7D 
14.83938        IM300_RAW_NMEA       iM300           $GNRMC,175357.40,A,4221.47002,N,07105.19457,W,0.151,,110723,,,A*70 
14.83959        IM300_RAW_NMEA       iM300           $CPNVG,175359.030,4221.47002,N,7105.19458,W,1,0,0,90,nan,nan,175359.004*6C 
14.94043        IM300_RAW_NMEA       iM300           $CPIMU,175359.106,9.643562,-10.986336,-4.028323,0,-0.28383,-8.701713*59 
14.94045        IM300_RAW_NMEA       iM300           $CPNVR,175359.109,nan,nan,0,-10.986336,9.643562,-4.028323*74 
14.94047        IM300_RAW_NMEA       iM300           $GNGGA,175357.40,4221.47002,N,07105.19457,W,1,12,0.74,5.2,M,-33.2,M,,*77 
14.94053        IM300_RAW_NMEA       iM300           $GNVTG,,T,,M,0.151,N,0.280,K,A*32 
15.04118        IM300_RAW_NMEA       iM300           $GNRMC,175357.60,A,4221.47002,N,07105.19455,W,0.210,,110723,,,A*76 
15.04140        IM300_RAW_NMEA       iM300           $CPNVG,175359.230,4221.47002,N,7105.19457,W,1,0,0,90,nan,nan,175359.207*60 
15.14215        IM300_RAW_NMEA       iM300           $CPIMU,175359.308,-3.906253,-3.601077,-6.652837,-0.411373,-0.32335,-9.183146*47 
15.14219        IM300_RAW_NMEA       iM300           $CPRCM,175359.311,0,139.977122,1.853502,2.158463,175359.308*6D 
15.14221        IM300_RAW_NMEA       iM300           $CPNVR,175359.311,nan,nan,0,-3.601077,-3.906253,-6.652837*60 
15.14223        IM300_RAW_NMEA       iM300           $GNGGA,175357.60,4221.47002,N,07105.19455,W,1,12,0.74,5.2,M,-33.2,M,,*77 
15.14229        IM300_RAW_NMEA       iM300           $GNVTG,,T,,M,0.210,N,0.388,K,A*3D 
15.24292        IM300_RAW_NMEA       iM300           $GNRMC,175357.80,A,4221.47002,N,07105.19454,W,0.211,,110723,,,A*78 
15.24314        IM300_RAW_NMEA       iM300           $CPNVG,175359.431,4221.47002,N,7105.19455,W,1,0,0,90,nan,nan,175359.410*65 
15.34394        IM300_RAW_NMEA       iM300           $CPIMU,175359.510,-11.108406,9.338386,-4.272464,-0.264069,-0.068263,-8.780754*60 
15.34396        IM300_RAW_NMEA       iM300           $CPNVR,175359.512,nan,nan,0,9.338386,-11.108406,-4.272464*7D 
15.34398        IM300_RAW_NMEA       iM300           $GNGGA,175357.80,4221.47002,N,07105.19454,W,1,12,0.74,5.2,M,-33.2,M,,*78 
15.34404        IM300_RAW_NMEA       iM300           $GNVTG,,T,,M,0.211,N,0.391,K,A*34 
15.44472        IM300_RAW_NMEA       iM300           $CPNVG,175359.681,4221.47002,N,7105.19454,W,1,0,0,90,nan,nan,175359.661*69 
15.54585        IM300_RAW_NMEA       iM300           $CPIMU,175359.711,-5.126957,5.859379,-3.417971,-0.01976,0.558677,-8.446626*49 
15.54587        IM300_RAW_NMEA       iM300           $CPNVR,175359.713,nan,nan,0,5.859379,-5.126957,-3.417971*45 
15.54589        IM300_RAW_NMEA       iM300           $CPRBS,175359.702,15.088175,15.088175,15.088175,0*72 
15.54596        IM300_RAW_NMEA       iM300           $GNGSA,A,3,05,06,09,11,12,20,25,29,13,07,15,,1.08,0.74,0.78*1F 
15.54597        IM300_RAW_NMEA       iM300           $GNGGA,175358.00,4221.47003,N,07105.19452,W,1,12,0.74,5.2,M,-33.2,M,,*78 
15.54603        IM300_RAW_NMEA       iM300           $GNVTG,,T,,M,0.205,N,0.380,K,A*31 
15.54605        IM300_RAW_NMEA       iM300           $GNRMC,175358.00,A,4221.47003,N,07105.19452,W,0.205,,110723,,,A*7D 
15.64584        IM300_RAW_NMEA       iM300           $GNRMC,175358.20,A,4221.47003,N,07105.19451,W,0.165,,110723,,,A*79 
15.74673        IM300_RAW_NMEA       iM300           $CPNVG,175359.930,4221.47003,N,7105.19451,W,1,0,0,90,nan,nan,175359.912*63 
15.74681        IM300_RAW_NMEA       iM300           $CPIMU,175359.912,5.920414,-3.784182,-5.920414,0.028742,0.334129,-8.947819*5F 
15.74683        IM300_RAW_NMEA       iM300           $CPNVR,175359.914,nan,nan,0,-3.784182,5.920414,-5.920414*46 
15.74685        IM300_RAW_NMEA       iM300           $GNGGA,175358.20,4221.47003,N,07105.19451,W,1,12,0.74,5.2,M,-33.2,M,,*79 
15.74691        IM300_RAW_NMEA       iM300           $GNVTG,,T,,M,0.165,N,0.306,K,A*3A 
15.84752        IM300_RAW_NMEA       iM300           $GNRMC,175358.40,A,4221.47003,N,07105.19450,W,0.123,,110723,,,A*7C 
15.94852        IM300_RAW_NMEA       iM300           $CPNVG,175400.130,4221.47003,N,7105.1945,W,1,0,0,90,nan,nan,175400.113*53 
15.94860        IM300_RAW_NMEA       iM300           $CPIMU,175400.113,6.10352,-8.850104,-4.821781,0.028742,-0.167064,-9.497514*4C 
15.94862        IM300_RAW_NMEA       iM300           $CPNVR,175400.115,nan,nan,0,-8.850104,6.10352,-4.821781*75 
15.94863        IM300_RAW_NMEA       iM300           $GNGGA,175358.40,4221.47003,N,07105.19450,W,1,12,0.74,5.2,M,-33.2,M,,*7E 
15.94869        IM300_RAW_NMEA       iM300           $GNVTG,,T,,M,0.123,N,0.227,K,A*3A 
16.04938        IM300_RAW_NMEA       iM300           $CPALT,175400.272,1*65 
16.15025        IM300_RAW_NMEA       iM300           $CPNVG,175400.331,4221.47003,N,7105.19449,W,1,0,0,90,nan,nan,175400.316*6F 
16.15035        IM300_RAW_NMEA       iM300           $CPIMU,175400.316,2.685549,-7.019048,-2.624514,-0.28383,-0.01976,-8.859795*52 
16.15036        IM300_RAW_NMEA       iM300           $CPNVR,175400.319,nan,nan,0,-7.019048,2.685549,-2.624514*49 
16.15038        IM300_RAW_NMEA       iM300           $GNGGA,175358.60,4221.47003,N,07105.19449,W,1,12,0.74,5.2,M,-33.2,M,,*74 
16.15044        IM300_RAW_NMEA       iM300           $GNVTG,,T,,M,0.168,N,0.311,K,A*31 
16.15046        IM300_RAW_NMEA       iM300           $GNRMC,175358.60,A,4221.47003,N,07105.19449,W,0.168,,110723,,,A*79 
16.25032        IM300_RAW_NMEA       iM300           $GNRMC,175358.80,A,4221.47003,N,07105.19447,W,0.285,72.34,110723,,,A*55 
16.35129        IM300_RAW_NMEA       iM300           $CPNVG,175400.530,4221.47003,N,7105.19447,W,1,0,0,90,nan,nan,175400.520*65 
16.35139        IM300_RAW_NMEA       iM300           $CPIMU,175400.520,2.685549,5.98145,-4.516605,-0.538917,0.136526,-8.417884*67 
16.35140        IM300_RAW_NMEA       iM300           $CPRCM,175400.523,0,130.288387,2.313696,0.14222,175400.520*53 
16.35142        IM300_RAW_NMEA       iM300           $CPNVR,175400.523,-0.012209,-0.146107,0,5.98145,2.685549,-4.516605*56 
16.35144        IM300_RAW_NMEA       iM300           $GNGGA,175358.80,4221.47003,N,07105.19447,W,1,12,0.74,5.3,M,-33.2,M,,*75 
16.35150        IM300_RAW_NMEA       iM300           $GNVTG,72.34,T,,M,0.285,N,0.528,K,A*11 
16.45212        IM300_RAW_NMEA       iM300           $GNRMC,175359.00,A,4221.47003,N,07105.19445,W,0.253,78.39,110723,,,A*52 
16.55316        IM300_RAW_NMEA       iM300           $CPIMU,175400.771,-4.394534,12.939462,-3.601077,-0.039521,-0.195807,-8.987339*6E 
16.55320        IM300_RAW_NMEA       iM300           $CPNVR,175400.774,0.019426,-0.128697,0,12.939462,-4.394534,-3.601077*5C 
16.55322        IM300_RAW_NMEA       iM300           $CPNVG,175400.731,4221.47003,N,7105.19445,W,1,0,0,90,nan,nan,175400.718*6D 
16.55331        IM300_RAW_NMEA       iM300           $GNGSA,A,3,05,06,09,11,12,20,25,29,13,07,15,,1.08,0.74,0.78*1F 
16.55332        IM300_RAW_NMEA       iM300           $GNGGA,175359.00,4221.47003,N,07105.19445,W,1,12,0.74,5.3,M,-33.2,M,,*7E 
16.55338        IM300_RAW_NMEA       iM300           $GNVTG,78.39,T,,M,0.253,N,0.468,K,A*18 
16.65409        IM300_RAW_NMEA       iM300           $GNRMC,175359.20,A,4221.47002,N,07105.19443,W,0.242,90.68,110723,,,A*55 
16.75505        IM300_RAW_NMEA       iM300           $CPIMU,175400.972,-4.638675,0.12207,-0.610352,0.314368,0.118562,-9.163385*6F 
16.75508        IM300_RAW_NMEA       iM300           $CPRCM,175400.976,0,133.376621,-1.783084,-0.144769,175400.972*6B 
16.75510        IM300_RAW_NMEA       iM300           $CPNVR,175400.975,0.051467,-0.113359,0,0.12207,-4.638675,-0.610352*51 
16.75512        IM300_RAW_NMEA       iM300           $CPNVG,175400.931,4221.47002,N,7105.19443,W,1,0,0,90,nan,nan,175400.921*60 
16.75520        IM300_RAW_NMEA       iM300           $GNGGA,175359.20,4221.47002,N,07105.19443,W,1,12,0.74,5.3,M,-33.2,M,,*7B 
16.75525        IM300_RAW_NMEA       iM300           $GNVTG,90.68,T,,M,0.242,N,0.448,K,A*18 
16.85587        IM300_RAW_NMEA       iM300           $GNRMC,175359.40,A,4221.47002,N,07105.19441,W,0.266,90.73,110723,,,A*5D 
16.95679        IM300_RAW_NMEA       iM300           $CPNVR,175401.178,0.050273,-0.127273,0,-9.521491,1.037598,-2.136232*66 
16.95683        IM300_RAW_NMEA       iM300           $GNGGA,175359.40,4221.47002,N,07105.19441,W,1,12,0.74,5.3,M,-33.2,M,,*7F 
16.95689        IM300_RAW_NMEA       iM300           $GNVTG,90.73,T,,M,0.266,N,0.492,K,A*13 
