1.85606         IM300_RAW_NMEA       iM300           $GNRMC,172221.00,A,4221.52547,N,07105.17637,W,3.349,92.34,110723,,,A*53 
1.95692         IM300_RAW_NMEA       iM300           $CPNVR,172222.845,-1.625974,-0.569654,0,-5.371098,-4.516605,-3.05176*52 
1.95695         IM300_RAW_NMEA       iM300           $CPNVG,172222.781,4221.52547,N,7105.17637,W,1,0,0,289.30772,nan,nan,172222.742*44 
2.05767         IM300_RAW_NMEA       iM300           $GNVTG,90.72,T,,M,3.402,N,6.300,K,A*1F 
2.05770         IM300_RAW_NMEA       iM300           $GNRMC,172221.20,A,4221.52547,N,07105.17612,W,3.402,90.72,110723,,,A*5E 
2.05793         IM300_RAW_NMEA       iM300           $CPIMU,172222.842,-4.516605,-5.371098,-3.05176,0.246105,0.362871,-8.222077*4D 
2.05794         IM300_RAW_NMEA       iM300           $CPRCM,172222.846,0,98.102334,-2.493821,-1.74454,172222.842*63 
2.15863         IM300_RAW_NMEA       iM300           $CPNVG,172223.032,4221.52547,N,7105.17637,W,1,0,0,22.126883,nan,nan,172222.994*4B 
2.25949         IM300_RAW_NMEA       iM300           $GNGSA,A,3,66,82,81,67,68,83,,,,,,,1.12,0.68,0.90*1E 
2.25952         IM300_RAW_NMEA       iM300           $GNGSA,A,3,05,06,09,11,12,19,20,25,29,13,,,1.12,0.68,0.90*14 
2.25954         IM300_RAW_NMEA       iM300           $GNGGA,172221.40,4221.52547,N,07105.17586,W,1,12,0.68,3.4,M,-33.2,M,,*7E 
2.25960         IM300_RAW_NMEA       iM300           $GNVTG,90.36,T,,M,3.445,N,6.380,K,A*14 
2.25962         IM300_RAW_NMEA       iM300           $GNRMC,172221.40,A,4221.52547,N,07105.17586,W,3.445,90.36,110723,,,A*55 
2.25983         IM300_RAW_NMEA       iM300           $CPIMU,172223.044,12.878427,6.042485,-2.502443,0.195807,0.039521,-8.760994*4E 
2.25985         IM300_RAW_NMEA       iM300           $CPRCM,172223.047,0,96.902248,-1.593613,0.629523,172223.044*76 
2.25986         IM300_RAW_NMEA       iM300           $CPNVR,172223.046,0.659206,-1.621246,0,6.042485,12.878427,-2.502443*70 
2.35949         IM300_RAW_NMEA       iM300           $CPNVR,172223.247,1.203089,-1.301341,0,-5.065922,-2.563478,-1.464845*4F 
2.46025         IM300_RAW_NMEA       iM300           $GNVTG,90.21,T,,M,3.400,N,6.297,K,A*14 
2.46028         IM300_RAW_NMEA       iM300           $GNRMC,172221.60,A,4221.52547,N,07105.17561,W,3.400,90.21,110723,,,A*59 
2.46054         IM300_RAW_NMEA       iM300           $CPNVG,172223.280,4221.52547,N,7105.17586,W,1,0,0,42.753363,nan,nan,172223.244*49 
2.46061         IM300_RAW_NMEA       iM300           $CPIMU,172223.244,-2.563478,-5.065922,-1.464845,0.481433,-0.598198,-8.760994*50 
2.46063         IM300_RAW_NMEA       iM300           $CPRCM,172223.247,0,100.261452,-3.178403,3.615494,172223.244*4A 
2.56026         IM300_RAW_NMEA       iM300           $CPNVR,172223.452,1.36597,-1.092481,0,1.464845,-10.80323,-0.305176*57 
2.66105         IM300_RAW_NMEA       iM300           $GNGGA,172221.80,4221.52548,N,07105.17535,W,1,12,0.68,3.4,M,-33.2,M,,*75 
2.66112         IM300_RAW_NMEA       iM300           $GNVTG,89.32,T,,M,3.483,N,6.450,K,A*18 
2.66114         IM300_RAW_NMEA       iM300           $GNRMC,172221.80,A,4221.52548,N,07105.17535,W,3.483,89.32,110723,,,A*58 
2.66136         IM300_RAW_NMEA       iM300           $CPNVG,172223.481,4221.52547,N,7105.17586,W,1,0,0,51.34773,nan,nan,172223.449*74 
2.66142         IM300_RAW_NMEA       iM300           $CPIMU,172223.449,-10.80323,1.464845,-0.305176,0.107783,0.118562,-8.369381*5D 
2.66144         IM300_RAW_NMEA       iM300           $CPRCM,172223.453,0,93.652282,-1.531475,-3.783071,172223.449*50 
2.76116         IM300_RAW_NMEA       iM300           $CPNVR,172223.653,1.750407,0.382962,0,8.911139,3.05176,-1.708986*5E 
2.86195         IM300_RAW_NMEA       iM300           $CPNVG,172223.731,4221.52549,N,7105.17509,W,1,0,0,151.615344,nan,nan,172223.700*7F 
2.86205         IM300_RAW_NMEA       iM300           $GNGSA,A,3,05,06,09,11,12,19,20,25,29,13,,,1.12,0.68,0.90*14 
2.86206         IM300_RAW_NMEA       iM300           $GNGGA,172222.00,4221.52549,N,07105.17509,W,1,12,0.68,3.4,M,-33.2,M,,*70 
2.86212         IM300_RAW_NMEA       iM300           $GNVTG,88.46,T,,M,3.390,N,6.278,K,A*13 
2.86214         IM300_RAW_NMEA       iM300           $GNRMC,172222.00,A,4221.52549,N,07105.17509,W,3.390,88.46,110723,,,A*5A 
2.86240         IM300_RAW_NMEA       iM300           $CPIMU,172223.650,3.05176,8.911139,-1.708986,0.34311,0.422152,-9.378952*7C 
2.86242         IM300_RAW_NMEA       iM300           $CPRCM,172223.653,0,96.457824,-2.416058,-2.203002,172223.650*58 
2.96206         IM300_RAW_NMEA       iM300           $CPNVR,172223.856,0.829062,1.5343,0,-0.427246,4.638675,0.12207*59 
2.96206         IM300_RAW_NMEA       iM300           $CPNVR,172223.856,0.829062,1.5343,0,-0.427246,4.638675,0.12207*59 
3.06279         IM300_RAW_NMEA       iM300           $GNGGA,172222.20,4221.52549,N,07105.17485,W,1,12,0.68,3.4,M,-33.2,M,,*77 
3.06322         IM300_RAW_NMEA       iM300           $GNVTG,88.46,T,,M,3.326,N,6.159,K,A*1E 
3.06325         IM300_RAW_NMEA       iM300           $GNRMC,172222.20,A,4221.52549,N,07105.17485,W,3.326,88.46,110723,,,A*50 
3.06395         IM300_RAW_NMEA       iM300           $CPIMU,172223.853,4.638675,-0.427246,0.12207,0.501193,-0.079041,-8.642432*67 
3.16375         IM300_RAW_NMEA       iM300           $CPNVR,172224.057,0.81341,1.505334,0,-6.652837,-1.342774,0.915528*74 
3.16378         IM300_RAW_NMEA       iM300           $CPNVG,172223.981,4221.52549,N,7105.17485,W,1,0,0,151.615344,nan,nan,172223.952*76 
3.26422         IM300_RAW_NMEA       iM300           $GNGGA,172222.40,4221.52550,N,07105.17461,W,1,12,0.68,3.4,M,-33.2,M,,*73 
3.26430         IM300_RAW_NMEA       iM300           $GNVTG,87.83,T,,M,3.280,N,6.075,K,A*1A 
3.26431         IM300_RAW_NMEA       iM300           $GNRMC,172222.40,A,4221.52550,N,07105.17461,W,3.280,87.83,110723,,,A*5F 
3.26459         IM300_RAW_NMEA       iM300           $CPIMU,172224.054,-1.342774,-6.652837,0.915528,0.422152,0.079041,-8.299322*55 
3.36550         IM300_RAW_NMEA       iM300           $CPRBS,172224.191,13.569691,13.569691,13.569691,0*73 
3.36560         IM300_RAW_NMEA       iM300           $CPNVG,172224.182,4221.5255,N,7105.17461,W,1,0,0,187.711685,nan,nan,172224.154*47 
3.46702         IM300_RAW_NMEA       iM300           $GNGGA,172222.60,4221.52551,N,07105.17436,W,1,12,0.68,3.4,M,-33.2,M,,*72 
3.46711         IM300_RAW_NMEA       iM300           $GNVTG,87.90,T,,M,3.285,N,6.084,K,A*13 
3.46713         IM300_RAW_NMEA       iM300           $GNRMC,172222.60,A,4221.52551,N,07105.17436,W,3.285,87.90,110723,,,A*59 
3.46830         IM300_RAW_NMEA       iM300           $CPALT,172224.267,1*66 
3.46832         IM300_RAW_NMEA       iM300           $CPIMU,172224.256,4.089358,-4.69971,-1.708986,0.226345,0.362871,-8.241837*64 
3.46833         IM300_RAW_NMEA       iM300           $CPNVR,172224.259,-0.226426,1.672117,0,-4.69971,4.089358,-1.708986*53 
3.56701         IM300_RAW_NMEA       iM300           $CPNVR,172224.460,-0.109085,1.686426,0,5.98145,10.009773,-0.549317*49 
3.56704         IM300_RAW_NMEA       iM300           $CPNVG,172224.382,4221.52551,N,7105.17436,W,1,0,0,183.700981,nan,nan,172224.356*79 
3.66781         IM300_RAW_NMEA       iM300           $GNGGA,172222.80,4221.52551,N,07105.17412,W,1,12,0.68,3.4,M,-33.2,M,,*7A 
3.66789         IM300_RAW_NMEA       iM300           $GNVTG,88.91,T,,M,3.292,N,6.097,K,A*19 
3.66791         IM300_RAW_NMEA       iM300           $GNRMC,172222.80,A,4221.52551,N,07105.17412,W,3.292,88.91,110723,,,A*59 
3.66816         IM300_RAW_NMEA       iM300           $CPIMU,172224.457,10.009773,5.98145,-0.549317,0.136526,-0.334129,-9.339432*57 
3.76885         IM300_RAW_NMEA       iM300           $CPNVG,172224.631,4221.52551,N,7105.17412,W,1,0,0,125.832243,nan,nan,172224.610*72 
3.86967         IM300_RAW_NMEA       iM300           $GNGGA,172223.00,4221.52551,N,07105.17388,W,1,12,0.68,3.4,M,-33.2,M,,*77 
3.86973         IM300_RAW_NMEA       iM300           $GNVTG,89.28,T,,M,3.216,N,5.956,K,A*11 
3.86975         IM300_RAW_NMEA       iM300           $GNRMC,172223.00,A,4221.52551,N,07105.17388,W,3.216,89.28,110723,,,A*5B 
3.86996         IM300_RAW_NMEA       iM300           $CPIMU,172224.659,-8.117682,-2.685549,-1.831056,0.666461,-0.510175,-9.084344*59 
3.86998         IM300_RAW_NMEA       iM300           $CPRCM,172224.662,0,96.350541,-3.743578,2.934788,172224.659*7F 
3.86999         IM300_RAW_NMEA       iM300           $CPNVR,172224.662,1.37302,0.991429,0,-2.685549,-8.117682,-1.831056*5A 
3.97069         IM300_RAW_NMEA       iM300           $CPNVG,172224.831,4221.52551,N,7105.17388,W,1,0,0,104.632805,nan,nan,172224.811*72 
4.07147         IM300_RAW_NMEA       iM300           $GNGGA,172223.20,4221.52552,N,07105.17364,W,1,12,0.68,3.4,M,-33.2,M,,*74 
4.07172         IM300_RAW_NMEA       iM300           $GNVTG,88.56,T,,M,3.273,N,6.062,K,A*17 
4.07174         IM300_RAW_NMEA       iM300           $GNRMC,172223.20,A,4221.52552,N,07105.17364,W,3.273,88.56,110723,,,A*53 
4.07211         IM300_RAW_NMEA       iM300           $CPIMU,172224.862,-11.474618,-5.859379,-4.028323,0.34311,-0.039521,-8.063995*59 
4.07212         IM300_RAW_NMEA       iM300           $CPNVR,172224.867,1.600791,0.417954,0,-5.859379,-11.474618,-4.028323*5B 
4.17175         IM300_RAW_NMEA       iM300           $CPNVR,172225.066,0.944337,1.394034,0,3.845218,-2.441408,-2.868654*4F 
4.27245         IM300_RAW_NMEA       iM300           $GNGGA,172223.40,4221.52553,N,07105.17339,W,1,12,0.68,3.4,M,-33.2,M,,*7B 
4.27251         IM300_RAW_NMEA       iM300           $GNVTG,87.68,T,,M,3.273,N,6.062,K,A*15 
4.27253         IM300_RAW_NMEA       iM300           $GNRMC,172223.40,A,4221.52553,N,07105.17339,W,3.273,87.68,110723,,,A*5E 
4.27275         IM300_RAW_NMEA       iM300           $CPNVG,172225.082,4221.52552,N,7105.17364,W,1,0,0,145.885766,nan,nan,172225.064*74 
4.27281         IM300_RAW_NMEA       iM300           $CPIMU,172225.064,-2.441408,3.845218,-2.868654,0.147304,0.382631,-9.143625*55 
4.37343         IM300_RAW_NMEA       iM300           $CPNVR,172225.268,-0.472751,1.616048,0,-0.183106,9.338386,-1.159669*6F 
4.47419         IM300_RAW_NMEA       iM300           $GNGSA,A,3,05,06,09,11,12,19,20,25,29,13,,,1.12,0.68,0.90*14 
4.47421         IM300_RAW_NMEA       iM300           $GNGGA,172223.60,4221.52554,N,07105.17315,W,1,12,0.68,3.4,M,-33.2,M,,*70 
4.47428         IM300_RAW_NMEA       iM300           $GNVTG,87.56,T,,M,3.325,N,6.157,K,A*1D 
4.47429         IM300_RAW_NMEA       iM300           $GNRMC,172223.60,A,4221.52554,N,07105.17315,W,3.325,87.56,110723,,,A*5A 
4.47451         IM300_RAW_NMEA       iM300           $CPIMU,172225.265,9.338386,-0.183106,-1.159669,0.246105,0.235327,-8.653211*55 
4.57530         IM300_RAW_NMEA       iM300           $CPNVR,172225.469,-0.673342,1.572423,0,-1.708986,6.408696,3.662112*45 
4.57533         IM300_RAW_NMEA       iM300           $CPNVG,172225.332,4221.52554,N,7105.17315,W,1,0,0,203.181546,nan,nan,172225.316*76 
4.67612         IM300_RAW_NMEA       iM300           $CPNVG,172225.580,4221.52554,N,7105.1729,W,1,0,0,222.662111,nan,nan,172225.567*4A 
4.67622         IM300_RAW_NMEA       iM300           $GNGGA,172223.80,4221.52554,N,07105.17290,W,1,12,0.68,3.4,M,-33.2,M,,*72 
4.67628         IM300_RAW_NMEA       iM300           $GNVTG,87.22,T,,M,3.348,N,6.200,K,A*14 
4.67630         IM300_RAW_NMEA       iM300           $GNRMC,172223.80,A,4221.52554,N,07105.17290,W,3.348,87.22,110723,,,A*50 
4.67650         IM300_RAW_NMEA       iM300           $CPIMU,172225.466,6.408696,-1.708986,3.662112,0.127544,-0.195807,-8.437644*5C 
4.77617         IM300_RAW_NMEA       iM300           $CPNVR,172225.671,-1.167198,1.26656,0,2.92969,-7.50733,6.408696*7C 
4.87690         IM300_RAW_NMEA       iM300           $GNGGA,172224.00,4221.52556,N,07105.17266,W,1,12,0.68,3.4,M,-33.2,M,,*76 
4.87697         IM300_RAW_NMEA       iM300           $GNVTG,86.50,T,,M,3.279,N,6.074,K,A*12 
4.87699         IM300_RAW_NMEA       iM300           $GNRMC,172224.00,A,4221.52556,N,07105.17266,W,3.279,86.50,110723,,,A*53 
4.87722         IM300_RAW_NMEA       iM300           $CPIMU,172225.668,-7.50733,2.92969,6.408696,0.008982,0.136526,-8.752012*75 
4.97788         IM300_RAW_NMEA       iM300           $CPIMU,172225.869,0.793458,3.662112,4.882816,0.098801,0.598198,-8.987339*5E 
4.97791         IM300_RAW_NMEA       iM300           $CPNVR,172225.872,-1.677359,0.178812,0,3.662112,0.793458,4.882816*67 
4.97793         IM300_RAW_NMEA       iM300           $CPNVG,172225.830,4221.52556,N,7105.17266,W,1,0,0,263.915072,nan,nan,172225.819*7D 
5.07867         IM300_RAW_NMEA       iM300           $GNVTG,86.35,T,,M,3.239,N,5.998,K,A*1D 
5.07870         IM300_RAW_NMEA       iM300           $GNRMC,172224.20,A,4221.52557,N,07105.17242,W,3.239,86.35,110723,,,A*51 
5.17957         IM300_RAW_NMEA       iM300           $CPNVR,172226.074,-1.664688,-0.072957,0,-0.12207,6.469731,5.065922*55 
5.28034         IM300_RAW_NMEA       iM300           $GNGGA,172224.40,4221.52557,N,07105.17218,W,1,12,0.68,3.4,M,-33.2,M,,*7A 
5.28042         IM300_RAW_NMEA       iM300           $GNVTG,87.18,T,,M,3.158,N,5.848,K,A*1B 
5.28044         IM300_RAW_NMEA       iM300           $GNRMC,172224.40,A,4221.52557,N,07105.17218,W,3.158,87.18,110723,,,A*52 
5.28065         IM300_RAW_NMEA       iM300           $CPNVG,172226.081,4221.52556,N,7105.17266,W,1,0,0,272.509439,nan,nan,172226.072*70 
5.28072         IM300_RAW_NMEA       iM300           $CPIMU,172226.072,6.469731,-0.12207,5.065922,0.274848,-0.039521,-8.908298*68 
5.28074         IM300_RAW_NMEA       iM300           $CPRCM,172226.075,0,96.95292,0.516296,0.114852,172226.072*68 
5.38038         IM300_RAW_NMEA       iM300           $CPALT,172226.268,1*6B 
5.48142         IM300_RAW_NMEA       iM300           $CPRBS,172226.290,13.899404,13.899404,13.899404,0*7F 
5.48151         IM300_RAW_NMEA       iM300           $GNGGA,172224.60,4221.52557,N,07105.17196,W,1,12,0.68,3.4,M,-33.2,M,,*7D 
5.48157         IM300_RAW_NMEA       iM300           $GNVTG,88.02,T,,M,3.085,N,5.713,K,A*1F 
5.48159         IM300_RAW_NMEA       iM300           $GNRMC,172224.60,A,4221.52557,N,07105.17196,W,3.085,88.02,110723,,,A*50 
5.48214         IM300_RAW_NMEA       iM300           $CPIMU,172226.274,-3.906253,-5.554203,6.286626,0.382631,0.048503,-8.103515*52 
5.48216         IM300_RAW_NMEA       iM300           $CPNVG,172226.280,4221.52557,N,7105.17218,W,1,0,0,224.953942,nan,nan,172226.274*7E 
5.48246         IM300_RAW_NMEA       iM300           $CPRCM,172226.278,0,99.460646,-2.459757,-0.893183,172226.274*5C 
5.48248         IM300_RAW_NMEA       iM300           $CPNVR,172226.277,-1.147853,1.1497,0,-5.554203,-3.906253,6.286626*6F 
5.68185         IM300_RAW_NMEA       iM300           $CPIMU,172226.525,-0.854493,-0.549317,2.502443,-0.088023,0.30359,-8.505907*47 
5.68189         IM300_RAW_NMEA       iM300           $CPNVG,172226.532,4221.52557,N,7105.17172,W,1,0,0,127.551117,nan,nan,172226.525*7A 
5.68198         IM300_RAW_NMEA       iM300           $CPRCM,172226.528,0,99.875123,1.5662,-1.769516,172226.525*76 
5.68200         IM300_RAW_NMEA       iM300           $CPNVR,172226.528,1.27496,0.98012,0,-0.549317,-0.854493,2.502443*49 
5.68201         IM300_RAW_NMEA       iM300           $GNGSA,A,3,05,06,09,11,12,19,20,25,29,13,,,1.12,0.68,0.90*14 
5.68203         IM300_RAW_NMEA       iM300           $GNGGA,172224.80,4221.52557,N,07105.17172,W,1,12,0.68,3.4,M,-33.2,M,,*79 
5.68209         IM300_RAW_NMEA       iM300           $GNVTG,88.88,T,,M,3.126,N,5.789,K,A*16 
5.68211         IM300_RAW_NMEA       iM300           $GNRMC,172224.80,A,4221.52557,N,07105.17172,W,3.126,88.88,110723,,,A*5E 
5.88264         IM300_RAW_NMEA       iM300           $CPIMU,172226.726,5.065922,11.047371,1.40381,0.30359,0.147304,-9.477754*68 
5.88268         IM300_RAW_NMEA       iM300           $CPNVG,172226.733,4221.52556,N,7105.17149,W,1,0,0,359.781529,nan,nan,172226.726*7C 
5.88294         IM300_RAW_NMEA       iM300           $CPRCM,172226.729,0,100.265688,-2.192099,-2.285529,172226.726*63 
5.88297         IM300_RAW_NMEA       iM300           $CPNVR,172226.728,-0.006032,-1.581905,0,11.047371,5.065922,1.40381*4A 
5.88299         IM300_RAW_NMEA       iM300           $GNGGA,172225.00,4221.52556,N,07105.17149,W,1,12,0.68,3.4,M,-33.2,M,,*79 
5.88320         IM300_RAW_NMEA       iM300           $GNVTG,91.11,T,,M,3.075,N,5.696,K,A*16 
5.88322         IM300_RAW_NMEA       iM300           $GNRMC,172225.00,A,4221.52556,N,07105.17149,W,3.075,91.11,110723,,,A*51 
6.08408         IM300_RAW_NMEA       iM300           $CPIMU,172226.929,-3.295901,-2.624514,1.159669,1.000589,-0.215567,-8.769976*7D 
6.08411         IM300_RAW_NMEA       iM300           $CPRCM,172226.932,0,103.133085,-6.666187,1.388153,172226.929*43 
6.08413         IM300_RAW_NMEA       iM300           $CPNVR,172226.932,-1.51549,0.327798,0,-2.624514,-3.295901,1.159669*5D 
6.08414         IM300_RAW_NMEA       iM300           $GNGGA,172225.20,4221.52555,N,07105.17127,W,1,12,0.68,3.4,M,-33.2,M,,*70 
6.08421         IM300_RAW_NMEA       iM300           $GNVTG,92.89,T,,M,3.014,N,5.582,K,A*15 
6.08422         IM300_RAW_NMEA       iM300           $GNRMC,172225.20,A,4221.52555,N,07105.17127,W,3.014,92.89,110723,,,A*5D 
6.18454         IM300_RAW_NMEA       iM300           $GNRMC,172225.40,A,4221.52554,N,07105.17105,W,2.973,93.23,110723,,,A*52 
6.18505         IM300_RAW_NMEA       iM300           $CPNVG,172226.980,4221.52555,N,7105.17127,W,1,0,0,257.795041,nan,nan,172226.929*71 
6.28488         IM300_RAW_NMEA       iM300           $CPNVG,172227.180,4221.52555,N,7105.17127,W,1,0,0,238.314476,nan,nan,172227.132*7F 
6.28499         IM300_RAW_NMEA       iM300           $CPIMU,172227.132,-8.300787,-15.563976,-4.089358,0.402391,0.008982,-7.828668*4C 
6.28526         IM300_RAW_NMEA       iM300           $CPRCM,172227.135,0,98.905982,-3.335646,-0.952419,172227.132*58 
6.28528         IM300_RAW_NMEA       iM300           $CPNVR,172227.135,-1.30147,0.80335,0,-15.563976,-8.300787,-4.089358*78 
6.28529         IM300_RAW_NMEA       iM300           $GNTXT,01,01,00,txbuf alloc*61 
6.28531         IM300_RAW_NMEA       iM300           $GNVTG,93.23,T,,M,2.973,N,5.506,K,A*11 
6.38558         IM300_RAW_NMEA       iM300           $GNRMC,172225.60,A,4221.52553,N,07105.17081,W,3.193,93.27,110723,,,A*59 
6.48651         IM300_RAW_NMEA       iM300           $CPNVG,172227.381,4221.52553,N,7105.17081,W,1,0,0,236.022645,nan,nan,172227.332*7F 
6.48685         IM300_RAW_NMEA       iM300           $GNGGA,172225.60,4221.52553,N,07105.17081,W,1,12,0.68,3.4,M,-33.2,M,,*7F 
6.48693         IM300_RAW_NMEA       iM300           $GNVTG,93.27,T,,M,3.193,N,5.914,K,A*1D 
6.58684         IM300_RAW_NMEA       iM300           $GNRMC,172225.80,A,4221.52552,N,07105.17057,W,3.234,93.55,110723,,,A*56 
6.58707         IM300_RAW_NMEA       iM300           $CPIMU,172227.383,7.141118,10.498054,-3.417971,-0.107783,0.30359,-9.152607*5E 
6.58709         IM300_RAW_NMEA       iM300           $CPNVR,172227.385,-1.362158,0.918004,0,10.498054,7.141118,-3.417971*76 
6.68778         IM300_RAW_NMEA       iM300           $CPNVR,172227.586,-1.068966,1.274855,0,2.014162,-0.12207,-1.037598*5B 
6.68781         IM300_RAW_NMEA       iM300           $GNGSA,A,3,05,06,09,11,12,19,20,25,29,13,,,1.12,0.68,0.90*14 
6.68783         IM300_RAW_NMEA       iM300           $GNGGA,172225.80,4221.52552,N,07105.17057,W,1,12,0.68,3.4,M,-33.2,M,,*7B 
6.68789         IM300_RAW_NMEA       iM300           $GNVTG,93.55,T,,M,3.234,N,5.990,K,A*1A 
6.78860         IM300_RAW_NMEA       iM300           $GNGGA,172226.00,4221.52551,N,07105.17032,W,1,12,0.68,3.4,M,-33.2,M,,*70 
6.78868         IM300_RAW_NMEA       iM300           $GNVTG,93.28,T,,M,3.305,N,6.121,K,A*12 
6.78870         IM300_RAW_NMEA       iM300           $GNRMC,172226.00,A,4221.52551,N,07105.17032,W,3.305,93.28,110723,,,A*54 
6.78892         IM300_RAW_NMEA       iM300           $CPNVG,172227.631,4221.52552,N,7105.17057,W,1,0,0,219.979827,nan,nan,172227.584*70 
6.78899         IM300_RAW_NMEA       iM300           $CPIMU,172227.584,-0.12207,2.014162,-1.037598,0.794004,-0.402391,-9.418473*48 
6.88859         IM300_RAW_NMEA       iM300           $CPNVR,172227.790,-1.400365,0.964256,0,-1.281739,-5.187992,-0.549317*44 
6.99016         IM300_RAW_NMEA       iM300           $GNRMC,172226.20,A,4221.52551,N,07105.17007,W,3.408,91.57,110723,,,A*50 
6.99541         IM300_RAW_NMEA       iM300           $CPNVG,172227.831,4221.52551,N,7105.17032,W,1,0,0,235.449687,nan,nan,172227.787*7B 
6.99603         IM300_RAW_NMEA       iM300           $CPIMU,172227.787,-5.187992,-1.281739,-0.549317,0.34311,-0.008982,-8.241837*69 
6.99634         IM300_RAW_NMEA       iM300           $CPRCM,172227.790,0,95.766772,-1.075071,-1.151556,172227.787*59 
7.09097         IM300_RAW_NMEA       iM300           $CPIMU,172227.989,5.065922,4.089358,0.061035,0.28383,0.274848,-9.007099*6A 
7.09127         IM300_RAW_NMEA       iM300           $CPRCM,172227.992,0,96.920706,-2.404142,-1.877157,172227.989*51 
7.09158         IM300_RAW_NMEA       iM300           $CPNVR,172227.992,-0.784326,-1.568004,0,4.089358,5.065922,0.061035*43 
7.09184         IM300_RAW_NMEA       iM300           $GNVTG,91.57,T,,M,3.408,N,6.312,K,A*10 
7.19143         IM300_RAW_NMEA       iM300           $GNGGA,172226.40,4221.52552,N,07105.16981,W,1,12,0.68,3.4,M,-33.2,M,,*77 
7.19211         IM300_RAW_NMEA       iM300           $GNVTG,90.34,T,,M,3.452,N,6.394,K,A*15 
7.19242         IM300_RAW_NMEA       iM300           $GNRMC,172226.40,A,4221.52552,N,07105.16981,W,3.452,90.34,110723,,,A*58 
7.19638         IM300_RAW_NMEA       iM300           $CPNVG,172228.081,4221.52551,N,7105.17032,W,1,0,0,333.42547,nan,nan,172228.037*43 
7.29220         IM300_RAW_NMEA       iM300           $CPRCM,172228.195,0,96.286977,-2.615684,-0.049642,172228.192*5B 
7.29253         IM300_RAW_NMEA       iM300           $CPNVR,172228.195,1.23137,-1.279615,0,-1.892091,7.995611,0.427246*71 
7.39312         IM300_RAW_NMEA       iM300           $GNGGA,172226.60,4221.52551,N,07105.16955,W,1,12,0.68,3.4,M,-33.2,M,,*7F 
7.39387         IM300_RAW_NMEA       iM300           $GNVTG,90.39,T,,M,3.516,N,6.512,K,A*11 
7.39418         IM300_RAW_NMEA       iM300           $GNRMC,172226.60,A,4221.52551,N,07105.16955,W,3.516,90.39,110723,,,A*5C 
7.39807         IM300_RAW_NMEA       iM300           $CPRBS,172228.291,13.577821,13.577821,13.577821,0*76 
7.39871         IM300_RAW_NMEA       iM300           $CPIMU,172228.192,7.995611,-1.892091,0.427246,0.411373,0.068263,-8.407105*7C 
7.49416         IM300_RAW_NMEA       iM300           $CPNVG,172228.331,4221.52551,N,7105.16955,W,1,0,0,41.03449,nan,nan,172228.292*73 
7.59432         IM300_RAW_NMEA       iM300           $GNGSA,A,3,05,06,09,11,12,19,20,25,29,13,,,1.12,0.68,0.90*14 
7.59466         IM300_RAW_NMEA       iM300           $GNGGA,172226.80,4221.52551,N,07105.16928,W,1,12,0.68,3.4,M,-33.2,M,,*7B 
7.59531         IM300_RAW_NMEA       iM300           $GNVTG,90.77,T,,M,3.587,N,6.643,K,A*14 
7.59562         IM300_RAW_NMEA       iM300           $GNRMC,172226.80,A,4221.52551,N,07105.16928,W,3.587,90.77,110723,,,A*5A 
7.59954         IM300_RAW_NMEA       iM300           $CPIMU,172228.443,1.953126,0.366211,0.976563,0.136526,-0.264069,-8.662193*76 
7.59985         IM300_RAW_NMEA       iM300           $CPNVR,172228.445,1.187492,-1.364394,0,0.366211,1.953126,0.976563*6D 
7.69443         IM300_RAW_NMEA       iM300           $CPNVG,172228.580,4221.52551,N,7105.16928,W,1,0,0,19.262094,nan,nan,172228.542*43 
7.79553         IM300_RAW_NMEA       iM300           $GNGSA,A,3,05,06,09,11,12,19,20,25,29,13,,,1.12,0.68,0.90*14 
7.79587         IM300_RAW_NMEA       iM300           $GNGGA,172227.00,4221.52551,N,07105.16901,W,1,12,0.68,3.4,M,-33.2,M,,*79 
7.79653         IM300_RAW_NMEA       iM300           $GNVTG,91.20,T,,M,3.584,N,6.638,K,A*18 
7.79684         IM300_RAW_NMEA       iM300           $GNRMC,172227.00,A,4221.52551,N,07105.16901,W,3.584,91.20,110723,,,A*58 
7.80083         IM300_RAW_NMEA       iM300           $CPIMU,172228.645,-5.126957,11.169442,-0.061035,0.118562,-0.118562,-9.339432*48 
7.80115         IM300_RAW_NMEA       iM300           $CPRCM,172228.649,0,101.963865,-1.410744,0.398637,172228.645*44 
7.80146         IM300_RAW_NMEA       iM300           $CPNVR,172228.648,0.60875,-1.742011,0,11.169442,-5.126957,-0.061035*64 
7.99598         IM300_RAW_NMEA       iM300           $GNVTG,91.05,T,,M,3.401,N,6.298,K,A*1D 
7.99619         IM300_RAW_NMEA       iM300           $GNRMC,172227.20,A,4221.52550,N,07105.16876,W,3.401,91.05,110723,,,A*51 
7.99861         IM300_RAW_NMEA       iM300           $CPIMU,172228.846,-5.065922,-1.037598,-0.671387,0.725742,0.176046,-8.760994*7A 
7.99881         IM300_RAW_NMEA       iM300           $CPRCM,172228.849,0,103.217349,-6.346611,-1.607669,172228.846*6E 
7.99899         IM300_RAW_NMEA       iM300           $CPNVR,172228.848,-0.172716,-1.835661,0,-1.037598,-5.065922,-0.671387*68 
7.99918         IM300_RAW_NMEA       iM300           $CPNVG,172228.831,4221.52551,N,7105.16901,W,1,0,0,354.624908,nan,nan,172228.793*71 
8.19651         IM300_RAW_NMEA       iM300           $CPIMU,172229.049,-0.854493,-10.070808,-2.502443,0.353889,0.156286,-7.868188*45 
8.19672         IM300_RAW_NMEA       iM300           $CPNVR,172229.052,0.098254,-1.746865,0,-10.070808,-0.854493,-2.502443*75 
8.19691         IM300_RAW_NMEA       iM300           $CPNVG,172229.030,4221.52551,N,7105.16901,W,1,0,0,3.219275,nan,nan,172228.997*79 
8.29715         IM300_RAW_NMEA       iM300           $GNGSA,A,3,05,06,09,11,12,19,20,25,29,13,,,1.12,0.68,0.90*14 
8.29752         IM300_RAW_NMEA       iM300           $GNGGA,172227.40,4221.52550,N,07105.16850,W,1,12,0.68,3.4,M,-33.2,M,,*79 
8.29811         IM300_RAW_NMEA       iM300           $GNVTG,91.31,T,,M,3.449,N,6.388,K,A*16 
8.29830         IM300_RAW_NMEA       iM300           $GNRMC,172227.40,A,4221.52550,N,07105.16850,W,3.449,91.31,110723,,,A*58 
8.39734         IM300_RAW_NMEA       iM300           $GNGGA,172227.60,4221.52550,N,07105.16825,W,1,12,0.68,3.4,M,-33.2,M,,*79 
8.39778         IM300_RAW_NMEA       iM300           $GNVTG,91.41,T,,M,3.420,N,6.333,K,A*1E 
8.39796         IM300_RAW_NMEA       iM300           $GNRMC,172227.60,A,4221.52550,N,07105.16825,W,3.420,91.41,110723,,,A*50 
8.39905         IM300_RAW_NMEA       iM300           $CPNVG,172229.280,4221.5255,N,7105.1685,W,1,0,0,348.322373,nan,nan,172229.249*7F 
8.39912         IM300_RAW_NMEA       iM300           $CPALT,172229.268,1*64 
8.39914         IM300_RAW_NMEA       iM300           $CPIMU,172229.249,4.028323,0.854493,-2.868654,-0.028742,-0.088023,-8.91728*4D 
8.39916         IM300_RAW_NMEA       iM300           $CPNVR,172229.252,-0.359131,-1.737594,0,0.854493,4.028323,-2.868654*6E 
8.59808         IM300_RAW_NMEA       iM300           $GNGGA,172227.80,4221.52549,N,07105.16799,W,1,12,0.68,3.4,M,-33.2,M,,*77 
8.59851         IM300_RAW_NMEA       iM300           $GNVTG,91.49,T,,M,3.366,N,6.235,K,A*14 
8.59869         IM300_RAW_NMEA       iM300           $GNRMC,172227.80,A,4221.52549,N,07105.16799,W,3.366,91.49,110723,,,A*53 
8.59961         IM300_RAW_NMEA       iM300           $CPNVG,172229.481,4221.5255,N,7105.16825,W,1,0,0,342.592795,nan,nan,172229.450*4F 
8.59968         IM300_RAW_NMEA       iM300           $CPIMU,172229.450,1.708986,8.911139,1.159669,-0.059281,-0.098801,-9.35021*64 
8.59970         IM300_RAW_NMEA       iM300           $CPNVR,172229.453,-0.526343,-1.678824,0,8.911139,1.708986,1.159669*4F 
8.79923         IM300_RAW_NMEA       iM300           $GNGSA,A,3,05,06,09,11,12,19,20,25,29,13,,,1.12,0.68,0.89*1C 
8.79943         IM300_RAW_NMEA       iM300           $GNGGA,172228.00,4221.52549,N,07105.16776,W,1,12,0.68,3.4,M,-33.2,M,,*71 
8.80007         IM300_RAW_NMEA       iM300           $GNVTG,90.87,T,,M,3.217,N,5.958,K,A*13 
8.80036         IM300_RAW_NMEA       iM300           $GNRMC,172228.00,A,4221.52549,N,07105.16776,W,3.217,90.87,110723,,,A*51 
8.80191         IM300_RAW_NMEA       iM300           $CPIMU,172229.653,-4.028323,-2.624514,4.69971,0.362871,-0.008982,-8.967579*4E 
8.80193         IM300_RAW_NMEA       iM300           $CPNVR,172229.656,-0.64842,-1.605633,0,-2.624514,-4.028323,4.69971*4F 
8.89882         IM300_RAW_NMEA       iM300           $CPNVG,172229.731,4221.52549,N,7105.16776,W,1,0,0,13.532516,nan,nan,172229.704*40 
9.00116         IM300_RAW_NMEA       iM300           $GNGGA,172228.20,4221.52549,N,07105.16752,W,1,12,0.68,3.4,M,-33.2,M,,*75 
9.00205         IM300_RAW_NMEA       iM300           $GNVTG,90.57,T,,M,3.165,N,5.861,K,A*13 
9.00208         IM300_RAW_NMEA       iM300           $GNRMC,172228.20,A,4221.52549,N,07105.16752,W,3.165,90.57,110723,,,A*5E 
9.00235         IM300_RAW_NMEA       iM300           $CPIMU,172229.856,-2.990725,-11.840829,5.798344,-0.01976,0.32335,-8.299322*4F 
9.00237         IM300_RAW_NMEA       iM300           $CPNVR,172229.859,0.387258,-1.609021,0,-11.840829,-2.990725,5.798344*52 
9.10006         IM300_RAW_NMEA       iM300           $CPNVG,172229.980,4221.52549,N,7105.16752,W,1,0,0,30.72125,nan,nan,172229.954*7D 
9.20077         IM300_RAW_NMEA       iM300           $GNRMC,172228.40,A,4221.52549,N,07105.16730,W,3.044,91.01,110723,,,A*5C 
9.30186         IM300_RAW_NMEA       iM300           $CPNVG,172230.181,4221.52549,N,7105.1673,W,1,0,0,5.511107,nan,nan,172230.158*42 
9.30195         IM300_RAW_NMEA       iM300           $CPIMU,172230.107,5.859379,-2.197267,8.056646,-0.088023,0.028742,-8.681953*51 
9.30196         IM300_RAW_NMEA       iM300           $CPRCM,172230.110,0,95.263404,-0.474464,0.987486,172230.107*7C 
9.30198         IM300_RAW_NMEA       iM300           $CPNVR,172230.110,0.150394,-1.55873,0,-2.197267,5.859379,8.056646*7A 
9.30200         IM300_RAW_NMEA       iM300           $GNGGA,172228.40,4221.52549,N,07105.16730,W,1,12,0.68,3.4,M,-33.2,M,,*77 
9.30206         IM300_RAW_NMEA       iM300           $GNVTG,91.01,T,,M,3.044,N,5.638,K,A*11 
9.40280         IM300_RAW_NMEA       iM300           $GNRMC,172228.60,A,4221.52548,N,07105.16707,W,2.970,91.87,110723,,,A*5A 
9.50468         IM300_RAW_NMEA       iM300           $CPIMU,172230.308,-1.52588,0.427246,8.789069,-0.008982,0.206585,-8.908298*6D 
9.50472         IM300_RAW_NMEA       iM300           $CPRCM,172230.311,0,98.001636,0.994719,-2.649504,172230.308*74 
9.50474         IM300_RAW_NMEA       iM300           $CPNVR,172230.311,-1.056818,-1.103455,0,0.427246,-1.52588,8.789069*59 
9.50475         IM300_RAW_NMEA       iM300           $CPRBS,172230.291,13.987026,13.987026,13.987026,0*73 
9.50484         IM300_RAW_NMEA       iM300           $GNGGA,172228.60,4221.52548,N,07105.16707,W,1,12,0.68,3.4,M,-33.2,M,,*70 
9.50529         IM300_RAW_NMEA       iM300           $GNVTG,91.87,T,,M,2.970,N,5.501,K,A*19 
9.60405         IM300_RAW_NMEA       iM300           $GNRMC,172228.80,A,4221.52548,N,07105.16685,W,2.981,92.53,110723,,,A*5B 
9.60439         IM300_RAW_NMEA       iM300           $CPNVG,172230.431,4221.52548,N,7105.16707,W,1,0,0,316.236736,nan,nan,172230.410*77 
9.70437         IM300_RAW_NMEA       iM300           $CPIMU,172230.509,-1.40381,0.305176,9.521491,0.098801,0.461672,-9.055602*46 
9.70440         IM300_RAW_NMEA       iM300           $CPRCM,172230.512,0,97.262009,-1.884557,-2.74595,172230.509*60 
9.70442         IM300_RAW_NMEA       iM300           $CPNVR,172230.511,-1.517023,-0.224597,0,0.305176,-1.40381,9.521491*5E 
9.70444         IM300_RAW_NMEA       iM300           $GNGGA,172228.80,4221.52548,N,07105.16685,W,1,12,0.68,3.3,M,-33.2,M,,*72 
9.70451         IM300_RAW_NMEA       iM300           $GNVTG,92.53,T,,M,2.981,N,5.522,K,A*1C 
9.80518         IM300_RAW_NMEA       iM300           $CPNVG,172230.680,4221.52548,N,7105.16685,W,1,0,0,278.421522,nan,nan,172230.661*7E 
9.90619         IM300_RAW_NMEA       iM300           $CPIMU,172230.711,-3.967288,-5.98145,7.019048,0.186825,0.147304,-8.477164*6B 
9.90623         IM300_RAW_NMEA       iM300           $CPRCM,172230.715,0,101.098076,-1.202012,-1.872128,172230.711*60 
9.90625         IM300_RAW_NMEA       iM300           $CPNVR,172230.714,-0.223229,1.499543,0,-5.98145,-3.967288,7.019048*5C 
9.90627         IM300_RAW_NMEA       iM300           $GNGGA,172229.00,4221.52546,N,07105.16663,W,1,12,0.68,3.4,M,-33.2,M,,*7A 
9.90635         IM300_RAW_NMEA       iM300           $GNVTG,94.10,T,,M,2.947,N,5.458,K,A*1B 
9.90636         IM300_RAW_NMEA       iM300           $GNRMC,172229.00,A,4221.52546,N,07105.16663,W,2.947,94.10,110723,,,A*5F 
10.00632        IM300_RAW_NMEA       iM300           $CPNVG,172230.880,4221.52546,N,7105.16663,W,1,0,0,188.467148,nan,nan,172230.863*7C 
10.10717        IM300_RAW_NMEA       iM300           $CPIMU,172230.913,-4.69971,0.061035,8.789069,-0.088023,0.461672,-8.191538*69 
10.10720        IM300_RAW_NMEA       iM300           $CPRCM,172230.916,0,98.549217,0.377711,-3.450453,172230.913*70 
10.10721        IM300_RAW_NMEA       iM300           $CPNVR,172230.915,1.552751,-0.033271,0,0.061035,-4.69971,8.789069*7D 
10.10723        IM300_RAW_NMEA       iM300           $GNGGA,172229.20,4221.52544,N,07105.16641,W,1,12,0.68,3.4,M,-33.2,M,,*7A 
10.10729        IM300_RAW_NMEA       iM300           $GNVTG,95.84,T,,M,3.019,N,5.592,K,A*13 
10.10731        IM300_RAW_NMEA       iM300           $GNRMC,172229.20,A,4221.52544,N,07105.16641,W,3.019,95.84,110723,,,A*50 
10.20721        IM300_RAW_NMEA       iM300           $CPNVG,172231.081,4221.52544,N,7105.16641,W,1,0,0,88.772491,nan,nan,172231.065*4E 
10.30814        IM300_RAW_NMEA       iM300           $CPIMU,172231.117,-2.380373,1.098634,7.812506,0.136526,0.774244,-9.016081*77 
10.30816        IM300_RAW_NMEA       iM300           $CPRCM,172231.120,0,102.207981,-0.885223,-4.915477,172231.117*68 
10.30818        IM300_RAW_NMEA       iM300           $CPNVR,172231.120,-0.064795,-1.593976,0,1.098634,-2.380373,7.812506*60 
10.30819        IM300_RAW_NMEA       iM300           $GNGGA,172229.40,4221.52541,N,07105.16618,W,1,12,0.68,3.3,M,-33.2,M,,*72 
10.30826        IM300_RAW_NMEA       iM300           $GNVTG,97.43,T,,M,3.101,N,5.743,K,A*1C 
10.30828        IM300_RAW_NMEA       iM300           $GNRMC,172229.40,A,4221.52541,N,07105.16618,W,3.101,97.43,110723,,,A*5E 
10.40913        IM300_RAW_NMEA       iM300           $CPNVG,172231.281,4221.52541,N,7105.16618,W,1,0,0,357.672202,nan,nan,172231.268*76 
10.51002        IM300_RAW_NMEA       iM300           $CPIMU,172231.318,2.014162,4.638675,5.493168,0.362871,0.501193,-8.642432*53 
10.51004        IM300_RAW_NMEA       iM300           $CPRCM,172231.321,0,104.071306,-3.34886,-4.061331,172231.318*5D 
10.51006        IM300_RAW_NMEA       iM300           $CPNVR,172231.320,-1.323482,0.985044,0,4.638675,2.014162,5.493168*6F 
10.51008        IM300_RAW_NMEA       iM300           $GNGGA,172229.60,4221.52537,N,07105.16594,W,1,12,0.68,3.4,M,-33.2,M,,*71 
10.51014        IM300_RAW_NMEA       iM300           $GNVTG,99.60,T,,M,3.207,N,5.939,K,A*15 
10.51016        IM300_RAW_NMEA       iM300           $GNRMC,172229.60,A,4221.52537,N,07105.16594,W,3.207,99.60,110723,,,A*50 
10.61007        IM300_RAW_NMEA       iM300           $GNRMC,172229.80,A,4221.52533,N,07105.16570,W,3.330,100.75,110723,,,A*60 
10.71119        IM300_RAW_NMEA       iM300           $CPNVG,172231.530,4221.52533,N,7105.1657,W,1,0,0,167.450214,nan,nan,172231.519*46 
10.71127        IM300_RAW_NMEA       iM300           $CPIMU,172231.519,5.98145,6.408696,4.272464,0.195807,0.481433,-9.163385*6E 
10.71129        IM300_RAW_NMEA       iM300           $CPNVR,172231.522,0.372236,1.67217,0,6.408696,5.98145,4.272464*43 
10.71131        IM300_RAW_NMEA       iM300           $GNGGA,172229.80,4221.52533,N,07105.16570,W,1,12,0.68,3.4,M,-33.2,M,,*71 
10.71137        IM300_RAW_NMEA       iM300           $GNVTG,100.75,T,,M,3.330,N,6.167,K,A*25 
10.71137        IM300_RAW_NMEA       iM300           $GNVTG,100.75,T,,M,3.330,N,6.167,K,A*25 
10.81206        IM300_RAW_NMEA       iM300           $GNRMC,172230.00,A,4221.52528,N,07105.16545,W,3.456,102.63,110723,,,A*6E 
10.91317        IM300_RAW_NMEA       iM300           $CPNVG,172231.781,4221.52528,N,7105.16545,W,1,0,0,59.734149,nan,nan,172231.770*49 
10.91326        IM300_RAW_NMEA       iM300           $CPIMU,172231.721,0.976563,-0,3.540042,0.558677,-0.136526,-8.32986*4A 
10.91328        IM300_RAW_NMEA       iM300           $CPNVR,172231.723,1.535583,-0.896095,0,-0,0.976563,3.540042*62 
10.91330        IM300_RAW_NMEA       iM300           $GNGSA,A,3,05,06,09,11,12,19,20,25,29,13,,,1.12,0.68,0.89*1C 
10.91331        IM300_RAW_NMEA       iM300           $GNGGA,172230.00,4221.52528,N,07105.16545,W,1,12,0.68,3.4,M,-33.2,M,,*7D 
10.91337        IM300_RAW_NMEA       iM300           $GNVTG,102.63,T,,M,3.456,N,6.401,K,A*22 
11.01406        IM300_RAW_NMEA       iM300           $GNRMC,172230.20,A,4221.52523,N,07105.16519,W,3.560,102.82,110723,,,A*65 
11.11512        IM300_RAW_NMEA       iM300           $CPIMU,172231.922,3.05176,-6.774907,2.92969,0.30359,0.235327,-8.123276*4D 
11.11515        IM300_RAW_NMEA       iM300           $CPRCM,172231.926,0,112.9822,-1.665872,-1.190043,172231.922*61 
11.11529        IM300_RAW_NMEA       iM300           $CPNVR,172231.925,1.378998,-1.205185,0,-6.774907,3.05176,2.92969*45 
11.11531        IM300_RAW_NMEA       iM300           $GNVTG,102.82,T,,M,3.560,N,6.593,K,A*23 
11.21608        IM300_RAW_NMEA       iM300           $GNRMC,172230.40,A,4221.52518,N,07105.16492,W,3.685,103.28,110723,,,A*60 
11.21642        IM300_RAW_NMEA       iM300           $CPNVG,172231.981,4221.52528,N,7105.16545,W,1,0,0,48.84795,nan,nan,172231.973*71 
11.31631        IM300_RAW_NMEA       iM300           $CPNVG,172232.180,4221.52518,N,7105.16492,W,1,0,0,22.491892,nan,nan,172232.175*4A 
11.31842        IM300_RAW_NMEA       iM300           $CPIMU,172232.125,2.014162,5.859379,3.479006,0.008982,0.294608,-8.3101*5C 
11.31845        IM300_RAW_NMEA       iM300           $CPNVR,172232.128,0.725216,-1.751527,0,5.859379,2.014162,3.479006*62 
11.31846        IM300_RAW_NMEA       iM300           $GNGGA,172230.40,4221.52518,N,07105.16492,W,1,12,0.68,3.4,M,-33.2,M,,*71 
11.31869        IM300_RAW_NMEA       iM300           $GNVTG,103.28,T,,M,3.685,N,6.825,K,A*2A 
11.41675        IM300_RAW_NMEA       iM300           $GNGSA,A,3,05,06,09,11,12,19,20,25,29,13,,,1.12,0.68,0.89*1C 
11.41679        IM300_RAW_NMEA       iM300           $GNGGA,172230.60,4221.52513,N,07105.16466,W,1,12,0.68,3.4,M,-33.2,M,,*73 
11.41686        IM300_RAW_NMEA       iM300           $GNVTG,104.53,T,,M,3.700,N,6.852,K,A*2D 
11.41688        IM300_RAW_NMEA       iM300           $GNRMC,172230.60,A,4221.52513,N,07105.16466,W,3.700,104.53,110723,,,A*65 
11.41709        IM300_RAW_NMEA       iM300           $CPRBS,172232.291,13.558851,13.558851,13.558851,0*77 
11.41715        IM300_RAW_NMEA       iM300           $CPALT,172232.267,1*61 
11.51706        IM300_RAW_NMEA       iM300           $CPIMU,172232.325,-5.554203,11.657723,-0.854493,0.235327,0.118562,-9.6538*61 
11.51709        IM300_RAW_NMEA       iM300           $CPRCM,172232.329,0,117.070266,-2.165511,-1.168372,172232.325*62 
11.51711        IM300_RAW_NMEA       iM300           $CPNVR,172232.328,-1.43933,-1.245564,0,11.657723,-5.554203,-0.854493*44 
11.61776        IM300_RAW_NMEA       iM300           $GNRMC,172230.80,A,4221.52507,N,07105.16440,W,3.637,105.47,110723,,,A*6B 
11.61799        IM300_RAW_NMEA       iM300           $CPNVG,172232.431,4221.52513,N,7105.16466,W,1,0,0,310.872167,nan,nan,172232.376*74 
11.71876        IM300_RAW_NMEA       iM300           $CPIMU,172232.528,-2.319338,1.281739,-3.356936,0.411373,0.028742,-8.91728*69 
11.71879        IM300_RAW_NMEA       iM300           $CPNVR,172232.533,-1.823184,0.420441,0,1.281739,-2.319338,-3.356936*61 
11.71881        IM300_RAW_NMEA       iM300           $GNGGA,172230.80,4221.52507,N,07105.16440,W,1,12,0.68,3.3,M,-33.2,M,,*7B 
11.71887        IM300_RAW_NMEA       iM300           $GNVTG,105.47,T,,M,3.637,N,6.736,K,A*21 
11.81961        IM300_RAW_NMEA       iM300           $GNRMC,172231.00,A,4221.52502,N,07105.16414,W,3.543,105.45,110723,,,A*64 
11.81985        IM300_RAW_NMEA       iM300           $CPNVG,172232.630,4221.52507,N,7105.1644,W,1,0,0,257.014135,nan,nan,172232.579*42 
11.81985        IM300_RAW_NMEA       iM300           $CPNVG,172232.630,4221.52507,N,7105.1644,W,1,0,0,257.014135,nan,nan,172232.579*42 
11.92262        IM300_RAW_NMEA       iM300           $CPNVR,172232.783,-1.783898,0.373974,0,-5.676274,7.75147,-2.502443*58 
11.92264        IM300_RAW_NMEA       iM300           $GNGGA,172231.00,4221.52502,N,07105.16414,W,1,12,0.68,3.3,M,-33.2,M,,*76 
11.92271        IM300_RAW_NMEA       iM300           $GNVTG,105.45,T,,M,3.543,N,6.562,K,A*20 
12.02337        IM300_RAW_NMEA       iM300           $CPNVG,172232.881,4221.52502,N,7105.16414,W,1,0,0,258.16005,nan,nan,172232.830*4D 
12.02346        IM300_RAW_NMEA       iM300           $CPIMU,172232.780,7.75147,-5.676274,-2.502443,0.264069,0.28383,-8.398123*50 
12.02348        IM300_RAW_NMEA       iM300           $CPRCM,172232.784,0,116.197645,-1.398546,-1.425143,172232.780*6B 
12.12422        IM300_RAW_NMEA       iM300           $CPNVR,172232.987,-0.994976,1.504993,0,-0.549317,0.610352,-1.098634*69 
12.12425        IM300_RAW_NMEA       iM300           $GNGGA,172231.20,4221.52496,N,07105.16389,W,1,12,0.68,3.3,M,-33.2,M,,*7B 
12.12434        IM300_RAW_NMEA       iM300           $GNVTG,106.23,T,,M,3.507,N,6.495,K,A*2A 
12.12435        IM300_RAW_NMEA       iM300           $GNRMC,172231.20,A,4221.52496,N,07105.16389,W,3.507,106.23,110723,,,A*6A 
12.22540        IM300_RAW_NMEA       iM300           $GNTXT,01,01,00,txbuf alloc*61 
12.22543        IM300_RAW_NMEA       iM300           $GNGGA,172231.40,4221.52490,N,07105.16365,W,1,12,0.68,3.3,M,-33.2,M,,*79 
12.22550        IM300_RAW_NMEA       iM300           $GNVTG,107.09,T,,M,3.428,N,6.349,K,A*29 
12.22552        IM300_RAW_NMEA       iM300           $GNRMC,172231.40,A,4221.52490,N,07105.16365,W,3.428,107.09,110723,,,A*6D 
12.22574        IM300_RAW_NMEA       iM300           $CPIMU,172232.984,0.610352,-0.549317,-1.098634,0.059281,-0.32335,-8.712492*4D 
12.32612        IM300_RAW_NMEA       iM300           $CPNVG,172233.131,4221.5249,N,7105.16365,W,1,0,0,164.194972,nan,nan,172233.087*4E 
12.42697        IM300_RAW_NMEA       iM300           $GNVTG,107.17,T,,M,3.317,N,6.143,K,A*25 
12.42700        IM300_RAW_NMEA       iM300           $GNRMC,172231.60,A,4221.52485,N,07105.16342,W,3.317,107.17,110723,,,A*6A 
12.42724        IM300_RAW_NMEA       iM300           $CPIMU,172233.232,-1.098634,0.671387,2.197267,0.362871,-0.059281,-9.222666*58 
12.42726        IM300_RAW_NMEA       iM300           $CPNVR,172233.235,0.480319,1.696844,0,0.671387,-1.098634,2.197267*6E 
12.52793        IM300_RAW_NMEA       iM300           $CPNVG,172233.381,4221.5249,N,7105.16365,W,1,0,0,159.61131,nan,nan,172233.335*77 
12.62874        IM300_RAW_NMEA       iM300           $GNGSA,A,3,05,06,09,11,12,19,20,25,29,13,,,1.12,0.68,0.89*1C 
12.62877        IM300_RAW_NMEA       iM300           $GNGGA,172231.80,4221.52480,N,07105.16319,W,1,12,0.68,3.3,M,-33.2,M,,*7F 
12.62883        IM300_RAW_NMEA       iM300           $GNVTG,106.87,T,,M,3.263,N,6.043,K,A*2E 
12.62885        IM300_RAW_NMEA       iM300           $GNRMC,172231.80,A,4221.52480,N,07105.16319,W,3.263,106.87,110723,,,A*65 
12.62907        IM300_RAW_NMEA       iM300           $CPIMU,172233.435,-5.187992,-6.10352,3.601077,0.501193,-0.314368,-8.752012*45 
12.62908        IM300_RAW_NMEA       iM300           $CPNVR,172233.438,0.594492,1.599507,0,-6.10352,-5.187992,3.601077*73 
12.72969        IM300_RAW_NMEA       iM300           $CPNVG,172233.631,4221.5248,N,7105.16319,W,1,0,0,176.800043,nan,nan,172233.587*4A 
12.83020        IM300_RAW_NMEA       iM300           $CPIMU,172233.639,-10.986336,-3.295901,1.464845,0.195807,0.28383,-8.259801*53 
12.83022        IM300_RAW_NMEA       iM300           $CPRCM,172233.641,0,111.366023,-1.1899,-3.211276,172233.639*67 
12.83024        IM300_RAW_NMEA       iM300           $CPNVR,172233.641,0.093703,1.676015,0,-3.295901,-10.986336,1.464845*77 
12.93091        IM300_RAW_NMEA       iM300           $CPNVG,172233.830,4221.5248,N,7105.16319,W,1,0,0,244.982021,nan,nan,172233.789*44 
12.93100        IM300_RAW_NMEA       iM300           $GNVTG,105.68,T,,M,3.301,N,6.113,K,A*2D 
12.93102        IM300_RAW_NMEA       iM300           $GNRMC,172232.00,A,4221.52475,N,07105.16295,W,3.301,105.68,110723,,,A*66 
13.03188        IM300_RAW_NMEA       iM300           $CPNVR,172233.894,-1.538849,0.718165,0,5.004886,12.268075,0.12207*61 
13.13259        IM300_RAW_NMEA       iM300           $CPNVG,172234.031,4221.5248,N,7105.16319,W,1,0,0,244.982021,nan,nan,172233.992*4E 
13.13270        IM300_RAW_NMEA       iM300           $CPIMU,172233.891,12.268075,5.004886,0.12207,0.28383,0.666461,-8.681953*68 
13.23334        IM300_RAW_NMEA       iM300           $GNRMC,172232.40,A,4221.52465,N,07105.16248,W,3.297,105.81,110723,,,A*6A 
13.33413        IM300_RAW_NMEA       iM300           $CPIMU,172234.141,0.061035,-2.92969,1.037598,0.373649,-0.353889,-8.681953*6F 
13.33417        IM300_RAW_NMEA       iM300           $CPRCM,172234.144,0,114.981556,-1.322239,2.797479,172234.141*40 
13.33418        IM300_RAW_NMEA       iM300           $CPNVR,172234.144,-1.43103,0.910488,0,-2.92969,0.061035,1.037598*42 
13.33420        IM300_RAW_NMEA       iM300           $GNGGA,172232.40,4221.52465,N,07105.16248,W,1,12,0.68,3.3,M,-33.2,M,,*7E 
13.33427        IM300_RAW_NMEA       iM300           $GNVTG,105.81,T,,M,3.297,N,6.106,K,A*20 
13.43497        IM300_RAW_NMEA       iM300           $GNGGA,172232.60,4221.52459,N,07105.16224,W,1,12,0.68,3.3,M,-33.2,M,,*79 
13.43505        IM300_RAW_NMEA       iM300           $CPRBS,172234.291,13.561562,13.561562,13.561562,0*76 
13.43514        IM300_RAW_NMEA       iM300           $GNVTG,106.39,T,,M,3.378,N,6.256,K,A*26 
13.43516        IM300_RAW_NMEA       iM300           $GNRMC,172232.60,A,4221.52459,N,07105.16224,W,3.378,106.39,110723,,,A*6D 
13.43537        IM300_RAW_NMEA       iM300           $CPNVG,172234.281,4221.52465,N,7105.16248,W,1,0,0,237.53357,nan,nan,172234.242*4B 
13.53536        IM300_RAW_NMEA       iM300           $CPIMU,172234.344,4.45557,5.310062,0.305176,0.039521,0.156286,-9.114883*64 
13.53539        IM300_RAW_NMEA       iM300           $CPRCM,172234.347,0,114.48392,-0.408973,-0.645248,172234.344*5A 
13.53541        IM300_RAW_NMEA       iM300           $CPNVR,172234.346,-0.715183,1.583805,0,5.310062,4.45557,0.305176*54 
13.63629        IM300_RAW_NMEA       iM300           $GPGSV,3,1,12,05,60,248,50,06,27,093,46,07,00,079,,09,16,041,44*79 
13.63632        IM300_RAW_NMEA       iM300           $GNGSA,A,3,66,82,81,67,68,83,,,,,,,1.12,0.68,0.89*16 
13.63634        IM300_RAW_NMEA       iM300           $GNGSA,A,3,05,06,09,11,12,19,20,25,29,13,,,1.12,0.68,0.89*1C 
13.63636        IM300_RAW_NMEA       iM300           $GNGGA,172232.80,4221.52454,N,07105.16200,W,1,12,0.68,3.3,M,-33.2,M,,*7C 
13.63642        IM300_RAW_NMEA       iM300           $GNVTG,106.58,T,,M,3.368,N,6.238,K,A*28 
13.63644        IM300_RAW_NMEA       iM300           $GNRMC,172232.80,A,4221.52454,N,07105.16200,W,3.368,106.58,110723,,,A*6E 
13.63666        IM300_RAW_NMEA       iM300           $CPNVG,172234.482,4221.52459,N,7105.16224,W,1,0,0,204.302018,nan,nan,172234.446*76 
13.73644        IM300_RAW_NMEA       iM300           $CPIMU,172234.544,2.807619,4.272464,-0.366211,0.470654,-0.334129,-9.025063*5F 
13.73648        IM300_RAW_NMEA       iM300           $CPRCM,172234.548,0,118.658464,-3.188889,4.389217,172234.544*4C 
13.73649        IM300_RAW_NMEA       iM300           $CPNVR,172234.547,-0.402003,1.685368,0,4.272464,2.807619,-0.366211*47 
13.83723        IM300_RAW_NMEA       iM300           $GNGSA,A,3,05,06,09,11,12,19,20,25,29,13,,,1.12,0.68,0.89*1C 
13.83726        IM300_RAW_NMEA       iM300           $GNGGA,172233.00,4221.52448,N,07105.16177,W,1,12,0.68,3.4,M,-33.2,M,,*7C 
13.83733        IM300_RAW_NMEA       iM300           $GNVTG,106.21,T,,M,3.280,N,6.075,K,A*2A 
13.83735        IM300_RAW_NMEA       iM300           $GNRMC,172233.00,A,4221.52448,N,07105.16177,W,3.280,106.21,110723,,,A*60 
13.83756        IM300_RAW_NMEA       iM300           $CPNVG,172234.681,4221.52454,N,7105.162,W,1,0,0,193.415819,nan,nan,172234.645*78 
13.93728        IM300_RAW_NMEA       iM300           $CPIMU,172234.746,-12.390146,-9.338386,-1.953126,0.794004,-0.059281,-7.96699*53 
13.93732        IM300_RAW_NMEA       iM300           $CPRCM,172234.749,0,116.057024,-4.707065,0.015435,172234.746*40 
13.93735        IM300_RAW_NMEA       iM300           $CPNVR,172234.749,-0.958537,1.388687,0,-9.338386,-12.390146,-1.953126*7D 
14.03805        IM300_RAW_NMEA       iM300           $CPNVG,172234.931,4221.52443,N,7105.16153,W,1,0,0,236.387654,nan,nan,172234.899*77 
14.03814        IM300_RAW_NMEA       iM300           $GNGGA,172233.20,4221.52443,N,07105.16153,W,1,12,0.68,3.4,M,-33.2,M,,*73 
14.03820        IM300_RAW_NMEA       iM300           $GNVTG,105.83,T,,M,3.351,N,6.206,K,A*2A 
14.03822        IM300_RAW_NMEA       iM300           $GNRMC,172233.20,A,4221.52443,N,07105.16153,W,3.351,105.83,110723,,,A*69 
14.13915        IM300_RAW_NMEA       iM300           $CPIMU,172234.949,2.502443,-5.310062,-6.286626,-0.028742,0.628736,-8.241837*7E 
14.13918        IM300_RAW_NMEA       iM300           $CPRCM,172234.952,0,114.37653,1.366797,-4.762255,172234.949*78 
14.13920        IM300_RAW_NMEA       iM300           $CPNVR,172234.952,-1.43567,0.954303,0,-5.310062,2.502443,-6.286626*50 
14.23993        IM300_RAW_NMEA       iM300           $CPNVG,172235.132,4221.52438,N,7105.16128,W,1,0,0,192.842862,nan,nan,172235.102*73 
14.24004        IM300_RAW_NMEA       iM300           $GNGGA,172233.40,4221.52438,N,07105.16128,W,1,12,0.68,3.3,M,-33.2,M,,*72 
14.24010        IM300_RAW_NMEA       iM300           $GNVTG,106.59,T,,M,3.465,N,6.417,K,A*28 
14.24012        IM300_RAW_NMEA       iM300           $GNRMC,172233.40,A,4221.52438,N,07105.16128,W,3.465,106.59,110723,,,A*6B 
14.34001        IM300_RAW_NMEA       iM300           $CPIMU,172235.152,13.916026,12.878427,-6.10352,-0.068263,-0.362871,-9.585537*48 
14.34004        IM300_RAW_NMEA       iM300           $CPNVR,172235.154,-0.396222,1.737957,0,12.878427,13.916026,-6.10352*7C 
14.44074        IM300_RAW_NMEA       iM300           $GNGGA,172233.60,4221.52432,N,07105.16105,W,1,12,0.68,3.3,M,-33.2,M,,*75 
14.44081        IM300_RAW_NMEA       iM300           $GNVTG,107.36,T,,M,3.344,N,6.194,K,A*2A 
14.44083        IM300_RAW_NMEA       iM300           $GNRMC,172233.60,A,4221.52432,N,07105.16105,W,3.344,107.36,110723,,,A*60 
14.44104        IM300_RAW_NMEA       iM300           $CPALT,172235.267,1*66 
14.54173        IM300_RAW_NMEA       iM300           $CPIMU,172235.354,-5.676274,4.516605,-8.300787,0.314368,-0.637718,-9.457993*7C 
14.54175        IM300_RAW_NMEA       iM300           $CPRCM,172235.357,0,116.643668,-1.200217,1.76143,172235.354*71 
14.54177        IM300_RAW_NMEA       iM300           $CPNVR,172235.357,0.893086,1.470319,0,4.516605,-5.676274,-8.300787*44 
14.54179        IM300_RAW_NMEA       iM300           $CPNVG,172235.331,4221.52432,N,7105.16105,W,1,0,0,148.725111,nan,nan,172235.303*70 
14.64249        IM300_RAW_NMEA       iM300           $GNRMC,172233.80,A,4221.52427,N,07105.16082,W,3.157,106.19,110723,,,A*68 
14.74345        IM300_RAW_NMEA       iM300           $CPNVG,172235.580,4221.52427,N,7105.16082,W,1,0,0,215.761174,nan,nan,172235.555*7B 
14.74368        IM300_RAW_NMEA       iM300           $CPIMU,172235.555,-7.995611,-18.554701,-13.061533,0.431134,-0.01976,-7.720884*68 
14.74370        IM300_RAW_NMEA       iM300           $CPRCM,172235.558,0,113.061685,-1.751234,-0.723322,172235.555*61 
14.74372        IM300_RAW_NMEA       iM300           $CPNVR,172235.558,-0.949138,1.317893,0,-18.554701,-7.995611,-13.061533*4A 
14.74373        IM300_RAW_NMEA       iM300           $GNGGA,172233.80,4221.52427,N,07105.16082,W,1,12,0.68,3.4,M,-33.2,M,,*76 
14.74379        IM300_RAW_NMEA       iM300           $GNVTG,106.19,T,,M,3.157,N,5.846,K,A*23 
14.84348        IM300_RAW_NMEA       iM300           $GNRMC,172234.00,A,4221.52423,N,07105.16059,W,3.155,104.92,110723,,,A*66 
14.94452        IM300_RAW_NMEA       iM300           $CPNVG,172235.780,4221.52423,N,7105.16059,W,1,0,0,288.526813,nan,nan,172235.756*77 
14.94462        IM300_RAW_NMEA       iM300           $CPIMU,172235.756,-1.586915,-8.850104,-11.474618,-0.461672,-0.195807,-8.182556*4C 
14.94464        IM300_RAW_NMEA       iM300           $CPNVR,172235.759,-1.538957,-0.515729,0,-8.850104,-1.586915,-11.474618*55 
14.94466        IM300_RAW_NMEA       iM300           $GNGGA,172234.00,4221.52423,N,07105.16059,W,1,12,0.68,3.4,M,-33.2,M,,*7B 
14.94472        IM300_RAW_NMEA       iM300           $GNVTG,104.92,T,,M,3.155,N,5.843,K,A*25 
15.04538        IM300_RAW_NMEA       iM300           $GNGGA,172234.20,4221.52419,N,07105.16037,W,1,12,0.68,3.4,M,-33.2,M,,*78 
15.04545        IM300_RAW_NMEA       iM300           $GNVTG,103.68,T,,M,3.126,N,5.790,K,A*22 
15.04547        IM300_RAW_NMEA       iM300           $GNRMC,172234.20,A,4221.52419,N,07105.16037,W,3.126,103.68,110723,,,A*63 
15.14638        IM300_RAW_NMEA       iM300           $CPIMU,172235.958,5.371098,16.723645,-9.15528,-0.28383,-0.079041,-9.407694*49 
15.14641        IM300_RAW_NMEA       iM300           $CPRCM,172235.962,0,99.950284,-0.397924,0.493952,172235.958*75 
15.14643        IM300_RAW_NMEA       iM300           $CPNVR,172235.961,-0.011968,-1.608109,0,16.723645,5.371098,-9.15528*63 
15.24714        IM300_RAW_NMEA       iM300           $GNGGA,172234.40,4221.52417,N,07105.16015,W,1,12,0.68,3.3,M,-33.2,M,,*77 
15.24722        IM300_RAW_NMEA       iM300           $GNVTG,102.07,T,,M,2.965,N,5.492,K,A*25 
15.24724        IM300_RAW_NMEA       iM300           $GNRMC,172234.40,A,4221.52417,N,07105.16015,W,2.965,102.07,110723,,,A*6D 
15.24746        IM300_RAW_NMEA       iM300           $CPNVG,172236.031,4221.52419,N,7105.16037,W,1,0,0,359.57358,nan,nan,172236.008*4D 
15.34820        IM300_RAW_NMEA       iM300           $CPIMU,172236.159,10.437019,2.685549,-9.765632,0.490414,-0.481433,-9.546016*6D 
15.34823        IM300_RAW_NMEA       iM300           $CPRCM,172236.162,0,103.934218,-1.156046,4.083901,172236.159*45 
15.34825        IM300_RAW_NMEA       iM300           $CPNVR,172236.162,1.524558,0.048438,0,2.685549,10.437019,-9.765632*55 
15.44918        IM300_RAW_NMEA       iM300           $GLGSV,3,1,11,66,18,031,40,67,67,060,45,68,50,187,42,69,03,201,35*65 
15.44920        IM300_RAW_NMEA       iM300           $GNGGA,172234.60,4221.52415,N,07105.15994,W,1,12,0.68,3.4,M,-33.2,M,,*73 
15.44927        IM300_RAW_NMEA       iM300           $GNVTG,99.23,T,,M,2.910,N,5.389,K,A*1F 
15.44929        IM300_RAW_NMEA       iM300           $GNRMC,172234.60,A,4221.52415,N,07105.15994,W,2.910,99.23,110723,,,A*59 
15.44950        IM300_RAW_NMEA       iM300           $CPRBS,172236.291,14.126138,14.126138,14.126138,0*7F 
15.44956        IM300_RAW_NMEA       iM300           $CPNVG,172236.280,4221.52417,N,7105.16015,W,1,0,0,91.819785,nan,nan,172236.259*4C 
15.54954        IM300_RAW_NMEA       iM300           $CPIMU,172236.362,1.953126,-16.90675,-10.620125,0.441912,-0.666461,-7.769387*4B 
15.54957        IM300_RAW_NMEA       iM300           $CPRCM,172236.365,0,98.050648,-3.074406,5.113823,172236.362*78 
15.54959        IM300_RAW_NMEA       iM300           $CPNVR,172236.365,-1.442864,0.399063,0,-16.90675,1.953126,-10.620125*56 
15.65030        IM300_RAW_NMEA       iM300           $CPNVG,172236.530,4221.52414,N,7105.15971,W,1,0,0,78.459251,nan,nan,172236.513*41 
15.65039        IM300_RAW_NMEA       iM300           $GNGGA,172234.80,4221.52414,N,07105.15971,W,1,12,0.68,3.4,M,-33.2,M,,*77 
15.65045        IM300_RAW_NMEA       iM300           $GNVTG,96.02,T,,M,3.004,N,5.563,K,A*1C 
15.65047        IM300_RAW_NMEA       iM300           $GNRMC,172234.80,A,4221.52414,N,07105.15971,W,3.004,96.02,110723,,,A*5C 
15.75136        IM300_RAW_NMEA       iM300           $CPIMU,172236.563,-5.432133,4.45557,-10.498054,-0.422152,-0.32335,-8.338842*60 
15.75138        IM300_RAW_NMEA       iM300           $CPRCM,172236.568,0,92.668164,2.185188,2.485247,172236.563*5F 
15.75141        IM300_RAW_NMEA       iM300           $CPNVR,172236.565,1.514147,-0.309178,0,4.45557,-5.432133,-10.498054*6C 
15.85208        IM300_RAW_NMEA       iM300           $GNGGA,172235.00,4221.52414,N,07105.15949,W,1,12,0.68,3.4,M,-33.2,M,,*75 
15.85215        IM300_RAW_NMEA       iM300           $GNVTG,93.53,T,,M,3.005,N,5.566,K,A*19 
15.85217        IM300_RAW_NMEA       iM300           $GNRMC,172235.00,A,4221.52414,N,07105.15949,W,3.005,93.53,110723,,,A*5E 
15.95311        IM300_RAW_NMEA       iM300           $CPNVG,172236.780,4221.52414,N,7105.15949,W,1,0,0,221.125742,nan,nan,172236.764*76 
15.95321        IM300_RAW_NMEA       iM300           $CPIMU,172236.764,-2.197267,14.831554,-12.268075,0.127544,-0.206585,-9.662782*75 
15.95323        IM300_RAW_NMEA       iM300           $CPRCM,172236.768,0,95.082284,-3.407567,0.942341,172236.764*75 
15.95325        IM300_RAW_NMEA       iM300           $CPNVR,172236.768,-1.016763,1.164481,0,14.831554,-2.197267,-12.268075*61 
16.05404        IM300_RAW_NMEA       iM300           $GNGGA,172235.20,4221.52415,N,07105.15927,W,1,12,0.68,3.4,M,-33.2,M,,*7E 
16.05410        IM300_RAW_NMEA       iM300           $GNVTG,90.96,T,,M,2.904,N,5.378,K,A*13 
16.05412        IM300_RAW_NMEA       iM300           $GNRMC,172235.20,A,4221.52415,N,07105.15927,W,2.904,90.96,110723,,,A*56 
16.15510        IM300_RAW_NMEA       iM300           $CPIMU,172236.966,3.17383,-8.666998,-13.916026,0.558677,-0.107783,-8.103515*76 
16.15513        IM300_RAW_NMEA       iM300           $CPRCM,172236.970,0,92.13277,-3.306171,0.919518,172236.966*4C 
16.15515        IM300_RAW_NMEA       iM300           $CPNVR,172236.969,0.217618,-1.478012,0,-8.666998,3.17383,-13.916026*6C 
16.25585        IM300_RAW_NMEA       iM300           $GNGGA,172235.40,4221.52415,N,07105.15905,W,1,12,0.68,3.4,M,-33.2,M,,*78 
16.25593        IM300_RAW_NMEA       iM300           $GNVTG,88.71,T,,M,3.037,N,5.625,K,A*16 
16.25595        IM300_RAW_NMEA       iM300           $GNRMC,172235.40,A,4221.52415,N,07105.15905,W,3.037,88.71,110723,,,A*58 
16.25619        IM300_RAW_NMEA       iM300           $CPNVG,172237.031,4221.52415,N,7105.15927,W,1,0,0,8.375895,nan,nan,172237.017*7A 
16.35694        IM300_RAW_NMEA       iM300           $CPIMU,172237.169,2.502443,-4.638675,-14.770518,-0.206585,-0.501193,-8.29034*54 
16.35697        IM300_RAW_NMEA       iM300           $CPRCM,172237.172,0,88.247941,1.26643,2.97012,172237.169*5D 
16.35699        IM300_RAW_NMEA       iM300           $CPNVR,172237.171,1.059707,1.148048,0,-4.638675,2.502443,-14.770518*7F 
16.45768        IM300_RAW_NMEA       iM300           $GNGGA,172235.60,4221.52417,N,07105.15882,W,1,12,0.68,3.4,M,-33.2,M,,*76 
16.45775        IM300_RAW_NMEA       iM300           $GNVTG,87.07,T,,M,3.036,N,5.623,K,A*1F 
16.45776        IM300_RAW_NMEA       iM300           $GNRMC,172235.60,A,4221.52417,N,07105.15882,W,3.036,87.07,110723,,,A*59 
16.45801        IM300_RAW_NMEA       iM300           $CPNVG,172237.281,4221.52415,N,7105.15905,W,1,0,0,137.291399,nan,nan,172237.269*79 
16.55881        IM300_RAW_NMEA       iM300           $CPIMU,172237.370,2.380373,6.835942,-15.2588,-0.01976,-0.441912,-8.653211*74 
16.55883        IM300_RAW_NMEA       iM300           $CPRCM,172237.373,0,82.970038,-0.48387,2.965457,172237.370*4E 
16.55885        IM300_RAW_NMEA       iM300           $CPNVR,172237.373,-1.218176,0.977463,0,6.835942,2.380373,-15.2588*78 
16.65964        IM300_RAW_NMEA       iM300           $GNGGA,172235.80,4221.52419,N,07105.15861,W,1,12,0.68,3.4,M,-33.2,M,,*7B 
16.65971        IM300_RAW_NMEA       iM300           $GNVTG,84.93,T,,M,2.912,N,5.394,K,A*16 
16.65973        IM300_RAW_NMEA       iM300           $GNRMC,172235.80,A,4221.52419,N,07105.15861,W,2.912,84.93,110723,,,A*54 
