1.85466         IM300_RAW_NMEA       iM300           $CPNVR,170102.181,0.391817,0.256201,0,-11.901864,0.549317,1.52588*6E 
1.95540         IM300_RAW_NMEA       iM300           $GNGGA,170100.60,4221.52699,N,07105.16606,W,1,12,0.67,5.0,M,-33.2,M,,*79 
1.95549         IM300_RAW_NMEA       iM300           $GNVTG,215.24,T,,M,1.037,N,1.921,K,A*2D 
1.95550         IM300_RAW_NMEA       iM300           $GNRMC,170100.60,A,4221.52699,N,07105.16606,W,1.037,215.24,110723,,,A*60 
2.05558         IM300_RAW_NMEA       iM300           $CPNVR,170102.431,0.533033,-0.021815,0,6.408696,4.516605,1.098634*66 
2.05561         IM300_RAW_NMEA       iM300           $CPNVG,170102.380,4221.52699,N,7105.16606,W,1,0,0,87.656418,nan,nan,170102.327*40 
2.15662         IM300_RAW_NMEA       iM300           $GNRMC,170100.80,A,4221.52695,N,07105.16610,W,1.003,216.43,110723,,,A*60 
2.15724         IM300_RAW_NMEA       iM300           $CPIMU,170102.427,4.516605,6.408696,1.098634,-0.598198,0.028742,-8.358603*7F 
2.25691         IM300_RAW_NMEA       iM300           $CPNVR,170102.633,-0.306414,-0.415155,0,7.568365,-0.305176,1.586915*63 
2.25694         IM300_RAW_NMEA       iM300           $CPNVG,170102.580,4221.52699,N,7105.16606,W,1,0,0,323.57,nan,nan,170102.528*78 
2.35780         IM300_RAW_NMEA       iM300           $GNGSA,A,3,66,82,81,67,68,83,73,,,,,,1.19,0.67,0.98*16 
2.35786         IM300_RAW_NMEA       iM300           $GNGSA,A,3,05,06,09,11,12,19,20,25,29,,,,1.19,0.67,0.98*1A 
2.35788         IM300_RAW_NMEA       iM300           $GNGGA,170101.00,4221.52691,N,07105.16615,W,1,12,0.67,5.0,M,-33.2,M,,*74 
2.35794         IM300_RAW_NMEA       iM300           $GNVTG,216.76,T,,M,0.898,N,1.662,K,A*2D 
2.35796         IM300_RAW_NMEA       iM300           $GNRMC,170101.00,A,4221.52691,N,07105.16615,W,0.898,216.76,110723,,,A*65 
2.35828         IM300_RAW_NMEA       iM300           $CPIMU,170102.630,-0.305176,7.568365,1.586915,0,-0.167064,-8.829257*77 
2.45792         IM300_RAW_NMEA       iM300           $CPNVR,170102.835,0.00457,-0.461949,0,-9.15528,-5.98145,1.64795*6C 
2.45796         IM300_RAW_NMEA       iM300           $CPNVG,170102.781,4221.52691,N,7105.16615,W,1,0,0,0.566833,nan,nan,170102.730*77 
2.55883         IM300_RAW_NMEA       iM300           $GNGGA,170101.20,4221.52687,N,07105.16619,W,1,12,0.67,5.0,M,-33.2,M,,*7D 
2.55891         IM300_RAW_NMEA       iM300           $GNVTG,216.03,T,,M,0.928,N,1.719,K,A*28 
2.55893         IM300_RAW_NMEA       iM300           $GNRMC,170101.20,A,4221.52687,N,07105.16619,W,0.928,216.03,110723,,,A*64 
2.55945         IM300_RAW_NMEA       iM300           $CPIMU,170102.832,-5.98145,-9.15528,1.64795,0,0.039521,-8.809497*4E 
2.65907         IM300_RAW_NMEA       iM300           $CPNVG,170103.030,4221.52687,N,7105.16619,W,1,0,0,42.392752,nan,nan,170102.983*45 
2.76004         IM300_RAW_NMEA       iM300           $GNRMC,170101.40,A,4221.52683,N,07105.16623,W,0.899,216.24,110723,,,A*61 
2.76027         IM300_RAW_NMEA       iM300           $CPIMU,170103.033,0.061035,1.708986,0.610352,-0.666461,0.382631,-8.545427*7A 
2.76029         IM300_RAW_NMEA       iM300           $CPRCM,170103.036,0,239.569615,4.757263,-2.691261,170103.033*46 
2.76030         IM300_RAW_NMEA       iM300           $CPNVR,170103.035,0.32187,-0.352583,0,1.708986,0.061035,0.610352*54 
2.86093         IM300_RAW_NMEA       iM300           $CPNVG,170103.231,4221.52687,N,7105.16619,W,1,0,0,323.76,nan,nan,170103.183*72 
2.96210         IM300_RAW_NMEA       iM300           $GPGSV,3,3,11,20,80,273,47,25,25,276,45,29,23,314,48*44 
2.96217         IM300_RAW_NMEA       iM300           $GPGSV,3,2,11,11,72,028,48,12,25,234,45,13,08,173,30,19,14,143,43*7B 
2.96219         IM300_RAW_NMEA       iM300           $GPGSV,3,1,11,04,01,028,,05,51,237,51,06,34,084,48,09,22,048,40*77 
2.96220         IM300_RAW_NMEA       iM300           $GNGGA,170101.60,4221.52680,N,07105.16627,W,1,12,0.67,5.0,M,-33.2,M,,*73 
2.96227         IM300_RAW_NMEA       iM300           $GNVTG,217.78,T,,M,0.789,N,1.462,K,A*2F 
2.96229         IM300_RAW_NMEA       iM300           $GNRMC,170101.60,A,4221.52680,N,07105.16627,W,0.789,217.78,110723,,,A*62 
2.96250         IM300_RAW_NMEA       iM300           $CPALT,170103.262,1*67 
2.96251         IM300_RAW_NMEA       iM300           $CPIMU,170103.236,4.333499,12.32911,0.427246,-0.136526,0.008982,-8.908298*7E 
2.96253         IM300_RAW_NMEA       iM300           $CPNVR,170103.239,-0.273407,-0.373017,0,12.32911,4.333499,0.427246*44 
2.96253         IM300_RAW_NMEA       iM300           $CPNVR,170103.239,-0.273407,-0.373017,0,12.32911,4.333499,0.427246*44 
3.06218         IM300_RAW_NMEA       iM300           $CPNVR,170103.440,-0.343749,-0.215844,0,-10.314949,-0.915528,0.976563*78 
3.16296         IM300_RAW_NMEA       iM300           $CPNVG,170103.481,4221.52676,N,7105.1663,W,1,0,0,270.612459,nan,nan,170103.437*4B 
3.16306         IM300_RAW_NMEA       iM300           $GNGGA,170101.80,4221.52676,N,07105.16630,W,1,12,0.67,5.0,M,-33.2,M,,*72 
3.16312         IM300_RAW_NMEA       iM300           $GNVTG,218.33,T,,M,0.765,N,1.417,K,A*2F 
3.16313         IM300_RAW_NMEA       iM300           $GNRMC,170101.80,A,4221.52676,N,07105.16630,W,0.765,218.33,110723,,,A*61 
3.16333         IM300_RAW_NMEA       iM300           $CPIMU,170103.437,-0.915528,-10.314949,0.976563,0.373649,-0.195807,-8.928058*45 
3.26294         IM300_RAW_NMEA       iM300           $CPNVR,170103.643,-0.393528,-0.004207,0,-14.526378,-4.882816,1.586915*71 
3.36381         IM300_RAW_NMEA       iM300           $CPNVG,170103.731,4221.52673,N,7105.16634,W,1,0,0,18.901482,nan,nan,170103.689*42 
3.36391         IM300_RAW_NMEA       iM300           $GNGGA,170102.00,4221.52673,N,07105.16634,W,1,12,0.67,5.0,M,-33.2,M,,*78 
3.36397         IM300_RAW_NMEA       iM300           $GNVTG,216.44,T,,M,0.822,N,1.523,K,A*2B 
3.36398         IM300_RAW_NMEA       iM300           $GNRMC,170102.00,A,4221.52673,N,07105.16634,W,0.822,216.44,110723,,,A*69 
3.36418         IM300_RAW_NMEA       iM300           $CPRBS,170103.671,15.323038,15.323038,15.323038,0*75 
3.36424         IM300_RAW_NMEA       iM300           $CPIMU,170103.640,-4.882816,-14.526378,1.586915,-0.598198,0.088023,-8.477164*4A 
3.56487         IM300_RAW_NMEA       iM300           $GNGGA,170102.20,4221.52669,N,07105.16637,W,1,12,0.67,5.0,M,-33.2,M,,*72 
3.56495         IM300_RAW_NMEA       iM300           $GNVTG,215.09,T,,M,0.725,N,1.342,K,A*28 
3.56497         IM300_RAW_NMEA       iM300           $GNRMC,170102.20,A,4221.52669,N,07105.16637,W,0.725,215.09,110723,,,A*61 
3.56519         IM300_RAW_NMEA       iM300           $CPIMU,170103.843,2.685549,14.648448,0.305176,-0.71676,0.431134,-8.859795*7D 
3.56521         IM300_RAW_NMEA       iM300           $CPNVR,170103.846,0.136986,-0.400071,0,14.648448,2.685549,0.305176*57 
3.66481         IM300_RAW_NMEA       iM300           $CPNVG,170103.981,4221.52669,N,7105.16637,W,1,0,0,96.250785,nan,nan,170103.941*49 
3.76568         IM300_RAW_NMEA       iM300           $GNTXT,01,01,00,txbuf alloc*61 
3.76573         IM300_RAW_NMEA       iM300           $CPIMU,170104.043,7.6294,9.948738,-0.488282,0.294608,-0.01976,-9.183146*63 
3.76575         IM300_RAW_NMEA       iM300           $CPRCM,170104.047,0,237.501041,-2.209481,0.424363,170104.043*4F 
3.76576         IM300_RAW_NMEA       iM300           $CPNVR,170104.046,0.370755,0.040609,0,9.948738,7.6294,-0.488282*63 
3.86650         IM300_RAW_NMEA       iM300           $CPNVG,170104.231,4221.52669,N,7105.16637,W,1,0,0,96.250785,nan,nan,170104.193*4E 
3.96738         IM300_RAW_NMEA       iM300           $GNGGA,170102.60,4221.52663,N,07105.16644,W,1,12,0.67,5.0,M,-33.2,M,,*78 
3.96746         IM300_RAW_NMEA       iM300           $GNVTG,216.89,T,,M,0.702,N,1.301,K,A*21 
3.96747         IM300_RAW_NMEA       iM300           $GNRMC,170102.60,A,4221.52663,N,07105.16644,W,0.702,216.89,110723,,,A*65 
3.96769         IM300_RAW_NMEA       iM300           $CPIMU,170104.244,2.502443,-10.55909,0.183106,0.039521,-0.118562,-8.721473*5F 
3.96771         IM300_RAW_NMEA       iM300           $CPNVR,170104.247,0.370755,0.040609,0,-10.55909,2.502443,0.183106*68 
4.06733         IM300_RAW_NMEA       iM300           $CPNVG,170104.431,4221.52663,N,7105.16644,W,1,0,0,353.118381,nan,nan,170104.396*74 
4.16821         IM300_RAW_NMEA       iM300           $CPIMU,170104.497,-4.638675,-6.408696,0.976563,-0.450894,-0.118562,-8.132258*58 
4.16824         IM300_RAW_NMEA       iM300           $CPNVR,170104.499,0.073604,-0.382939,0,-6.408696,-4.638675,0.976563*65 
4.16826         IM300_RAW_NMEA       iM300           $GNGGA,170102.80,4221.52660,N,07105.16647,W,1,12,0.67,5.0,M,-33.2,M,,*76 
4.16832         IM300_RAW_NMEA       iM300           $GNVTG,216.58,T,,M,0.758,N,1.404,K,A*20 
4.16834         IM300_RAW_NMEA       iM300           $GNRMC,170102.80,A,4221.52660,N,07105.16647,W,0.758,216.58,110723,,,A*68 
4.36901         IM300_RAW_NMEA       iM300           $CPIMU,170104.697,-8.056646,9.460456,0.488282,-0.510175,0.127544,-8.780754*5E 
4.36904         IM300_RAW_NMEA       iM300           $CPRCM,170104.700,0,242.937837,2.840843,-1.369584,170104.697*43 
4.36906         IM300_RAW_NMEA       iM300           $CPNVR,170104.700,-0.299768,-0.232983,0,9.460456,-8.056646,0.488282*69 
4.36908         IM300_RAW_NMEA       iM300           $CPNVG,170104.681,4221.5266,N,7105.16647,W,1,0,0,10.880073,nan,nan,170104.647*76 
4.36918         IM300_RAW_NMEA       iM300           $GPGSV,3,1,11,04,01,028,,05,51,237,51,06,34,084,48,09,22,047,40*78 
4.36920         IM300_RAW_NMEA       iM300           $GNGSA,A,3,66,82,81,67,68,83,73,,,,,,1.19,0.67,0.98*16 
4.36922         IM300_RAW_NMEA       iM300           $GNGSA,A,3,05,06,09,11,12,19,20,25,29,,,,1.19,0.67,0.98*1A 
4.36923         IM300_RAW_NMEA       iM300           $GNGGA,170103.00,4221.52657,N,07105.16651,W,1,12,0.67,5.0,M,-33.2,M,,*7C 
4.36929         IM300_RAW_NMEA       iM300           $GNVTG,217.68,T,,M,0.738,N,1.367,K,A*26 
4.36931         IM300_RAW_NMEA       iM300           $GNRMC,170103.00,A,4221.52657,N,07105.16651,W,0.738,217.68,110723,,,A*66 
4.56992         IM300_RAW_NMEA       iM300           $CPIMU,170104.900,-2.624514,9.948738,-1.40381,0,0.255087,-8.956801*42 
4.56995         IM300_RAW_NMEA       iM300           $CPRCM,170104.903,0,235.022569,-1.076316,-1.562346,170104.900*69 
4.56997         IM300_RAW_NMEA       iM300           $CPNVR,170104.903,-0.363042,-0.029357,0,9.948738,-2.624514,-1.40381*7B 
4.56998         IM300_RAW_NMEA       iM300           $GNGGA,170103.20,4221.52654,N,07105.16654,W,1,12,0.67,5.0,M,-33.2,M,,*78 
4.57005         IM300_RAW_NMEA       iM300           $GNVTG,218.26,T,,M,0.708,N,1.311,K,A*21 
4.57007         IM300_RAW_NMEA       iM300           $GNRMC,170103.20,A,4221.52654,N,07105.16654,W,0.708,218.26,110723,,,A*64 
4.66988         IM300_RAW_NMEA       iM300           $CPNVG,170104.931,4221.52654,N,7105.16654,W,1,0,0,274.623163,nan,nan,170104.900*7C 
4.77069         IM300_RAW_NMEA       iM300           $CPIMU,170105.103,5.798344,-2.563478,-0.305176,-0.008982,0.226345,-8.908298*7A 
4.77072         IM300_RAW_NMEA       iM300           $CPNVR,170105.106,-0.046471,0.351393,0,-2.563478,5.798344,-0.305176*6C 
4.77074         IM300_RAW_NMEA       iM300           $GNGGA,170103.40,4221.52651,N,07105.16658,W,1,12,0.67,5.0,M,-33.2,M,,*77 
4.77080         IM300_RAW_NMEA       iM300           $GNVTG,219.78,T,,M,0.689,N,1.275,K,A*20 
4.77082         IM300_RAW_NMEA       iM300           $GNRMC,170103.40,A,4221.52651,N,07105.16658,W,0.689,219.78,110723,,,A*69 
4.87165         IM300_RAW_NMEA       iM300           $CPNVG,170105.181,4221.52651,N,7105.16658,W,1,0,0,187.533579,nan,nan,170105.153*7A 
4.97308         IM300_RAW_NMEA       iM300           $CPIMU,170105.304,6.164555,-6.896978,2.624514,-0.274848,-0.059281,-8.800515*73 
4.97342         IM300_RAW_NMEA       iM300           $CPRCM,170105.306,0,237.388342,1.851896,0.704491,170105.304*66 
4.97369         IM300_RAW_NMEA       iM300           $CPNVR,170105.306,-0.355415,0.133499,0,-6.896978,6.164555,2.624514*41 
4.97401         IM300_RAW_NMEA       iM300           $GNGGA,170103.60,4221.52647,N,07105.16661,W,1,12,0.67,5.0,M,-33.2,M,,*78 
4.97462         IM300_RAW_NMEA       iM300           $GNVTG,218.70,T,,M,0.738,N,1.367,K,A*20 
4.97488         IM300_RAW_NMEA       iM300           $GNRMC,170103.60,A,4221.52647,N,07105.16661,W,0.738,218.70,110723,,,A*64 
5.07390         IM300_RAW_NMEA       iM300           $CPNVG,170105.381,4221.52647,N,7105.16661,W,1,0,0,249.41302,nan,nan,170105.354*4B 
5.17515         IM300_RAW_NMEA       iM300           $CPIMU,170105.504,-0.793458,0.915528,1.464845,-0.411373,-0.028742,-8.514889*72 
5.17548         IM300_RAW_NMEA       iM300           $CPRCM,170105.507,0,241.567505,2.31311,0.468207,170105.504*5D 
5.17579         IM300_RAW_NMEA       iM300           $CPNVR,170105.507,-0.212015,-0.284695,0,0.915528,-0.793458,1.464845*61 
5.17609         IM300_RAW_NMEA       iM300           $GNGGA,170103.80,4221.52644,N,07105.16664,W,1,12,0.67,5.0,M,-33.2,M,,*70 
5.17672         IM300_RAW_NMEA       iM300           $GNVTG,217.41,T,,M,0.690,N,1.278,K,A*21 
5.17702         IM300_RAW_NMEA       iM300           $GNRMC,170103.80,A,4221.52644,N,07105.16664,W,0.690,217.41,110723,,,A*62 
5.27513         IM300_RAW_NMEA       iM300           $CPNVG,170105.581,4221.52644,N,7105.16664,W,1,0,0,323.324576,nan,nan,170105.556*77 
5.37615         IM300_RAW_NMEA       iM300           $CPIMU,170105.707,-0.305176,6.164555,-1.64795,-0.215567,0.127544,-8.789736*43 
5.37648         IM300_RAW_NMEA       iM300           $CPRCM,170105.710,0,237.368466,0.806159,-0.720776,170105.707*45 
5.37679         IM300_RAW_NMEA       iM300           $CPNVR,170105.709,0.03561,0.317479,0,6.164555,-0.305176,-1.64795*49 
5.37709         IM300_RAW_NMEA       iM300           $GNGGA,170104.00,4221.52641,N,07105.16667,W,1,12,0.67,5.0,M,-33.2,M,,*79 
5.37772         IM300_RAW_NMEA       iM300           $GNVTG,213.74,T,,M,0.621,N,1.150,K,A*20 
5.37802         IM300_RAW_NMEA       iM300           $GNRMC,170104.00,A,4221.52641,N,07105.16667,W,0.621,213.74,110723,,,A*63 
5.37920         IM300_RAW_NMEA       iM300           $CPRBS,170105.672,15.329361,15.329361,15.329361,0*75 
5.47664         IM300_RAW_NMEA       iM300           $CPNVG,170105.782,4221.52641,N,7105.16667,W,1,0,0,173.600087,nan,nan,170105.758*73 
5.57657         IM300_RAW_NMEA       iM300           $CPIMU,170105.908,2.380373,-1.464845,-1.40381,0.01976,0.098801,-9.183146*50 
5.57690         IM300_RAW_NMEA       iM300           $CPRCM,170105.911,0,237.424553,0.026994,-0.56464,170105.908*76 
5.57720         IM300_RAW_NMEA       iM300           $CPNVR,170105.910,-0.31286,-0.05936,0,-1.464845,2.380373,-1.40381*77 
5.57751         IM300_RAW_NMEA       iM300           $GNGGA,170104.20,4221.52638,N,07105.16669,W,1,12,0.67,5.0,M,-33.2,M,,*7B 
5.57823         IM300_RAW_NMEA       iM300           $GNVTG,211.87,T,,M,0.619,N,1.146,K,A*22 
5.57855         IM300_RAW_NMEA       iM300           $GNRMC,170104.20,A,4221.52638,N,07105.16669,W,0.619,211.87,110723,,,A*64 
5.67748         IM300_RAW_NMEA       iM300           $CPNVG,170106.031,4221.52638,N,7105.16669,W,1,0,0,280.743195,nan,nan,170106.010*7C 
5.77736         IM300_RAW_NMEA       iM300           $CPIMU,170106.110,-0.610352,-8.361822,0.610352,-0.098801,-0.039521,-8.59393*61 
5.77740         IM300_RAW_NMEA       iM300           $CPNVR,170106.113,0.087132,0.279989,0,-8.361822,-0.610352,0.610352*48 
5.77741         IM300_RAW_NMEA       iM300           $GNGGA,170104.40,4221.52636,N,07105.16672,W,1,12,0.67,5.0,M,-33.2,M,,*79 
5.77748         IM300_RAW_NMEA       iM300           $GNVTG,213.93,T,,M,0.570,N,1.056,K,A*29 
5.77749         IM300_RAW_NMEA       iM300           $GNRMC,170104.40,A,4221.52636,N,07105.16672,W,0.570,213.93,110723,,,A*6D 
5.97820         IM300_RAW_NMEA       iM300           $CPNVG,170106.281,4221.52633,N,7105.16675,W,1,0,0,309.000631,nan,nan,170106.272*7C 
5.97832         IM300_RAW_NMEA       iM300           $GNGGA,170104.60,4221.52633,N,07105.16675,W,1,12,0.67,5.0,M,-33.2,M,,*79 
5.97838         IM300_RAW_NMEA       iM300           $GNVTG,217.66,T,,M,0.621,N,1.151,K,A*26 
5.97839         IM300_RAW_NMEA       iM300           $GNRMC,170104.60,A,4221.52633,N,07105.16675,W,0.621,217.66,110723,,,A*64 
5.97859         IM300_RAW_NMEA       iM300           $CPALT,170106.263,1*63 
6.07840         IM300_RAW_NMEA       iM300           $CPIMU,170106.312,-3.784182,-4.45557,1.831056,-0.362871,-0.028742,-8.457404*69 
6.07844         IM300_RAW_NMEA       iM300           $CPNVR,170106.315,-0.248273,-0.201052,0,-4.45557,-3.784182,1.831056*76 
6.17918         IM300_RAW_NMEA       iM300           $CPRCM,170106.517,0,246.649558,2.815366,-0.560339,170106.514*4B 
6.17922         IM300_RAW_NMEA       iM300           $CPNVR,170106.517,-0.160149,0.285313,0,7.873541,-2.075197,-0.549317*66 
6.17923         IM300_RAW_NMEA       iM300           $CPNVG,170106.481,4221.5263,N,7105.16678,W,1,0,0,209.305975,nan,nan,170106.473*4B 
6.17932         IM300_RAW_NMEA       iM300           $GNGGA,170104.80,4221.52630,N,07105.16678,W,1,12,0.67,5.0,M,-33.2,M,,*79 
6.17938         IM300_RAW_NMEA       iM300           $GNVTG,219.40,T,,M,0.636,N,1.177,K,A*2E 
6.17939         IM300_RAW_NMEA       iM300           $GNRMC,170104.80,A,4221.52630,N,07105.16678,W,0.636,219.40,110723,,,A*68 
6.27936         IM300_RAW_NMEA       iM300           $CPIMU,170106.514,-2.075197,7.873541,-0.549317,-0.510175,0.088023,-8.868777*77 
6.38009         IM300_RAW_NMEA       iM300           $CPNVG,170106.681,4221.52628,N,7105.16682,W,1,0,0,210.45189,nan,nan,170106.665*44 
6.38018         IM300_RAW_NMEA       iM300           $GNGGA,170105.00,4221.52628,N,07105.16682,W,1,12,0.67,5.0,M,-33.2,M,,*7C 
6.38024         IM300_RAW_NMEA       iM300           $GNVTG,219.38,T,,M,0.661,N,1.225,K,A*27 
6.38026         IM300_RAW_NMEA       iM300           $GNRMC,170105.00,A,4221.52628,N,07105.16682,W,0.661,219.38,110723,,,A*60 
6.48110         IM300_RAW_NMEA       iM300           $CPIMU,170106.718,0,15.38087,-1.098634,-0.186825,0.118562,-8.879556*7C 
6.48114         IM300_RAW_NMEA       iM300           $CPRCM,170106.721,0,235.653304,0.510069,-0.815003,170106.718*41 
6.48115         IM300_RAW_NMEA       iM300           $CPNVR,170106.720,-0.172341,0.29314,0,15.38087,0,-1.098634*51 
6.58184         IM300_RAW_NMEA       iM300           $CPNVG,170106.880,4221.52625,N,7105.16684,W,1,0,0,259.726261,nan,nan,170106.873*73 
6.58247         IM300_RAW_NMEA       iM300           $GNGGA,170105.20,4221.52625,N,07105.16684,W,1,12,0.67,5.0,M,-33.2,M,,*75 
6.58279         IM300_RAW_NMEA       iM300           $GNVTG,218.52,T,,M,0.582,N,1.078,K,A*2E 
6.58281         IM300_RAW_NMEA       iM300           $GNRMC,170105.20,A,4221.52625,N,07105.16684,W,0.582,218.52,110723,,,A*6A 
6.68240         IM300_RAW_NMEA       iM300           $CPIMU,170106.918,2.868654,0.976563,1.52588,0.382631,0.156286,-8.681953*6F 
6.68243         IM300_RAW_NMEA       iM300           $CPRCM,170106.922,0,232.939936,-2.579602,-0.950678,170106.918*6C 
6.68244         IM300_RAW_NMEA       iM300           $CPNVR,170106.921,-0.294606,0.0534,0,0.976563,2.868654,1.52588*56 
6.78338         IM300_RAW_NMEA       iM300           $GNGGA,170105.40,4221.52623,N,07105.16687,W,1,12,0.67,5.0,M,-33.2,M,,*76 
6.78346         IM300_RAW_NMEA       iM300           $GNVTG,218.31,T,,M,0.579,N,1.072,K,A*25 
6.78348         IM300_RAW_NMEA       iM300           $GNRMC,170105.40,A,4221.52623,N,07105.16687,W,0.579,218.31,110723,,,A*68 
6.88347         IM300_RAW_NMEA       iM300           $CPIMU,170107.169,2.563478,-21.36232,0.427246,-0.28383,-0.079041,-8.63345*75 
6.88350         IM300_RAW_NMEA       iM300           $CPNVR,170107.172,-0.297723,-0.00914,0,-21.36232,2.563478,0.427246*57 
6.88352         IM300_RAW_NMEA       iM300           $CPNVG,170107.130,4221.52623,N,7105.16687,W,1,0,0,271.758374,nan,nan,170107.118*76 
6.98373         IM300_RAW_NMEA       iM300           $GNGGA,170105.60,4221.52620,N,07105.16690,W,1,12,0.67,5.0,M,-33.2,M,,*71 
6.98379         IM300_RAW_NMEA       iM300           $GNVTG,219.70,T,,M,0.656,N,1.214,K,A*2D 
6.98381         IM300_RAW_NMEA       iM300           $GNRMC,170105.60,A,4221.52620,N,07105.16690,W,0.656,219.70,110723,,,A*65 
7.08463         IM300_RAW_NMEA       iM300           $CPIMU,170107.372,-2.92969,7.75147,-1.464845,-0.980829,-0,-8.545427*7C 
7.08466         IM300_RAW_NMEA       iM300           $CPNVR,170107.374,-0.07084,0.329957,0,7.75147,-2.92969,-1.464845*56 
7.08468         IM300_RAW_NMEA       iM300           $CPNVG,170107.330,4221.5262,N,7105.1669,W,1,0,0,192.117241,nan,nan,170107.320*7C 
7.18541         IM300_RAW_NMEA       iM300           $GNGGA,170105.80,4221.52617,N,07105.16693,W,1,12,0.67,5.0,M,-33.2,M,,*78 
7.18548         IM300_RAW_NMEA       iM300           $GNVTG,216.16,T,,M,0.557,N,1.032,K,A*26 
7.18550         IM300_RAW_NMEA       iM300           $GNRMC,170105.80,A,4221.52617,N,07105.16693,W,0.557,216.16,110723,,,A*61 
7.28636         IM300_RAW_NMEA       iM300           $CPIMU,170107.573,-2.136232,18.981947,0.12207,0.118562,0.186825,-9.025063*73 
7.28640         IM300_RAW_NMEA       iM300           $CPNVR,170107.575,0.164128,-0.234884,0,18.981947,-2.136232,0.12207*4B 
7.28641         IM300_RAW_NMEA       iM300           $CPNVG,170107.531,4221.52617,N,7105.16693,W,1,0,0,34.9443,nan,nan,170107.521*4C 
7.38718         IM300_RAW_NMEA       iM300           $GNGSA,A,3,05,06,09,11,12,19,20,25,29,,,,1.19,0.67,0.98*1A 
7.38721         IM300_RAW_NMEA       iM300           $GNGGA,170106.00,4221.52616,N,07105.16694,W,1,12,0.67,5.0,M,-33.2,M,,*75 
7.38727         IM300_RAW_NMEA       iM300           $GNVTG,215.03,T,,M,0.424,N,0.785,K,A*2E 
7.38729         IM300_RAW_NMEA       iM300           $GNRMC,170106.00,A,4221.52616,N,07105.16694,W,0.424,215.03,110723,,,A*6E 
7.48867         IM300_RAW_NMEA       iM300           $CPIMU,170107.775,2.92969,-6.958013,1.098634,0.422152,0.059281,-9.016081*49 
7.48869         IM300_RAW_NMEA       iM300           $CPRCM,170107.779,0,230.891941,-2.313721,0.820278,170107.775*4D 
7.48871         IM300_RAW_NMEA       iM300           $CPNVG,170107.782,4221.52616,N,7105.16694,W,1,0,0,99.688531,nan,nan,170107.775*4F 
7.48880         IM300_RAW_NMEA       iM300           $CPRBS,170107.771,15.329361,15.329361,15.329361,0*75 
7.68917         IM300_RAW_NMEA       iM300           $CPIMU,170107.976,-1.831056,-18.43263,1.464845,-0.411373,-0.147304,-8.574169*5C 
7.68919         IM300_RAW_NMEA       iM300           $CPNVR,170107.979,0.215013,0.036709,0,-18.43263,-1.831056,1.464845*42 
7.68921         IM300_RAW_NMEA       iM300           $CPNVG,170107.982,4221.52616,N,7105.16694,W,1,0,0,99.688531,nan,nan,170107.927*48 
7.68930         IM300_RAW_NMEA       iM300           $CPRCM,170107.979,0,238.510722,3.828642,1.073389,170107.976*62 
7.78997         IM300_RAW_NMEA       iM300           $GNGSA,A,3,66,82,81,67,68,83,73,,,,,,1.19,0.67,0.98*16 
7.79000         IM300_RAW_NMEA       iM300           $GNGSA,A,3,05,06,09,11,12,19,20,25,29,,,,1.19,0.67,0.98*1A 
7.79002         IM300_RAW_NMEA       iM300           $GNGGA,170106.40,4221.52611,N,07105.16699,W,1,12,0.67,5.0,M,-33.2,M,,*7B 
7.79008         IM300_RAW_NMEA       iM300           $GNVTG,214.95,T,,M,0.589,N,1.091,K,A*25 
7.79010         IM300_RAW_NMEA       iM300           $GNRMC,170106.40,A,4221.52611,N,07105.16699,W,0.589,214.95,110723,,,A*68 
7.89099         IM300_RAW_NMEA       iM300           $CPIMU,170108.179,-1.708986,8.605963,0.305176,-0.864064,0.274848,-8.446626*54 
7.89101         IM300_RAW_NMEA       iM300           $CPNVR,170108.182,0.293656,0.0747,0,8.605963,-1.708986,0.305176*6D 
7.89103         IM300_RAW_NMEA       iM300           $CPRCM,170108.182,0,246.955313,5.349773,-1.957525,170108.179*40 
7.99176         IM300_RAW_NMEA       iM300           $GNGSA,A,3,05,06,09,11,12,19,20,25,29,,,,1.19,0.67,0.98*1A 
7.99179         IM300_RAW_NMEA       iM300           $GNGGA,170106.60,4221.52608,N,07105.16701,W,1,12,0.67,5.0,M,-33.2,M,,*71 
7.99202         IM300_RAW_NMEA       iM300           $GNVTG,212.20,T,,M,0.483,N,0.894,K,A*2A 
7.99204         IM300_RAW_NMEA       iM300           $GNRMC,170106.60,A,4221.52608,N,07105.16701,W,0.483,212.20,110723,,,A*61 
7.99251         IM300_RAW_NMEA       iM300           $CPALT,170108.263,1*6D 
7.99254         IM300_RAW_NMEA       iM300           $CPNVG,170108.230,4221.52611,N,7105.16699,W,1,0,0,104.272194,nan,nan,170108.179*7C 
8.09224         IM300_RAW_NMEA       iM300           $CPIMU,170108.380,7.263189,17.517102,-1.953126,0.039521,0.264069,-9.007099*44 
8.09226         IM300_RAW_NMEA       iM300           $CPNVR,170108.383,-0.245958,0.035287,0,17.517102,7.263189,-1.953126*73 
8.19306         IM300_RAW_NMEA       iM300           $GNRMC,170106.80,A,4221.52606,N,07105.16702,W,0.404,211.85,110723,,,A*61 
8.19346         IM300_RAW_NMEA       iM300           $CPNVG,170108.431,4221.52608,N,7105.16701,W,1,0,0,261.835587,nan,nan,170108.380*78 
8.29314         IM300_RAW_NMEA       iM300           $CPIMU,170108.582,6.958013,-9.338386,-0.12207,0.362871,-0.195807,-9.202906*47 
8.29318         IM300_RAW_NMEA       iM300           $CPNVR,170108.585,-0.109674,-0.176542,0,-9.338386,6.958013,-0.12207*76 
8.39391         IM300_RAW_NMEA       iM300           $GNGSA,A,3,66,82,81,67,68,83,73,,,,,,1.19,0.67,0.98*16 
8.39394         IM300_RAW_NMEA       iM300           $GNGSA,A,3,05,06,09,11,12,19,20,25,29,,,,1.19,0.67,0.98*1A 
8.39410         IM300_RAW_NMEA       iM300           $GNGGA,170107.00,4221.52604,N,07105.16705,W,1,12,0.67,5.0,M,-33.2,M,,*7E 
8.39418         IM300_RAW_NMEA       iM300           $GNVTG,216.50,T,,M,0.489,N,0.906,K,A*29 
8.39420         IM300_RAW_NMEA       iM300           $GNRMC,170107.00,A,4221.52604,N,07105.16705,W,0.489,216.50,110723,,,A*67 
8.39468         IM300_RAW_NMEA       iM300           $CPNVG,170108.631,4221.52608,N,7105.16701,W,1,0,0,328.15,nan,nan,170108.582*72 
8.49452         IM300_RAW_NMEA       iM300           $CPIMU,170108.784,-6.591802,-14.282237,2.136232,-0.402391,-0.362871,-8.732252*69 
8.49455         IM300_RAW_NMEA       iM300           $CPRCM,170108.787,0,244.013199,3.317129,2.213112,170108.784*6F 
8.49456         IM300_RAW_NMEA       iM300           $CPNVR,170108.786,0.067074,-0.242457,0,-14.282237,-6.591802,2.136232*51 
8.59537         IM300_RAW_NMEA       iM300           $CPNVG,170108.881,4221.52604,N,7105.16705,W,1,0,0,13.744862,nan,nan,170108.873*48 
8.59562         IM300_RAW_NMEA       iM300           $GNGGA,170107.20,4221.52602,N,07105.16707,W,1,12,0.67,5.0,M,-33.2,M,,*78 
8.59569         IM300_RAW_NMEA       iM300           $GNVTG,216.53,T,,M,0.522,N,0.967,K,A*2D 
8.59571         IM300_RAW_NMEA       iM300           $GNRMC,170107.20,A,4221.52602,N,07105.16707,W,0.522,216.53,110723,,,A*62 
8.69571         IM300_RAW_NMEA       iM300           $CPIMU,170108.986,-10.009773,7.019048,0.061035,-0.510175,0.167064,-8.32986*57 
8.69575         IM300_RAW_NMEA       iM300           $CPRCM,170108.989,0,244.994135,3.028118,-2.607473,170108.986*40 
8.69577         IM300_RAW_NMEA       iM300           $CPNVR,170108.988,0.063805,-0.26085,0,7.019048,-10.009773,0.061035*4B 
8.79645         IM300_RAW_NMEA       iM300           $CPNVG,170109.083,4221.52602,N,7105.16707,W,1,0,0,324.85,nan,nan,170109.035*7D 
8.79653         IM300_RAW_NMEA       iM300           $GNRMC,170107.40,A,4221.52600,N,07105.16709,W,0.478,215.15,110723,,,A*67 
8.89651         IM300_RAW_NMEA       iM300           $CPNVR,170109.240,-0.141572,-0.201063,0,5.676274,3.17383,-1.953126*57 
8.99721         IM300_RAW_NMEA       iM300           $CPNVG,170109.282,4221.52602,N,7105.16707,W,1,0,0,74.478388,nan,nan,170109.274*4A 
8.99731         IM300_RAW_NMEA       iM300           $GNVTG,215.47,T,,M,0.470,N,0.871,K,A*2B 
8.99733         IM300_RAW_NMEA       iM300           $GNRMC,170107.60,A,4221.52597,N,07105.16711,W,0.470,215.47,110723,,,A*6E 
8.99787         IM300_RAW_NMEA       iM300           $CPIMU,170109.237,3.17383,5.676274,-1.953126,-0.01976,0.32335,-8.721473*61 
8.99789         IM300_RAW_NMEA       iM300           $CPRCM,170109.240,0,237.090783,0.158913,-0.799957,170109.237*44 
9.09752         IM300_RAW_NMEA       iM300           $CPNVR,170109.440,0.232971,-0.064703,0,-0.976563,7.141118,1.953126*49 
9.19842         IM300_RAW_NMEA       iM300           $CPNVG,170109.531,4221.52595,N,7105.16714,W,1,0,0,210.45189,nan,nan,170109.490*4F 
9.19853         IM300_RAW_NMEA       iM300           $GPGSV,3,1,11,04,01,028,,05,51,237,51,06,34,084,47,09,22,047,41*76 
9.19854         IM300_RAW_NMEA       iM300           $GNGSA,A,3,66,82,81,67,68,83,73,,,,,,1.19,0.67,0.98*16 
9.19856         IM300_RAW_NMEA       iM300           $GNGSA,A,3,05,06,09,11,12,19,20,25,29,,,,1.19,0.67,0.98*1A 
9.19858         IM300_RAW_NMEA       iM300           $GNGGA,170107.80,4221.52595,N,07105.16714,W,1,12,0.67,5.0,M,-33.2,M,,*7D 
9.19864         IM300_RAW_NMEA       iM300           $GNVTG,219.38,T,,M,0.498,N,0.922,K,A*2E 
9.19865         IM300_RAW_NMEA       iM300           $GNRMC,170107.80,A,4221.52595,N,07105.16714,W,0.498,219.38,110723,,,A*65 
9.19885         IM300_RAW_NMEA       iM300           $CPIMU,170109.437,7.141118,-0.976563,1.953126,-0.246105,-0.01976,-9.016081*4C 
9.19887         IM300_RAW_NMEA       iM300           $CPRCM,170109.441,0,239.038602,1.959747,0.861057,170109.437*6A 
9.29854         IM300_RAW_NMEA       iM300           $CPNVR,170109.643,-0.129843,0.220853,0,4.45557,3.05176,3.295901*6D 
9.39948         IM300_RAW_NMEA       iM300           $CPRBS,170109.771,15.323038,15.323038,15.323038,0*7E 
9.39957         IM300_RAW_NMEA       iM300           $CPNVG,170109.731,4221.52594,N,7105.16716,W,1,0,0,201.284566,nan,nan,170109.693*75 
9.39964         IM300_RAW_NMEA       iM300           $GNGGA,170108.00,4221.52594,N,07105.16716,W,1,12,0.67,5.0,M,-33.2,M,,*79 
9.39969         IM300_RAW_NMEA       iM300           $GNVTG,219.54,T,,M,0.449,N,0.832,K,A*28 
9.39971         IM300_RAW_NMEA       iM300           $GNRMC,170108.00,A,4221.52594,N,07105.16716,W,0.449,219.54,110723,,,A*67 
9.39991         IM300_RAW_NMEA       iM300           $CPIMU,170109.640,3.05176,4.45557,3.295901,-0.246105,-0.136526,-8.712492*52 
9.50003         IM300_RAW_NMEA       iM300           $CPNVR,170109.845,-0.083848,0.21523,0,-0.305176,-3.845218,-0.915528*7F 
9.60001         IM300_RAW_NMEA       iM300           $GNGGA,170108.20,4221.52592,N,07105.16718,W,1,12,0.67,5.0,M,-33.2,M,,*73 
9.60009         IM300_RAW_NMEA       iM300           $GNVTG,217.73,T,,M,0.381,N,0.705,K,A*2B 
9.60011         IM300_RAW_NMEA       iM300           $GNRMC,170108.20,A,4221.52592,N,07105.16718,W,0.381,217.73,110723,,,A*65 
9.60032         IM300_RAW_NMEA       iM300           $CPIMU,170109.842,-3.845218,-0.305176,-0.915528,0.059281,-0.107783,-8.868777*5C 
9.60034         IM300_RAW_NMEA       iM300           $CPRCM,170109.845,0,238.206809,-0.507716,0.617288,170109.842*47 
9.70016         IM300_RAW_NMEA       iM300           $CPNVR,170110.047,-0.160576,-0.112395,0,-11.840829,-6.347661,-2.563478*52 
9.70019         IM300_RAW_NMEA       iM300           $CPNVG,170109.981,4221.52592,N,7105.16718,W,1,0,0,90,nan,nan,170109.944*62 
9.80109         IM300_RAW_NMEA       iM300           $GNTXT,01,01,00,txbuf alloc*61 
9.80112         IM300_RAW_NMEA       iM300           $GNVTG,212.61,T,,M,0.391,N,0.724,K,A*2F 
9.80136         IM300_RAW_NMEA       iM300           $GNRMC,170108.40,A,4221.52590,N,07105.16719,W,0.391,212.61,110723,,,A*67 
9.80169         IM300_RAW_NMEA       iM300           $CPIMU,170110.044,-6.347661,-11.840829,-2.563478,0,0.118562,-8.956801*6B 
9.80170         IM300_RAW_NMEA       iM300           $CPRCM,170110.048,0,238.751631,0.552268,-1.270623,170110.044*43 
9.90134         IM300_RAW_NMEA       iM300           $CPNVG,170110.230,4221.52592,N,7105.16718,W,1,0,0,238.344318,nan,nan,170110.195*70 
10.00237        IM300_RAW_NMEA       iM300           $GNVTG,210.85,T,,M,0.402,N,0.745,K,A*2D 
10.00240        IM300_RAW_NMEA       iM300           $GNRMC,170108.60,A,4221.52588,N,07105.16721,W,0.402,210.85,110723,,,A*62 
10.00263        IM300_RAW_NMEA       iM300           $CPIMU,170110.247,2.563478,-8.483893,1.892091,-0.666461,0.353889,-8.760994*58 
10.00265        IM300_RAW_NMEA       iM300           $CPNVR,170110.250,-0.17122,0.105565,0,-8.483893,2.563478,1.892091*77 
10.10254        IM300_RAW_NMEA       iM300           $GNVTG,213.03,T,,M,0.365,N,0.676,K,A*27 
10.10313        IM300_RAW_NMEA       iM300           $GNRMC,170108.80,A,4221.52586,N,07105.16723,W,0.365,213.03,110723,,,A*6B 
10.10338        IM300_RAW_NMEA       iM300           $CPIMU,170110.448,6.10352,11.169442,3.784182,-0.833525,-0.028742,-8.61369*6D 
10.10340        IM300_RAW_NMEA       iM300           $CPNVR,170110.451,-0.073489,-0.193309,0,11.169442,6.10352,3.784182*4F 
10.10342        IM300_RAW_NMEA       iM300           $CPNVG,170110.430,4221.52592,N,7105.16718,W,1,0,0,339.18489,nan,nan,170110.396*42 
10.30375        IM300_RAW_NMEA       iM300           $GNGGA,170109.00,4221.52585,N,07105.16724,W,1,12,0.67,5.0,M,-33.2,M,,*79 
10.30407        IM300_RAW_NMEA       iM300           $GNVTG,211.50,T,,M,0.296,N,0.547,K,A*2F 
10.30409        IM300_RAW_NMEA       iM300           $GNRMC,170109.00,A,4221.52585,N,07105.16724,W,0.296,211.50,110723,,,A*6F 
10.30435        IM300_RAW_NMEA       iM300           $CPIMU,170110.649,-1.281739,13.061533,0.915528,-0.039521,-0.107783,-8.752012*45 
10.30437        IM300_RAW_NMEA       iM300           $CPNVR,170110.651,-0.105761,0.155155,0,13.061533,-1.281739,0.915528*70 
10.30439        IM300_RAW_NMEA       iM300           $CPNVG,170110.631,4221.52592,N,7105.16718,W,1,0,0,90,nan,nan,170110.599*6A 
10.40407        IM300_RAW_NMEA       iM300           $GPGSV,3,1,11,04,01,028,,05,51,237,51,06,34,084,47,09,22,047,40*77 
10.50469        IM300_RAW_NMEA       iM300           $CPNVR,170110.854,-0.129218,-0.080564,0,-3.05176,-1.831056,-1.342774*57 
10.60553        IM300_RAW_NMEA       iM300           $CPNVG,170110.881,4221.52585,N,7105.16724,W,1,0,0,90,nan,nan,170110.851*6F 
10.60560        IM300_RAW_NMEA       iM300           $GNGSA,A,3,66,82,81,67,68,83,73,,,,,,1.19,0.67,0.98*16 
10.60562        IM300_RAW_NMEA       iM300           $GNGSA,A,3,05,06,09,11,12,19,20,25,29,,,,1.19,0.67,0.98*1A 
10.60564        IM300_RAW_NMEA       iM300           $GNGGA,170109.20,4221.52584,N,07105.16724,W,1,12,0.67,5.0,M,-33.2,M,,*7A 
10.60569        IM300_RAW_NMEA       iM300           $GNVTG,209.74,T,,M,0.274,N,0.507,K,A*28 
10.60571        IM300_RAW_NMEA       iM300           $GNRMC,170109.20,A,4221.52584,N,07105.16724,W,0.274,209.74,110723,,,A*6F 
10.60591        IM300_RAW_NMEA       iM300           $CPIMU,170110.851,-1.831056,-3.05176,-1.342774,0.235327,0.118562,-8.956801*44 
10.70551        IM300_RAW_NMEA       iM300           $CPNVR,170111.057,0.095742,-0.103453,0,-8.789069,3.540042,0.183106*45 
10.80634        IM300_RAW_NMEA       iM300           $CPNVG,170111.130,4221.52582,N,7105.16726,W,1,0,0,90,nan,nan,170111.103*67 
10.80642        IM300_RAW_NMEA       iM300           $GNGGA,170109.40,4221.52582,N,07105.16726,W,1,12,0.67,5.0,M,-33.2,M,,*78 
10.80648        IM300_RAW_NMEA       iM300           $GNVTG,211.02,T,,M,0.323,N,0.598,K,A*25 
10.80650        IM300_RAW_NMEA       iM300           $GNRMC,170109.40,A,4221.52582,N,07105.16726,W,0.323,211.02,110723,,,A*66 
10.80676        IM300_RAW_NMEA       iM300           $CPIMU,170111.054,3.540042,-8.789069,0.183106,-0.186825,0.028742,-8.840035*5A 
10.80678        IM300_RAW_NMEA       iM300           $CPRCM,170111.058,0,238.061164,1.941318,0.480804,170111.054*67 
10.90664        IM300_RAW_NMEA       iM300           $CPNVR,170111.258,-0.084474,-0.143091,0,-1.953126,0.183106,2.807619*60 
11.00855        IM300_RAW_NMEA       iM300           $CPNVG,170111.331,4221.52581,N,7105.16727,W,1,0,0,90,nan,nan,170111.306*61 
11.00900        IM300_RAW_NMEA       iM300           $GNGGA,170109.60,4221.52581,N,07105.16727,W,1,12,0.67,5.0,M,-33.2,M,,*78 
11.00940        IM300_RAW_NMEA       iM300           $GNVTG,210.89,T,,M,0.326,N,0.604,K,A*24 
11.00958        IM300_RAW_NMEA       iM300           $GNRMC,170109.60,A,4221.52581,N,07105.16727,W,0.326,210.89,110723,,,A*61 
11.01033        IM300_RAW_NMEA       iM300           $CPALT,170111.263,1*65 
11.01034        IM300_RAW_NMEA       iM300           $CPIMU,170111.255,0.183106,-1.953126,2.807619,-0.422152,-0.048503,-8.642432*75 
11.10867        IM300_RAW_NMEA       iM300           $CPNVR,170111.461,-0.065817,-0.154254,0,3.906253,-1.64795,1.953126*59 
11.20984        IM300_RAW_NMEA       iM300           $CPNVG,170111.531,4221.52579,N,7105.16728,W,1,0,0,90,nan,nan,170111.509*66 
11.21028        IM300_RAW_NMEA       iM300           $GNGGA,170109.80,4221.52579,N,07105.16728,W,1,12,0.67,5.0,M,-33.2,M,,*7E 
11.21069        IM300_RAW_NMEA       iM300           $GNVTG,211.29,T,,M,0.305,N,0.565,K,A*2A 
11.21088        IM300_RAW_NMEA       iM300           $GNRMC,170109.80,A,4221.52579,N,07105.16728,W,0.305,211.29,110723,,,A*6D 
11.21298        IM300_RAW_NMEA       iM300           $CPIMU,170111.458,-1.64795,3.906253,1.953126,-0.255087,0.088023,-8.721473*68 
11.21301        IM300_RAW_NMEA       iM300           $CPRCM,170111.461,0,243.88269,1.516012,-0.632544,170111.458*7C 
11.31006        IM300_RAW_NMEA       iM300           $CPNVR,170111.663,-0.112916,-0.108946,0,2.990725,-0.427246,0.061035*60 
11.41228        IM300_RAW_NMEA       iM300           $CPNVG,170111.781,4221.52578,N,7105.1673,W,1,0,0,90,nan,nan,170111.758*51 
11.41297        IM300_RAW_NMEA       iM300           $CPRBS,170111.772,15.27849,15.27849,15.27849,0*4D 
11.41363        IM300_RAW_NMEA       iM300           $GNGGA,170110.00,4221.52578,N,07105.16730,W,1,12,0.67,5.0,M,-33.2,M,,*76 
11.41456        IM300_RAW_NMEA       iM300           $GNVTG,215.42,T,,M,0.262,N,0.486,K,A*2F 
11.41487        IM300_RAW_NMEA       iM300           $GNRMC,170110.00,A,4221.52578,N,07105.16730,W,0.262,215.42,110723,,,A*6C 
11.41657        IM300_RAW_NMEA       iM300           $CPIMU,170111.660,-0.427246,2.990725,0.061035,-0.118562,0.028742,-8.800515*5B 
11.41659        IM300_RAW_NMEA       iM300           $CPRCM,170111.664,0,242.26991,0.642086,-0.345505,170111.660*75 
11.51141        IM300_RAW_NMEA       iM300           $CPNVR,170111.864,0.131509,-0.029533,0,-0.915528,-2.92969,-0.12207*42 
11.61274        IM300_RAW_NMEA       iM300           $CPNVG,170111.981,4221.52577,N,7105.16732,W,1,0,0,90,nan,nan,170111.962*65 
11.61283        IM300_RAW_NMEA       iM300           $GNGGA,170110.20,4221.52577,N,07105.16732,W,1,12,0.67,5.0,M,-33.2,M,,*79 
11.61288        IM300_RAW_NMEA       iM300           $GNVTG,218.37,T,,M,0.310,N,0.575,K,A*29 
11.61290        IM300_RAW_NMEA       iM300           $GNRMC,170110.20,A,4221.52577,N,07105.16732,W,0.310,218.37,110723,,,A*68 
11.61311        IM300_RAW_NMEA       iM300           $CPIMU,170111.861,-2.92969,-0.915528,-0.12207,-0.118562,-0,-8.760994*59 
11.61313        IM300_RAW_NMEA       iM300           $CPRCM,170111.865,0,239.828511,1.204012,-0.35367,170111.861*77 
11.71287        IM300_RAW_NMEA       iM300           $CPNVR,170112.065,-0.159409,0.004674,0,-0.305176,-0.366211,1.342774*69 
11.81371        IM300_RAW_NMEA       iM300           $CPNVG,170112.181,4221.52575,N,7105.16733,W,1,0,0,90,nan,nan,170112.165*61 
11.81380        IM300_RAW_NMEA       iM300           $GNGGA,170110.40,4221.52575,N,07105.16733,W,1,12,0.67,5.0,M,-33.2,M,,*7C 
11.81385        IM300_RAW_NMEA       iM300           $GNVTG,215.49,T,,M,0.327,N,0.605,K,A*2D 
11.81387        IM300_RAW_NMEA       iM300           $GNRMC,170110.40,A,4221.52575,N,07105.16733,W,0.327,215.49,110723,,,A*6D 
11.81408        IM300_RAW_NMEA       iM300           $CPIMU,170112.062,-0.366211,-0.305176,1.342774,-0.235327,0.176046,-8.752012*7C 
11.81410        IM300_RAW_NMEA       iM300           $CPRCM,170112.066,0,237.270733,1.7691,-1.225649,170112.062*4B 
11.91375        IM300_RAW_NMEA       iM300           $CPNVR,170112.267,0.161155,-0.048249,0,1.342774,4.45557,2.136232*5C 
11.91375        IM300_RAW_NMEA       iM300           $CPNVR,170112.267,0.161155,-0.048249,0,1.342774,4.45557,2.136232*5C 
12.01521        IM300_RAW_NMEA       iM300           $CPNVG,170112.381,4221.52574,N,7105.16734,W,1,0,0,90,nan,nan,170112.363*61 
12.01565        IM300_RAW_NMEA       iM300           $GNGGA,170110.60,4221.52574,N,07105.16734,W,1,12,0.67,5.0,M,-33.2,M,,*78 
12.01606        IM300_RAW_NMEA       iM300           $GNVTG,215.46,T,,M,0.291,N,0.539,K,A*22 
12.01625        IM300_RAW_NMEA       iM300           $GNRMC,170110.60,A,4221.52574,N,07105.16734,W,0.291,215.46,110723,,,A*6A 
12.01873        IM300_RAW_NMEA       iM300           $CPIMU,170112.264,4.45557,1.342774,2.136232,-0.059281,0.088023,-8.91728*78 
12.11546        IM300_RAW_NMEA       iM300           $CPNVR,170112.469,0.144637,-0.038616,0,-4.089358,1.464845,-0.488282*67 
12.21655        IM300_RAW_NMEA       iM300           $CPNVG,170112.582,4221.52573,N,7105.16736,W,1,0,0,90,nan,nan,170112.568*6C 
12.21714        IM300_RAW_NMEA       iM300           $GNGGA,170110.80,4221.52573,N,07105.16736,W,1,12,0.67,5.0,M,-33.2,M,,*73 
12.21780        IM300_RAW_NMEA       iM300           $GNVTG,215.78,T,,M,0.274,N,0.507,K,A*29 
12.21829        IM300_RAW_NMEA       iM300           $GNRMC,170110.80,A,4221.52573,N,07105.16736,W,0.274,215.78,110723,,,A*67 
12.22150        IM300_RAW_NMEA       iM300           $CPIMU,170112.466,1.464845,-4.089358,-0.488282,0,-0.079041,-8.780754*5D 
12.22183        IM300_RAW_NMEA       iM300           $CPRCM,170112.470,0,245.271689,0.140746,0.696561,170112.466*6D 
12.31705        IM300_RAW_NMEA       iM300           $CPIMU,170112.668,-3.17383,-2.685549,0.061035,-0.441912,0.079041,-8.477164*4E 
12.31736        IM300_RAW_NMEA       iM300           $GNGGA,170111.00,4221.52571,N,07105.16737,W,1,12,0.67,5.0,M,-33.2,M,,*79 
12.31798        IM300_RAW_NMEA       iM300           $GNVTG,211.54,T,,M,0.350,N,0.647,K,A*23 
12.31824        IM300_RAW_NMEA       iM300           $GNRMC,170111.00,A,4221.52571,N,07105.16737,W,0.350,211.54,110723,,,A*60 
12.32130        IM300_RAW_NMEA       iM300           $CPRCM,170112.671,0,244.297487,2.974808,-0.459797,170112.668*48 
12.32149        IM300_RAW_NMEA       iM300           $CPNVR,170112.671,0.117836,-0.077355,0,-2.685549,-3.17383,0.061035*58 
12.51865        IM300_RAW_NMEA       iM300           $GNGGA,170111.20,4221.52569,N,07105.16739,W,1,12,0.67,5.0,M,-33.2,M,,*7C 
12.51933        IM300_RAW_NMEA       iM300           $GNVTG,211.80,T,,M,0.350,N,0.648,K,A*25 
12.51965        IM300_RAW_NMEA       iM300           $GNRMC,170111.20,A,4221.52569,N,07105.16739,W,0.350,211.80,110723,,,A*6C 
12.52367        IM300_RAW_NMEA       iM300           $CPIMU,170112.870,2.380373,8.605963,1.831056,-0.422152,0.186825,-8.554409*79 
12.52398        IM300_RAW_NMEA       iM300           $CPRCM,170112.874,0,240.857212,2.386445,-1.126267,170112.870*48 
12.52430        IM300_RAW_NMEA       iM300           $CPNVR,170112.873,-0.156478,-0.089076,0,8.605963,2.380373,1.831056*45 
12.52462        IM300_RAW_NMEA       iM300           $CPNVG,170112.830,4221.52571,N,7105.16737,W,1,0,0,90,nan,nan,170112.821*6B 
12.71976        IM300_RAW_NMEA       iM300           $GNGGA,170111.40,4221.52568,N,07105.16740,W,1,12,0.67,4.9,M,-33.2,M,,*7D 
12.72044        IM300_RAW_NMEA       iM300           $GNVTG,214.55,T,,M,0.264,N,0.489,K,A*21 
12.72075        IM300_RAW_NMEA       iM300           $GNRMC,170111.40,A,4221.52568,N,07105.16740,W,0.264,214.55,110723,,,A*6E 
12.72456        IM300_RAW_NMEA       iM300           $CPNVG,170113.031,4221.52569,N,7105.16739,W,1,0,0,90,nan,nan,170113.020*6C 
12.82041        IM300_RAW_NMEA       iM300           $CPIMU,170113.123,-0.488282,6.591802,0.183106,0.186825,-0.107783,-9.152607*5C 
12.82069        IM300_RAW_NMEA       iM300           $CPRCM,170113.127,0,240.200304,-1.341299,0.234183,170113.123*41 
12.82100        IM300_RAW_NMEA       iM300           $CPNVR,170113.126,0.108193,0.082095,0,6.591802,-0.488282,0.183106*6C 
12.92159        IM300_RAW_NMEA       iM300           $CPNVG,170113.281,4221.52567,N,7105.16741,W,1,0,0,90,nan,nan,170113.274*67 
12.92269        IM300_RAW_NMEA       iM300           $GNGGA,170111.60,4221.52567,N,07105.16741,W,1,12,0.67,4.9,M,-33.2,M,,*71 
12.92343        IM300_RAW_NMEA       iM300           $GNVTG,,T,,M,0.212,N,0.392,K,A*34 
12.92381        IM300_RAW_NMEA       iM300           $GNRMC,170111.60,A,4221.52567,N,07105.16741,W,0.212,,110723,,,A*7A 
12.92843        IM300_RAW_NMEA       iM300           $CPALT,170113.263,1*67 
13.02202        IM300_RAW_NMEA       iM300           $CPIMU,170113.326,-5.187992,-12.32911,4.516605,0.470654,-0.098801,-9.222666*74 
13.02234        IM300_RAW_NMEA       iM300           $CPRCM,170113.330,0,238.783915,-2.351654,0.426692,170113.326*4C 
13.02261        IM300_RAW_NMEA       iM300           $CPNVR,170113.329,nan,nan,0,-12.32911,-5.187992,4.516605*4F 
13.12202        IM300_RAW_NMEA       iM300           $GNGGA,170111.80,4221.52565,N,07105.16742,W,1,12,0.67,4.9,M,-33.2,M,,*7E 
13.12267        IM300_RAW_NMEA       iM300           $GNVTG,209.09,T,,M,0.383,N,0.709,K,A*27 
13.12297        IM300_RAW_NMEA       iM300           $GNRMC,170111.80,A,4221.52565,N,07105.16742,W,0.383,209.09,110723,,,A*60 
13.22319        IM300_RAW_NMEA       iM300           $CPIMU,170113.575,0.427246,-8.117682,13.427744,-0.059281,0.274848,-8.27058*5B 
13.22352        IM300_RAW_NMEA       iM300           $CPRCM,170113.579,0,248.206201,0.228238,-1.280259,170113.575*4D 
13.22394        IM300_RAW_NMEA       iM300           $CPNVR,170113.578,0.194054,-0.034128,0,-8.117682,0.427246,13.427744*7D 
13.22437        IM300_RAW_NMEA       iM300           $CPNVG,170113.531,4221.52565,N,7105.16742,W,1,0,0,90,nan,nan,170113.524*68 
13.32330        IM300_RAW_NMEA       iM300           $GNGGA,170112.00,4221.52563,N,07105.16745,W,1,12,0.67,5.0,M,-33.2,M,,*7C 
13.32396        IM300_RAW_NMEA       iM300           $GNVTG,213.30,T,,M,0.504,N,0.934,K,A*2F 
13.32426        IM300_RAW_NMEA       iM300           $GNRMC,170112.00,A,4221.52563,N,07105.16745,W,0.504,213.30,110723,,,A*62 
13.42357        IM300_RAW_NMEA       iM300           $CPIMU,170113.780,7.50733,15.930187,22.583024,-0.059281,0.235327,-8.760994*4F 
13.42388        IM300_RAW_NMEA       iM300           $CPNVR,170113.782,-0.083601,0.245432,0,15.930187,7.50733,22.583024*57 
13.42419        IM300_RAW_NMEA       iM300           $CPNVG,170113.780,4221.52563,N,7105.16745,W,1,0,0,198.81023,nan,nan,170113.727*4F 
13.52461        IM300_RAW_NMEA       iM300           $GNGGA,170112.20,4221.52561,N,07105.16749,W,1,12,0.67,5.0,M,-33.2,M,,*70 
13.52526        IM300_RAW_NMEA       iM300           $GNVTG,219.72,T,,M,0.597,N,1.106,K,A*21 
13.52555        IM300_RAW_NMEA       iM300           $GNRMC,170112.20,A,4221.52561,N,07105.16749,W,0.597,219.72,110723,,,A*68 
13.52669        IM300_RAW_NMEA       iM300           $CPRBS,170113.871,13.930117,13.930117,13.930117,0*78 
13.62337        IM300_RAW_NMEA       iM300           $CPNVG,170113.980,4221.52561,N,7105.16749,W,1,0,0,190.971325,nan,nan,170113.929*74 
13.72415        IM300_RAW_NMEA       iM300           $GNRMC,170112.40,A,4221.52558,N,07105.16754,W,0.771,227.23,110723,,,A*6B 
13.72438        IM300_RAW_NMEA       iM300           $CPIMU,170114.029,0.610352,5.98145,33.44729,0.912566,-0.028742,-9.134643*48 
13.72440        IM300_RAW_NMEA       iM300           $CPRCM,170114.033,0,249.823715,-5.963098,0.356758,170114.029*40 
13.72442        IM300_RAW_NMEA       iM300           $CPNVR,170114.032,-0.058451,0.30151,0,5.98145,0.610352,33.44729*6B 
13.92576        IM300_RAW_NMEA       iM300           $GNGSA,A,3,66,82,81,67,68,83,73,,,,,,1.19,0.67,0.98*16 
13.92578        IM300_RAW_NMEA       iM300           $GNGSA,A,3,05,06,09,11,12,19,20,25,29,,,,1.19,0.67,0.98*1A 
13.92580        IM300_RAW_NMEA       iM300           $GNGGA,170112.60,4221.52554,N,07105.16760,W,1,12,0.67,5.0,M,-33.2,M,,*79 
13.92586        IM300_RAW_NMEA       iM300           $GNVTG,232.78,T,,M,0.993,N,1.838,K,A*2E 
13.92587        IM300_RAW_NMEA       iM300           $GNRMC,170112.60,A,4221.52554,N,07105.16760,W,0.993,232.78,110723,,,A*6A 
13.92609        IM300_RAW_NMEA       iM300           $CPIMU,170114.230,-14.160166,-18.554701,34.851099,0.598198,0.235327,-8.477164*64 
13.92611        IM300_RAW_NMEA       iM300           $CPNVR,170114.233,-0.291165,-0.269339,0,-18.554701,-14.160166,34.851099*7A 
13.92612        IM300_RAW_NMEA       iM300           $CPNVG,170114.230,4221.52561,N,7105.16749,W,1,0,0,312.77,nan,nan,170114.181*7D 
14.12650        IM300_RAW_NMEA       iM300           $GNGGA,170112.80,4221.52551,N,07105.16769,W,1,12,0.67,5.0,M,-33.2,M,,*7B 
14.12657        IM300_RAW_NMEA       iM300           $GNVTG,237.55,T,,M,1.229,N,2.276,K,A*2C 
14.12659        IM300_RAW_NMEA       iM300           $GNRMC,170112.80,A,4221.52551,N,07105.16769,W,1.229,237.55,110723,,,A*69 
14.12680        IM300_RAW_NMEA       iM300           $CPIMU,170114.432,-3.479006,-3.662112,27.099629,-0.657479,1.068852,-8.437644*43 
14.12682        IM300_RAW_NMEA       iM300           $CPRCM,170114.435,0,258.627322,-1.059177,-3.816995,170114.432*6C 
14.12684        IM300_RAW_NMEA       iM300           $CPNVR,170114.435,0.15201,0.487703,0,-3.662112,-3.479006,27.099629*49 
14.12685        IM300_RAW_NMEA       iM300           $CPNVG,170114.430,4221.52554,N,7105.1676,W,1,0,0,162.688445,nan,nan,170114.384*47 
14.32711        IM300_RAW_NMEA       iM300           $GNVTG,245.03,T,,M,1.134,N,2.100,K,A*27 
14.32714        IM300_RAW_NMEA       iM300           $GNRMC,170113.00,A,4221.52549,N,07105.16777,W,1.134,245.03,110723,,,A*6F 
14.32735        IM300_RAW_NMEA       iM300           $CPIMU,170114.634,11.779794,14.831554,23.254411,-0.32335,0.578438,-9.104105*74 
14.32737        IM300_RAW_NMEA       iM300           $CPRCM,170114.637,0,265.120096,-2.024679,-3.093475,170114.634*6C 
14.32739        IM300_RAW_NMEA       iM300           $CPNVR,170114.637,-0.591777,0.222581,0,14.831554,11.779794,23.254411*52 
14.42801        IM300_RAW_NMEA       iM300           $CPNVG,170114.680,4221.52551,N,7105.16769,W,1,0,0,249.387577,nan,nan,170114.634*7C 
14.52882        IM300_RAW_NMEA       iM300           $CPIMU,170114.837,-1.464845,-3.05176,21.972672,0.255087,-0.176046,-9.222666*78 
14.52885        IM300_RAW_NMEA       iM300           $CPRCM,170114.840,0,272.022485,-2.474149,-0.278348,170114.837*64 
14.52887        IM300_RAW_NMEA       iM300           $CPNVR,170114.840,-0.008299,0.583321,0,-3.05176,-1.464845,21.972672*66 
14.62972        IM300_RAW_NMEA       iM300           $CPNVG,170114.930,4221.52549,N,7105.16785,W,1,0,0,65.260176,nan,nan,170114.891*43 
14.62983        IM300_RAW_NMEA       iM300           $GNGSA,A,3,66,82,81,67,68,83,73,,,,,,1.19,0.67,0.98*16 
14.62985        IM300_RAW_NMEA       iM300           $GNGSA,A,3,05,06,09,11,12,19,20,25,29,,,,1.19,0.67,0.98*1A 
14.62990        IM300_RAW_NMEA       iM300           $GNGGA,170113.20,4221.52549,N,07105.16785,W,1,12,0.67,4.9,M,-33.2,M,,*73 
14.62996        IM300_RAW_NMEA       iM300           $GNVTG,253.33,T,,M,1.087,N,2.013,K,A*29 
14.62998        IM300_RAW_NMEA       iM300           $GNRMC,170113.20,A,4221.52549,N,07105.16785,W,1.087,253.33,110723,,,A*6D 
14.72990        IM300_RAW_NMEA       iM300           $GNVTG,255.76,T,,M,1.136,N,2.103,K,A*25 
14.72992        IM300_RAW_NMEA       iM300           $GNRMC,170113.40,A,4221.52547,N,07105.16794,W,1.136,255.76,110723,,,A*69 
14.73014        IM300_RAW_NMEA       iM300           $CPIMU,170115.038,-15.747082,-16.235363,19.409194,-0.353889,0.226345,-8.446626*4A 
14.73016        IM300_RAW_NMEA       iM300           $CPNVR,170115.040,0.507876,-0.234025,0,-16.235363,-15.747082,19.409194*50 
14.83078        IM300_RAW_NMEA       iM300           $CPNVG,170115.131,4221.52549,N,7105.16785,W,1,0,0,286.031432,nan,nan,170115.089*77 
14.93165        IM300_RAW_NMEA       iM300           $GNVTG,258.30,T,,M,1.094,N,2.027,K,A*24 
14.93168        IM300_RAW_NMEA       iM300           $GNRMC,170113.60,A,4221.52546,N,07105.16802,W,1.094,258.30,110723,,,A*6C 
14.93189        IM300_RAW_NMEA       iM300           $CPALT,170115.263,1*61 
14.93191        IM300_RAW_NMEA       iM300           $CPIMU,170115.241,7.385259,4.028323,13.122568,-0.794004,1.049092,-8.358603*4D 
14.93193        IM300_RAW_NMEA       iM300           $CPRCM,170115.244,0,286.047284,2.238809,-4.633525,170115.241*42 
14.93194        IM300_RAW_NMEA       iM300           $CPNVR,170115.244,-0.561681,-0.161393,0,4.028323,7.385259,13.122568*75 
15.03157        IM300_RAW_NMEA       iM300           $CPNVG,170115.330,4221.52549,N,7105.16785,W,1,0,0,140.500152,nan,nan,170115.292*71 
15.13234        IM300_RAW_NMEA       iM300           $GNGGA,170113.80,4221.52546,N,07105.16809,W,1,12,0.67,4.9,M,-33.2,M,,*7D 
15.13241        IM300_RAW_NMEA       iM300           $GNVTG,264.57,T,,M,0.976,N,1.808,K,A*28 
15.13243        IM300_RAW_NMEA       iM300           $GNRMC,170113.80,A,4221.52546,N,07105.16809,W,0.976,264.57,110723,,,A*63 
15.13264        IM300_RAW_NMEA       iM300           $CPIMU,170115.441,14.404307,11.169442,7.446294,-0.264069,-0.028742,-8.908298*52 
15.13266        IM300_RAW_NMEA       iM300           $CPNVR,170115.444,0.357985,0.434273,0,11.169442,14.404307,7.446294*41 
15.23454        IM300_RAW_NMEA       iM300           $CPNVG,170115.531,4221.52546,N,7105.16809,W,1,0,0,141.255614,nan,nan,170115.492*77 
15.33543        IM300_RAW_NMEA       iM300           $GNGSA,A,3,66,82,81,67,68,83,73,,,,,,1.19,0.67,0.98*16 
15.33575        IM300_RAW_NMEA       iM300           $GNGSA,A,3,05,06,09,11,12,19,20,25,29,,,,1.19,0.67,0.98*1A 
15.33605        IM300_RAW_NMEA       iM300           $GNGGA,170114.00,4221.52546,N,07105.16816,W,1,12,0.67,4.9,M,-33.2,M,,*7C 
15.33668        IM300_RAW_NMEA       iM300           $GNVTG,269.04,T,,M,0.967,N,1.791,K,A*2C 
15.33699        IM300_RAW_NMEA       iM300           $GNRMC,170114.00,A,4221.52546,N,07105.16816,W,0.967,269.04,110723,,,A*69 
15.33959        IM300_RAW_NMEA       iM300           $CPIMU,170115.644,-7.568365,2.502443,6.835942,-0.028742,-0.314368,-9.231648*7B 
15.33961        IM300_RAW_NMEA       iM300           $CPNVR,170115.647,0.314236,0.391609,0,2.502443,-7.568365,6.835942*66 
15.43552        IM300_RAW_NMEA       iM300           $CPNVG,170115.731,4221.52546,N,7105.16816,W,1,0,0,245.14348,nan,nan,170115.694*43 
15.53709        IM300_RAW_NMEA       iM300           $GNGGA,170114.20,4221.52546,N,07105.16823,W,1,12,0.67,4.9,M,-33.2,M,,*78 
15.53776        IM300_RAW_NMEA       iM300           $GNVTG,268.76,T,,M,0.949,N,1.757,K,A*2E 
15.53813        IM300_RAW_NMEA       iM300           $GNRMC,170114.20,A,4221.52546,N,07105.16823,W,0.949,268.76,110723,,,A*65 
15.54074        IM300_RAW_NMEA       iM300           $CPRBS,170115.871,15.319425,15.319425,15.319425,0*7D 
15.54080        IM300_RAW_NMEA       iM300           $CPIMU,170115.847,-3.540042,-6.652837,5.310062,-0.127544,0.32335,-8.584948*45 
15.54082        IM300_RAW_NMEA       iM300           $CPRCM,170115.850,0,300.014003,0.561384,-2.460324,170115.847*47 
15.54084        IM300_RAW_NMEA       iM300           $CPNVR,170115.849,-0.451384,0.209109,0,-6.652837,-3.540042,5.310062*6E 
15.63681        IM300_RAW_NMEA       iM300           $CPNVG,170115.931,4221.52546,N,7105.16823,W,1,0,0,261.186298,nan,nan,170115.896*77 
15.73773        IM300_RAW_NMEA       iM300           $GNTXT,01,01,00,txbuf alloc*61 
15.73810        IM300_RAW_NMEA       iM300           $GNGGA,170114.40,4221.52546,N,07105.16830,W,1,12,0.67,5.0,M,-33.2,M,,*74 
15.73876        IM300_RAW_NMEA       iM300           $GNVTG,270.68,T,,M,0.954,N,1.767,K,A*27 
15.73906        IM300_RAW_NMEA       iM300           $GNRMC,170114.40,A,4221.52546,N,07105.16830,W,0.954,270.68,110723,,,A*6B 
15.74016        IM300_RAW_NMEA       iM300           $CPIMU,170116.048,5.554203,-6.896978,5.126957,-0.314368,0.147304,-8.378363*51 
15.74018        IM300_RAW_NMEA       iM300           $CPNVR,170116.050,-0.482443,0.074804,0,-6.896978,5.554203,5.126957*4E 
15.83810        IM300_RAW_NMEA       iM300           $CPNVG,170116.180,4221.52546,N,7105.1683,W,1,0,0,151.178401,nan,nan,170116.148*4A 
15.93913        IM300_RAW_NMEA       iM300           $CPIMU,170116.300,-4.394534,4.882816,2.014162,-0.411373,0.186825,-8.976561*5C 
15.93947        IM300_RAW_NMEA       iM300           $CPRCM,170116.303,0,305.270566,1.743121,-1.813269,170116.300*4C 
15.93977        IM300_RAW_NMEA       iM300           $CPNVR,170116.303,-0.448987,0.032184,0,4.882816,-4.394534,2.014162*44 
15.94008        IM300_RAW_NMEA       iM300           $GNRMC,170114.60,A,4221.52547,N,07105.16837,W,0.875,274.10,110723,,,A*66 
16.04034        IM300_RAW_NMEA       iM300           $CPNVG,170116.381,4221.52546,N,7105.1683,W,1,0,0,265.9,nan,nan,170116.349*7C 
16.14078        IM300_RAW_NMEA       iM300           $CPIMU,170116.503,4.45557,6.958013,1.098634,-0.147304,0.039521,-8.91728*71 
16.14113        IM300_RAW_NMEA       iM300           $CPRCM,170116.506,0,303.883584,0.547945,0.194984,170116.503*69 
16.14145        IM300_RAW_NMEA       iM300           $CPNVR,170116.506,-0.316683,0.307473,0,6.958013,4.45557,1.098634*55 
16.14176        IM300_RAW_NMEA       iM300           $GNGGA,170114.80,4221.52547,N,07105.16843,W,1,12,0.67,4.9,M,-33.2,M,,*75 
16.14242        IM300_RAW_NMEA       iM300           $GNVTG,275.66,T,,M,0.858,N,1.589,K,A*23 
16.14273        IM300_RAW_NMEA       iM300           $GNRMC,170114.80,A,4221.52547,N,07105.16843,W,0.858,275.66,110723,,,A*64 
16.34173        IM300_RAW_NMEA       iM300           $CPIMU,170116.704,-0.976563,-2.136232,3.17383,-0.048503,-0.246105,-8.701713*6B 
16.34207        IM300_RAW_NMEA       iM300           $CPRCM,170116.706,0,303.432876,0.850308,2.291784,170116.704*6A 
16.34239        IM300_RAW_NMEA       iM300           $CPNVR,170116.706,0.427886,0.043342,0,-2.136232,-0.976563,3.17383*71 
16.34271        IM300_RAW_NMEA       iM300           $GNGGA,170115.00,4221.52548,N,07105.16849,W,1,12,0.67,4.9,M,-33.2,M,,*79 
16.34339        IM300_RAW_NMEA       iM300           $GNVTG,277.93,T,,M,0.836,N,1.549,K,A*2F 
16.34371        IM300_RAW_NMEA       iM300           $GNRMC,170115.00,A,4221.52548,N,07105.16849,W,0.836,277.93,110723,,,A*68 
16.34456        IM300_RAW_NMEA       iM300           $CPNVG,170116.631,4221.52547,N,7105.16843,W,1,0,0,225.845419,nan,nan,170116.603*74 
16.54278        IM300_RAW_NMEA       iM300           $CPNVG,170116.882,4221.52548,N,7105.16856,W,1,0,0,99.221747,nan,nan,170116.872*44 
16.54349        IM300_RAW_NMEA       iM300           $GNGSA,A,3,66,82,81,67,68,83,73,,,,,,1.19,0.67,0.98*16 
16.54380        IM300_RAW_NMEA       iM300           $GNGSA,A,3,05,06,09,11,12,19,20,25,29,,,,1.19,0.67,0.98*1A 
16.54412        IM300_RAW_NMEA       iM300           $GNGGA,170115.20,4221.52548,N,07105.16856,W,1,12,0.67,4.9,M,-33.2,M,,*75 
16.54478        IM300_RAW_NMEA       iM300           $GNVTG,277.87,T,,M,0.887,N,1.643,K,A*29 
16.54510        IM300_RAW_NMEA       iM300           $GNRMC,170115.20,A,4221.52548,N,07105.16856,W,0.887,277.87,110723,,,A*6B 
16.64294        IM300_RAW_NMEA       iM300           $CPIMU,170116.954,-4.45557,-0.976563,-0.671387,-0.450894,0.461672,-8.701713*6C 
16.64323        IM300_RAW_NMEA       iM300           $CPNVR,170116.957,0.450415,0.073127,0,-0.976563,-4.45557,-0.671387*54 
16.74368        IM300_RAW_NMEA       iM300           $GNGGA,170115.40,4221.52549,N,07105.16862,W,1,12,0.67,4.9,M,-33.2,M,,*75 
16.74435        IM300_RAW_NMEA       iM300           $GNVTG,277.60,T,,M,0.851,N,1.575,K,A*2D 
16.74467        IM300_RAW_NMEA       iM300           $GNRMC,170115.40,A,4221.52549,N,07105.16862,W,0.851,277.60,110723,,,A*69 
16.84453        IM300_RAW_NMEA       iM300           $CPIMU,170117.158,12.32911,8.056646,-0.915528,-0.255087,0.274848,-9.095123*5B 
16.84482        IM300_RAW_NMEA       iM300           $CPRCM,170117.161,0,305.536385,1.301152,-0.758631,170117.158*45 
