2.17052         GPS_NMEA_FROM_GPS    iGPS            $GPGGA,162543.000,4221.4995,N,07105.2967,W,2,10,0.84,8.3,M,-33.7,M,0000,0000*5B 
3.17334         GPS_NMEA_FROM_GPS    iGPS            $GPGSA,A,3,06,19,12,25,11,20,04,09,17,05,,,1.63,0.84,1.40*09 
4.17818         GPS_NMEA_FROM_GPS    iGPS            $GPGSA,A,3,06,19,12,25,11,20,04,09,17,05,,,1.63,0.84,1.40*09 
5.18133         GPS_NMEA_FROM_GPS    iGPS            $GPGSA,A,3,06,19,12,25,11,20,04,09,17,05,,,1.63,0.84,1.40*09 
6.18405         GPS_NMEA_FROM_GPS    iGPS            $GPGSA,A,3,06,19,12,25,11,20,04,09,17,05,,,1.63,0.84,1.40*09 
7.08662         GPS_NMEA_FROM_GPS    iGPS            $GPGGA,162548.000,4221.4995,N,07105.2967,W,2,10,0.84,8.3,M,-33.7,M,0000,0000*50 
8.08881         GPS_NMEA_FROM_GPS    iGPS            $GPGSA,A,3,06,19,12,25,11,20,04,09,17,05,,,1.63,0.84,1.40*09 
9.09084         GPS_NMEA_FROM_GPS    iGPS            $GPGSA,A,3,06,19,12,25,11,20,04,09,17,05,,,1.64,0.84,1.40*0E 
10.09390        GPS_NMEA_FROM_GPS    iGPS            $GPGGA,162551.000,4221.4995,N,07105.2967,W,2,10,0.84,8.3,M,-33.7,M,0000,0000*58 
11.09667        GPS_NMEA_FROM_GPS    iGPS            $GPGGA,162552.000,4221.4995,N,07105.2967,W,2,10,0.84,8.3,M,-33.7,M,0000,0000*5B 
11.09667        GPS_NMEA_FROM_GPS    iGPS            $GPGGA,162552.000,4221.4995,N,07105.2967,W,2,10,0.84,8.3,M,-33.7,M,0000,0000*5B 
12.10024        GPS_NMEA_FROM_GPS    iGPS            $GPGGA,162553.000,4221.4995,N,07105.2967,W,2,10,0.84,8.3,M,-33.7,M,0000,0000*5A 
13.10301        GPS_NMEA_FROM_GPS    iGPS            $GPGGA,162554.000,4221.4995,N,07105.2967,W,2,10,0.84,8.3,M,-33.7,M,0000,0000*5D 
14.10548        GPS_NMEA_FROM_GPS    iGPS            $GPGGA,162555.000,4221.4995,N,07105.2967,W,2,10,0.84,8.3,M,-33.7,M,0000,0000*5C 
15.10833        GPS_NMEA_FROM_GPS    iGPS            $GPGGA,162556.000,4221.4995,N,07105.2967,W,2,10,0.84,8.3,M,-33.7,M,0000,0000*5F 
16.11155        GPS_NMEA_FROM_GPS    iGPS            $GPGSA,A,3,06,19,12,25,11,20,04,09,17,05,,,1.64,0.84,1.40*0E 
17.11470        GPS_NMEA_FROM_GPS    iGPS            $GPGGA,162558.000,4221.4995,N,07105.2967,W,2,10,0.84,8.3,M,-33.7,M,0000,0000*51 
18.11800        GPS_NMEA_FROM_GPS    iGPS            $GPGGA,162559.000,4221.4995,N,07105.2967,W,2,10,0.84,8.3,M,-33.7,M,0000,0000*50 
19.12006        GPS_NMEA_FROM_GPS    iGPS            $GPGGA,162600.000,4221.4995,N,07105.2967,W,2,10,0.84,8.3,M,-33.7,M,0000,0000*5F 
20.12249        GPS_NMEA_FROM_GPS    iGPS            $GPGSA,A,3,06,19,12,25,11,20,04,09,17,05,,,1.64,0.84,1.40*0E 
21.02854        GPS_NMEA_FROM_GPS    iGPS            $GPGGA,162602.000,4221.4995,N,07105.2967,W,2,10,0.84,8.3,M,-33.7,M,0000,0000*5D 
22.03116        GPS_NMEA_FROM_GPS    iGPS            $GPGGA,162603.000,4221.4995,N,07105.2967,W,2,10,0.84,8.3,M,-33.7,M,0000,0000*5C 
23.13362        GPS_NMEA_FROM_GPS    iGPS            $GPGSA,A,3,06,19,12,25,11,20,04,09,17,05,,,1.64,0.84,1.40*0E 
24.13659        GPS_NMEA_FROM_GPS    iGPS            $GPGSA,A,3,06,19,12,25,11,20,04,09,17,05,,,1.64,0.84,1.40*0E 
25.13943        GPS_NMEA_FROM_GPS    iGPS            $GPGGA,162606.000,4221.4995,N,07105.2967,W,2,10,0.84,8.3,M,-33.7,M,0000,0000*59 
26.14241        GPS_NMEA_FROM_GPS    iGPS            $GPGGA,162607.000,4221.4995,N,07105.2967,W,2,10,0.84,8.3,M,-33.7,M,0000,0000*58 
27.14551        GPS_NMEA_FROM_GPS    iGPS            $GPGSA,A,3,06,19,12,25,11,20,04,09,17,05,,,1.64,0.84,1.40*0E 
28.04773        GPS_NMEA_FROM_GPS    iGPS            $GPGGA,162609.000,4221.4995,N,07105.2967,W,2,10,0.84,8.4,M,-33.7,M,0000,0000*51 
29.15095        GPS_NMEA_FROM_GPS    iGPS            $GPGSA,A,3,06,19,12,25,11,20,04,09,17,05,,,1.64,0.84,1.40*0E 
30.15388        GPS_NMEA_FROM_GPS    iGPS            $GPGSA,A,3,06,19,12,25,11,20,04,09,17,05,,,1.64,0.84,1.40*0E 
31.15625        GPS_NMEA_FROM_GPS    iGPS            $GPGSA,A,3,06,19,12,25,11,20,04,09,17,05,,,1.64,0.84,1.40*0E 
32.15861        GPS_NMEA_FROM_GPS    iGPS            $GPGSA,A,3,06,19,12,25,11,20,04,09,17,05,,,1.64,0.84,1.41*0F 
33.16082        GPS_NMEA_FROM_GPS    iGPS            $GPGSA,A,3,06,19,12,25,11,20,04,09,17,05,,,1.64,0.84,1.41*0F 
34.06306        GPS_NMEA_FROM_GPS    iGPS            $GPGGA,162615.000,4221.4995,N,07105.2967,W,2,10,0.84,8.4,M,-33.7,M,0000,0000*5C 
35.06604        GPS_NMEA_FROM_GPS    iGPS            $GPGSA,A,3,06,19,12,25,11,20,04,09,17,05,,,1.64,0.84,1.41*0F 
36.06893        GPS_NMEA_FROM_GPS    iGPS            $GPGGA,162617.000,4221.4995,N,07105.2968,W,2,10,0.84,8.3,M,-33.7,M,0000,0000*56 
36.06893        GPS_NMEA_FROM_GPS    iGPS            $GPGGA,162617.000,4221.4995,N,07105.2968,W,2,10,0.84,8.3,M,-33.7,M,0000,0000*56 
37.07215        GPS_NMEA_FROM_GPS    iGPS            $GPGGA,162618.000,4221.4995,N,07105.2968,W,2,10,0.84,8.3,M,-33.7,M,0000,0000*59 
37.07215        GPS_NMEA_FROM_GPS    iGPS            $GPGGA,162618.000,4221.4995,N,07105.2968,W,2,10,0.84,8.3,M,-33.7,M,0000,0000*59 
38.07517        GPS_NMEA_FROM_GPS    iGPS            $GPGGA,162619.000,4221.4995,N,07105.2968,W,2,10,0.84,8.3,M,-33.7,M,0000,0000*58 
39.17792        GPS_NMEA_FROM_GPS    iGPS            $GPGSA,A,3,06,19,12,25,11,20,04,09,17,05,,,1.64,0.84,1.41*0F 
40.18153        GPS_NMEA_FROM_GPS    iGPS            $GPGSA,A,3,06,19,12,25,11,20,04,09,17,05,,,1.64,0.84,1.41*0F 
41.08400        GPS_NMEA_FROM_GPS    iGPS            $GPGGA,162622.000,4221.4995,N,07105.2968,W,2,10,0.84,8.3,M,-33.7,M,0000,0000*50 
42.08711        GPS_NMEA_FROM_GPS    iGPS            $GPGGA,162623.000,4221.4995,N,07105.2968,W,2,10,0.84,8.3,M,-33.7,M,0000,0000*51 
43.09031        GPS_NMEA_FROM_GPS    iGPS            $GPGSA,A,3,06,19,12,25,11,20,04,09,17,05,,,1.64,0.84,1.41*0F 
44.19331        GPS_NMEA_FROM_GPS    iGPS            $GPGSA,A,3,06,19,12,25,11,20,04,09,17,05,,,1.64,0.84,1.41*0F 
45.09564        GPS_NMEA_FROM_GPS    iGPS            $GPGGA,162626.000,4221.4995,N,07105.2968,W,2,10,0.84,8.3,M,-33.7,M,0000,0000*54 
46.09793        GPS_NMEA_FROM_GPS    iGPS            $GPGGA,162627.000,4221.4995,N,07105.2968,W,2,10,0.84,8.3,M,-33.7,M,0000,0000*55 
47.10039        GPS_NMEA_FROM_GPS    iGPS            $GPGGA,162628.000,4221.4995,N,07105.2968,W,2,10,0.84,8.3,M,-33.7,M,0000,0000*5A 
48.10298        GPS_NMEA_FROM_GPS    iGPS            $GPGGA,162629.000,4221.4995,N,07105.2968,W,2,10,0.84,8.3,M,-33.7,M,0000,0000*5B 
49.10570        GPS_NMEA_FROM_GPS    iGPS            $GPGGA,162630.000,4221.4995,N,07105.2968,W,2,10,0.84,8.3,M,-33.7,M,0000,0000*53 
50.10813        GPS_NMEA_FROM_GPS    iGPS            $GPGGA,162631.000,4221.4995,N,07105.2968,W,2,10,0.84,8.3,M,-33.7,M,0000,0000*52 
51.11070        GPS_NMEA_FROM_GPS    iGPS            $GPGGA,162632.000,4221.4995,N,07105.2969,W,2,10,0.84,8.3,M,-33.7,M,0000,0000*50 
52.11320        GPS_NMEA_FROM_GPS    iGPS            $GPGSA,A,3,06,19,12,25,11,20,04,09,17,05,,,1.64,0.84,1.41*0F 
53.11522        GPS_NMEA_FROM_GPS    iGPS            $GPGGA,162634.000,4221.4995,N,07105.2969,W,2,10,0.84,8.3,M,-33.7,M,0000,0000*56 
54.11754        GPS_NMEA_FROM_GPS    iGPS            $GPGSA,A,3,06,19,12,25,11,20,04,09,17,05,,,1.64,0.84,1.41*0F 
55.11967        GPS_NMEA_FROM_GPS    iGPS            $GPGGA,162636.000,4221.4995,N,07105.2969,W,2,10,0.84,8.3,M,-33.7,M,0000,0000*54 
56.12292        GPS_NMEA_FROM_GPS    iGPS            $GPGGA,162637.000,4221.4995,N,07105.2969,W,2,10,0.84,8.3,M,-33.7,M,0000,0000*55 
57.12622        GPS_NMEA_FROM_GPS    iGPS            $GPGSA,A,3,06,19,12,25,11,20,04,09,17,05,,,1.64,0.84,1.41*0F 
58.02849        GPS_NMEA_FROM_GPS    iGPS            $GPGGA,162639.000,4221.4995,N,07105.2969,W,2,10,0.84,8.2,M,-33.7,M,0000,0000*5A 
59.13118        GPS_NMEA_FROM_GPS    iGPS            $GPGSA,A,3,06,19,12,25,11,20,04,09,17,05,,,1.64,0.84,1.41*0F 
60.03349        GPS_NMEA_FROM_GPS    iGPS            $GPGGA,162641.000,4221.4995,N,07105.2969,W,2,10,0.84,8.2,M,-33.7,M,0000,0000*55 
61.13669        GPS_NMEA_FROM_GPS    iGPS            $GPGSA,A,3,06,19,12,25,11,20,04,09,17,05,,,1.64,0.84,1.41*0F 
62.14052        GPS_NMEA_FROM_GPS    iGPS            $GPGSA,A,3,06,19,12,25,11,20,04,09,17,05,,,1.17,0.84,0.82*05 
63.14421        GPS_NMEA_FROM_GPS    iGPS            $GPGGA,162644.000,4221.4995,N,07105.2969,W,2,10,0.84,8.2,M,-33.7,M,0000,0000*50 
64.14703        GPS_NMEA_FROM_GPS    iGPS            $GPGGA,162645.000,4221.4995,N,07105.2969,W,2,10,0.84,8.2,M,-33.7,M,0000,0000*51 
65.14988        GPS_NMEA_FROM_GPS    iGPS            $GPGSA,A,3,06,19,12,25,11,20,04,09,17,05,,,1.64,0.84,1.41*0F 
66.15269        GPS_NMEA_FROM_GPS    iGPS            $GPGSA,A,3,06,19,12,25,11,20,04,09,17,05,,,1.64,0.84,1.41*0F 
67.15571        GPS_NMEA_FROM_GPS    iGPS            $GPGGA,162648.000,4221.4995,N,07105.2970,W,2,10,0.84,8.2,M,-33.7,M,0000,0000*54 
68.15858        GPS_NMEA_FROM_GPS    iGPS            $GPGGA,162649.000,4221.4995,N,07105.2970,W,2,10,0.84,8.2,M,-33.7,M,0000,0000*55 
69.16148        GPS_NMEA_FROM_GPS    iGPS            $GPGSA,A,3,06,19,12,25,11,20,04,09,17,05,,,1.64,0.84,1.41*0F 
70.06419        GPS_NMEA_FROM_GPS    iGPS            $GPGGA,162651.000,4221.4994,N,07105.2970,W,2,10,0.84,8.2,M,-33.7,M,0000,0000*5D 
71.06675        GPS_NMEA_FROM_GPS    iGPS            $GPGGA,162652.000,4221.4994,N,07105.2970,W,2,10,0.84,8.2,M,-33.7,M,0000,0000*5E 
72.16964        GPS_NMEA_FROM_GPS    iGPS            $GPGSA,A,3,06,19,12,25,11,20,04,09,17,05,,,1.64,0.84,1.41*0F 
73.07201        GPS_NMEA_FROM_GPS    iGPS            $GPGGA,162654.000,4221.4994,N,07105.2971,W,2,10,0.84,8.2,M,-33.7,M,0000,0000*59 
74.17506        GPS_NMEA_FROM_GPS    iGPS            $GPGGA,162655.000,4221.4994,N,07105.2971,W,2,10,0.84,8.3,M,-33.7,M,0000,0000*59 
75.07766        GPS_NMEA_FROM_GPS    iGPS            $GPGGA,162656.000,4221.4994,N,07105.2971,W,2,10,0.84,8.3,M,-33.7,M,0000,0000*5A 
76.18072        GPS_NMEA_FROM_GPS    iGPS            $GPGSA,A,3,06,19,12,25,11,20,04,09,17,05,,,1.65,0.84,1.41*0E 
77.08360        GPS_NMEA_FROM_GPS    iGPS            $GPGGA,162658.000,4221.4994,N,07105.2972,W,2,10,0.84,8.3,M,-33.7,M,0000,0000*57 
78.08647        GPS_NMEA_FROM_GPS    iGPS            $GPGGA,162659.000,4221.4993,N,07105.2973,W,2,10,0.84,8.2,M,-33.7,M,0000,0000*51 
79.08988        GPS_NMEA_FROM_GPS    iGPS            $GPGSA,A,3,06,19,12,25,11,20,04,09,17,05,,,1.65,0.84,1.41*0E 
80.09316        GPS_NMEA_FROM_GPS    iGPS            $GPGGA,162701.000,4221.4993,N,07105.2975,W,2,10,0.84,8.2,M,-33.7,M,0000,0000*5B 
81.09778        GPS_NMEA_FROM_GPS    iGPS            $GPGGA,162702.000,4221.4993,N,07105.2977,W,2,10,0.84,8.2,M,-33.7,M,0000,0000*5A 
82.10211        GPS_NMEA_FROM_GPS    iGPS            $GPGGA,162703.000,4221.4993,N,07105.2979,W,2,10,0.84,8.2,M,-33.7,M,0000,0000*55 
82.10211        GPS_NMEA_FROM_GPS    iGPS            $GPGGA,162703.000,4221.4993,N,07105.2979,W,2,10,0.84,8.2,M,-33.7,M,0000,0000*55 
83.10509        GPS_NMEA_FROM_GPS    iGPS            $GPGGA,162704.000,4221.4988,N,07105.2988,W,2,10,0.84,7.4,M,-33.7,M,0000,0000*5F 
84.10859        GPS_NMEA_FROM_GPS    iGPS            $GPGSA,A,3,06,19,12,25,11,20,04,09,17,05,,,1.17,0.84,0.82*05 
85.11102        GPS_NMEA_FROM_GPS    iGPS            $GPGGA,162706.000,4221.4980,N,07105.3005,W,2,10,0.84,7.0,M,-33.7,M,0000,0000*5C 
86.11359        GPS_NMEA_FROM_GPS    iGPS            $GPGGA,162707.000,4221.4979,N,07105.3009,W,2,10,0.84,7.0,M,-33.7,M,0000,0000*57 
87.11655        GPS_NMEA_FROM_GPS    iGPS            $GPGGA,162708.000,4221.4978,N,07105.3014,W,2,10,0.84,7.0,M,-33.7,M,0000,0000*55 
88.11964        GPS_NMEA_FROM_GPS    iGPS            $GPGGA,162709.000,4221.4976,N,07105.3020,W,2,10,0.84,7.0,M,-33.7,M,0000,0000*5D 
89.12292        GPS_NMEA_FROM_GPS    iGPS            $GPGGA,162710.000,4221.4968,N,07105.3029,W,2,10,0.84,7.4,M,-33.7,M,0000,0000*57 
90.12586        GPS_NMEA_FROM_GPS    iGPS            $GPGSA,A,3,06,19,12,25,11,20,04,09,17,05,,,1.65,0.84,1.42*0D 
91.12882        GPS_NMEA_FROM_GPS    iGPS            $GPGGA,162712.000,4221.4963,N,07105.3047,W,2,09,0.95,7.5,M,-33.7,M,0000,0000*5F 
92.13258        GPS_NMEA_FROM_GPS    iGPS            $GPGGA,162713.000,4221.4961,N,07105.3055,W,2,10,0.84,7.5,M,-33.7,M,0000,0000*57 
93.13551        GPS_NMEA_FROM_GPS    iGPS            $GPGGA,162714.000,4221.4958,N,07105.3062,W,2,10,0.84,7.4,M,-33.7,M,0000,0000*5F 
94.13955        GPS_NMEA_FROM_GPS    iGPS            $GPGGA,162715.000,4221.4955,N,07105.3068,W,2,10,0.84,7.2,M,-33.7,M,0000,0000*5F 
95.14247        GPS_NMEA_FROM_GPS    iGPS            $GPGGA,162716.000,4221.4953,N,07105.3073,W,2,10,0.84,6.9,M,-33.7,M,0000,0000*5A 
96.14556        GPS_NMEA_FROM_GPS    iGPS            $GPGSA,A,3,06,19,12,25,11,20,04,09,17,05,,,1.65,0.84,1.42*0D 
97.14830        GPS_NMEA_FROM_GPS    iGPS            $GPGGA,162718.000,4221.4948,N,07105.3085,W,2,10,0.84,6.3,M,-33.7,M,0000,0000*5D 
98.15092        GPS_NMEA_FROM_GPS    iGPS            $GPGGA,162719.000,4221.4946,N,07105.3089,W,2,10,0.84,6.0,M,-33.7,M,0000,0000*5D 
99.05292        GPS_NMEA_FROM_GPS    iGPS            $GPGGA,162720.000,4221.4945,N,07105.3095,W,2,10,0.84,6.0,M,-33.7,M,0000,0000*59 
100.05582       GPS_NMEA_FROM_GPS    iGPS            $GPGGA,162721.000,4221.4943,N,07105.3100,W,2,10,0.84,5.9,M,-33.7,M,0000,0000*59 
101.05889       GPS_NMEA_FROM_GPS    iGPS            $GPGGA,162722.000,4221.4942,N,07105.3104,W,2,10,0.84,5.6,M,-33.7,M,0000,0000*50 
102.06234       GPS_NMEA_FROM_GPS    iGPS            $GPGGA,162723.000,4221.4941,N,07105.3109,W,2,10,0.84,5.4,M,-33.7,M,0000,0000*5D 
103.06527       GPS_NMEA_FROM_GPS    iGPS            $GPGGA,162724.000,4221.4941,N,07105.3114,W,2,10,0.84,5.4,M,-33.7,M,0000,0000*56 
104.06892       GPS_NMEA_FROM_GPS    iGPS            $GPGGA,162725.000,4221.4939,N,07105.3121,W,2,10,0.84,5.2,M,-33.7,M,0000,0000*58 
105.07197       GPS_NMEA_FROM_GPS    iGPS            $GPGGA,162726.000,4221.4935,N,07105.3128,W,2,09,0.95,5.4,M,-33.7,M,0000,0000*50 
106.07498       GPS_NMEA_FROM_GPS    iGPS            $GPGGA,162727.000,4221.4934,N,07105.3133,W,2,10,0.84,5.6,M,-33.7,M,0000,0000*50 
107.17863       GPS_NMEA_FROM_GPS    iGPS            $GPGSA,A,3,06,19,12,25,11,20,04,09,17,05,,,1.65,0.84,1.42*0D 
108.08194       GPS_NMEA_FROM_GPS    iGPS            $GPGGA,162729.000,4221.4930,N,07105.3141,W,2,10,0.84,6.2,M,-33.7,M,0000,0000*58 
109.08485       GPS_NMEA_FROM_GPS    iGPS            $GPGGA,162730.000,4221.4928,N,07105.3144,W,2,10,0.84,6.6,M,-33.7,M,0000,0000*58 
110.18771       GPS_NMEA_FROM_GPS    iGPS            $GPGSA,A,3,06,19,12,25,11,20,04,09,17,05,,,1.65,0.84,1.42*0D 
111.08986       GPS_NMEA_FROM_GPS    iGPS            $GPGGA,162732.000,4221.4919,N,07105.3150,W,2,10,0.84,6.9,M,-33.7,M,0000,0000*52 
112.09270       GPS_NMEA_FROM_GPS    iGPS            $GPGGA,162733.000,4221.4916,N,07105.3151,W,2,10,0.84,7.0,M,-33.7,M,0000,0000*55 
113.09555       GPS_NMEA_FROM_GPS    iGPS            $GPGGA,162734.000,4221.4914,N,07105.3150,W,2,10,0.84,7.1,M,-33.7,M,0000,0000*50 
114.19920       GPS_NMEA_FROM_GPS    iGPS            $GPGSA,A,3,06,19,12,25,11,20,04,09,17,05,,,1.65,0.84,1.42*0D 
115.10268       GPS_NMEA_FROM_GPS    iGPS            $GPGGA,162736.000,4221.4910,N,07105.3151,W,2,10,0.84,7.3,M,-33.7,M,0000,0000*55 
116.10558       GPS_NMEA_FROM_GPS    iGPS            $GPGGA,162737.000,4221.4909,N,07105.3150,W,2,10,0.84,7.3,M,-33.7,M,0000,0000*5D 
117.10857       GPS_NMEA_FROM_GPS    iGPS            $GPGGA,162738.000,4221.4908,N,07105.3149,W,2,10,0.84,7.2,M,-33.7,M,0000,0000*5A 
118.11150       GPS_NMEA_FROM_GPS    iGPS            $GPGSA,A,3,06,19,12,25,11,20,04,09,17,05,,,1.65,0.84,1.42*0D 
119.11443       GPS_NMEA_FROM_GPS    iGPS            $GPGGA,162740.000,4221.4906,N,07105.3148,W,2,09,0.95,7.2,M,-33.7,M,0000,0000*52 
120.11731       GPS_NMEA_FROM_GPS    iGPS            $GPGGA,162741.000,4221.4906,N,07105.3149,W,2,10,0.84,7.1,M,-33.7,M,0000,0000*59 
121.12021       GPS_NMEA_FROM_GPS    iGPS            $GPGGA,162742.000,4221.4906,N,07105.3149,W,2,10,0.84,7.1,M,-33.7,M,0000,0000*5A 
122.12327       GPS_NMEA_FROM_GPS    iGPS            $GPGSA,A,3,06,19,12,25,11,20,09,17,05,,,,1.87,0.95,1.61*04 
123.12570       GPS_NMEA_FROM_GPS    iGPS            $GPGSA,A,3,06,19,12,25,11,20,04,09,17,05,,,1.65,0.84,1.42*0D 
124.12812       GPS_NMEA_FROM_GPS    iGPS            $GPGSA,A,3,06,19,12,25,11,20,04,09,17,05,,,1.65,0.84,1.42*0D 
125.13073       GPS_NMEA_FROM_GPS    iGPS            $GPGSA,A,3,06,19,12,25,11,20,04,09,17,05,,,1.65,0.84,1.42*0D 
126.03332       GPS_NMEA_FROM_GPS    iGPS            $GPGGA,162747.000,4221.4906,N,07105.3155,W,2,10,0.84,6.9,M,-33.7,M,0000,0000*5B 
127.13668       GPS_NMEA_FROM_GPS    iGPS            $GPGSA,A,3,06,19,12,25,11,20,04,09,17,05,,,1.65,0.84,1.42*0D 
128.14056       GPS_NMEA_FROM_GPS    iGPS            $GPGGA,162749.000,4221.4907,N,07105.3158,W,2,10,0.84,6.8,M,-33.7,M,0000,0000*58 
129.14350       GPS_NMEA_FROM_GPS    iGPS            $GPGGA,162750.000,4221.4907,N,07105.3160,W,2,10,0.84,6.8,M,-33.7,M,0000,0000*5B 
130.14653       GPS_NMEA_FROM_GPS    iGPS            $GPGGA,162751.000,4221.4908,N,07105.3162,W,2,10,0.84,6.7,M,-33.7,M,0000,0000*58 
131.14938       GPS_NMEA_FROM_GPS    iGPS            $GPGGA,162752.000,4221.4908,N,07105.3163,W,2,10,0.84,6.7,M,-33.7,M,0000,0000*5A 
132.05265       GPS_NMEA_FROM_GPS    iGPS            $GPGGA,162753.000,4221.4909,N,07105.3165,W,2,10,0.84,6.7,M,-33.7,M,0000,0000*5C 
133.05565       GPS_NMEA_FROM_GPS    iGPS            $GPGGA,162754.000,4221.4909,N,07105.3167,W,2,10,0.84,6.6,M,-33.7,M,0000,0000*58 
134.05885       GPS_NMEA_FROM_GPS    iGPS            $GPGGA,162755.000,4221.4909,N,07105.3167,W,2,10,0.84,6.6,M,-33.7,M,0000,0000*59 
135.16228       GPS_NMEA_FROM_GPS    iGPS            $GPGSA,A,3,06,19,12,25,11,20,04,09,17,05,,,1.65,0.84,1.42*0D 
136.16471       GPS_NMEA_FROM_GPS    iGPS            $GPGGA,162757.000,4221.4909,N,07105.3168,W,2,10,0.84,6.5,M,-33.7,M,0000,0000*57 
137.16741       GPS_NMEA_FROM_GPS    iGPS            $GPGSA,A,3,06,19,12,25,11,20,04,09,17,05,,,1.17,0.84,0.82*05 
138.17028       GPS_NMEA_FROM_GPS    iGPS            $GPGSA,A,3,06,19,12,25,11,20,04,09,17,05,,,1.65,0.84,1.42*0D 
139.07307       GPS_NMEA_FROM_GPS    iGPS            $GPGGA,162800.000,4221.4906,N,07105.3169,W,2,10,0.84,6.5,M,-33.7,M,0000,0000*54 
140.17669       GPS_NMEA_FROM_GPS    iGPS            $GPGSA,A,3,06,19,12,25,11,20,04,09,17,05,,,1.65,0.84,1.42*0D 
141.17934       GPS_NMEA_FROM_GPS    iGPS            $GPGSA,A,3,06,19,12,25,11,20,04,09,17,05,,,1.66,0.84,1.43*0F 
142.18244       GPS_NMEA_FROM_GPS    iGPS            $GPGSA,A,3,06,19,12,25,11,20,04,09,17,05,,,1.65,0.84,1.42*0D 
143.08493       GPS_NMEA_FROM_GPS    iGPS            $GPGGA,162804.000,4221.4895,N,07105.3172,W,2,10,0.84,6.4,M,-33.7,M,0000,0000*50 
144.08777       GPS_NMEA_FROM_GPS    iGPS            $GPGGA,162805.000,4221.4892,N,07105.3174,W,2,10,0.84,6.5,M,-33.7,M,0000,0000*51 
145.09083       GPS_NMEA_FROM_GPS    iGPS            $GPGGA,162806.000,4221.4890,N,07105.3175,W,2,10,0.84,6.5,M,-33.7,M,0000,0000*51 
146.09373       GPS_NMEA_FROM_GPS    iGPS            $GPGGA,162807.000,4221.4886,N,07105.3176,W,2,10,0.84,6.5,M,-33.7,M,0000,0000*54 
147.09685       GPS_NMEA_FROM_GPS    iGPS            $GPGGA,162808.000,4221.4884,N,07105.3176,W,2,10,0.84,6.3,M,-33.7,M,0000,0000*5F 
148.09954       GPS_NMEA_FROM_GPS    iGPS            $GPGGA,162809.000,4221.4881,N,07105.3177,W,2,10,0.84,6.2,M,-33.7,M,0000,0000*5B 
149.20215       GPS_NMEA_FROM_GPS    iGPS            $GPGSA,A,3,06,19,12,25,11,20,04,09,17,05,,,1.66,0.84,1.43*0F 
150.10435       GPS_NMEA_FROM_GPS    iGPS            $GPGGA,162811.000,4221.4875,N,07105.3178,W,2,10,0.84,5.9,M,-33.7,M,0000,0000*5E 
151.10702       GPS_NMEA_FROM_GPS    iGPS            $GPGGA,162812.000,4221.4872,N,07105.3178,W,2,10,0.84,5.8,M,-33.7,M,0000,0000*5B 
152.11039       GPS_NMEA_FROM_GPS    iGPS            $GPGGA,162813.000,4221.4868,N,07105.3178,W,2,10,0.84,5.7,M,-33.7,M,0000,0000*5E 
153.11511       GPS_NMEA_FROM_GPS    iGPS            $GPGGA,162814.000,4221.4865,N,07105.3178,W,2,10,0.84,5.6,M,-33.7,M,0000,0000*55 
154.11808       GPS_NMEA_FROM_GPS    iGPS            $GPGGA,162815.000,4221.4862,N,07105.3178,W,2,10,0.84,5.4,M,-33.7,M,0000,0000*51 
155.12103       GPS_NMEA_FROM_GPS    iGPS            $GPGGA,162816.000,4221.4861,N,07105.3179,W,2,10,0.84,5.3,M,-33.7,M,0000,0000*57 
156.12391       GPS_NMEA_FROM_GPS    iGPS            $GPGGA,162817.000,4221.4859,N,07105.3180,W,2,10,0.84,5.2,M,-33.7,M,0000,0000*5A 
157.12720       GPS_NMEA_FROM_GPS    iGPS            $GPGGA,162818.000,4221.4856,N,07105.3180,W,2,10,0.84,5.1,M,-33.7,M,0000,0000*59 
158.13029       GPS_NMEA_FROM_GPS    iGPS            $GPGGA,162819.000,4221.4853,N,07105.3180,W,2,10,0.84,4.8,M,-33.7,M,0000,0000*55 
159.13329       GPS_NMEA_FROM_GPS    iGPS            $GPGGA,162820.000,4221.4851,N,07105.3179,W,2,10,0.84,4.7,M,-33.7,M,0000,0000*54 
160.03652       GPS_NMEA_FROM_GPS    iGPS            $GPGGA,162821.000,4221.4848,N,07105.3178,W,2,10,0.84,4.4,M,-33.7,M,0000,0000*5F 
161.13949       GPS_NMEA_FROM_GPS    iGPS            $GPGGA,162822.000,4221.4846,N,07105.3177,W,2,10,0.84,4.1,M,-33.7,M,0000,0000*58 
162.14193       GPS_NMEA_FROM_GPS    iGPS            $GPGGA,162823.000,4221.4844,N,07105.3176,W,2,10,0.84,4.0,M,-33.7,M,0000,0000*5B 
163.14442       GPS_NMEA_FROM_GPS    iGPS            $GPGGA,162824.000,4221.4843,N,07105.3176,W,2,10,0.84,3.8,M,-33.7,M,0000,0000*54 
164.14734       GPS_NMEA_FROM_GPS    iGPS            $GPGSA,A,3,06,19,12,25,11,20,04,09,17,05,,,1.66,0.84,1.43*0F 
165.04982       GPS_NMEA_FROM_GPS    iGPS            $GPGGA,162826.000,4221.4843,N,07105.3175,W,2,10,0.84,3.3,M,-33.7,M,0000,0000*5E 
166.05281       GPS_NMEA_FROM_GPS    iGPS            $GPGGA,162827.000,4221.4842,N,07105.3174,W,2,10,0.84,3.1,M,-33.7,M,0000,0000*5D 
167.15635       GPS_NMEA_FROM_GPS    iGPS            $GPGSA,A,3,06,19,12,25,11,20,04,09,17,05,,,1.66,0.84,1.43*0F 
168.05892       GPS_NMEA_FROM_GPS    iGPS            $GPGGA,162829.000,4221.4841,N,07105.3173,W,2,09,1.05,2.9,M,-33.7,M,0000,0000*5E 
169.06191       GPS_NMEA_FROM_GPS    iGPS            $GPGGA,162830.000,4221.4840,N,07105.3173,W,2,09,1.05,2.9,M,-33.7,M,0000,0000*57 
170.16514       GPS_NMEA_FROM_GPS    iGPS            $GPGSA,A,3,06,19,12,11,20,04,09,17,05,,,,1.97,1.05,1.66*09 
171.06774       GPS_NMEA_FROM_GPS    iGPS            $GPGGA,162832.000,4221.4840,N,07105.3171,W,2,10,0.84,2.8,M,-33.7,M,0000,0000*56 
172.07084       GPS_NMEA_FROM_GPS    iGPS            $GPGGA,162833.000,4221.4840,N,07105.3170,W,2,09,1.05,2.8,M,-33.7,M,0000,0000*56 
173.07373       GPS_NMEA_FROM_GPS    iGPS            $GPGGA,162834.000,4221.4840,N,07105.3170,W,2,10,0.84,2.8,M,-33.7,M,0000,0000*51 
174.17644       GPS_NMEA_FROM_GPS    iGPS            $GPGSA,A,3,06,19,12,25,11,20,04,09,17,05,,,1.66,0.84,1.43*0F 
175.07873       GPS_NMEA_FROM_GPS    iGPS            $GPGGA,162836.000,4221.4840,N,07105.3168,W,2,09,1.05,2.8,M,-33.7,M,0000,0000*5A 
176.18160       GPS_NMEA_FROM_GPS    iGPS            $GPGSA,A,3,06,19,12,11,20,04,09,17,05,,,,1.97,1.05,1.66*09 
177.08470       GPS_NMEA_FROM_GPS    iGPS            $GPGGA,162838.000,4221.4839,N,07105.3165,W,2,09,1.01,2.8,M,-33.7,M,0000,0000*53 
178.08784       GPS_NMEA_FROM_GPS    iGPS            $GPGGA,162839.000,4221.4838,N,07105.3163,W,2,09,1.01,2.8,M,-33.7,M,0000,0000*55 
179.09075       GPS_NMEA_FROM_GPS    iGPS            $GPGGA,162840.000,4221.4837,N,07105.3162,W,2,09,1.01,2.8,M,-33.7,M,0000,0000*55 
180.09555       GPS_NMEA_FROM_GPS    iGPS            $GPGGA,162841.000,4221.4836,N,07105.3160,W,2,10,0.84,2.8,M,-33.7,M,0000,0000*53 
181.09890       GPS_NMEA_FROM_GPS    iGPS            $GPGGA,162842.000,4221.4835,N,07105.3158,W,2,10,0.84,2.9,M,-33.7,M,0000,0000*59 
182.20234       GPS_NMEA_FROM_GPS    iGPS            $GPGSA,A,3,06,19,12,25,11,20,04,09,17,05,,,1.66,0.84,1.43*0F 
183.10484       GPS_NMEA_FROM_GPS    iGPS            $GPGGA,162844.000,4221.4833,N,07105.3154,W,2,10,0.84,3.0,M,-33.7,M,0000,0000*5D 
184.10773       GPS_NMEA_FROM_GPS    iGPS            $GPGGA,162845.000,4221.4833,N,07105.3152,W,2,10,0.84,3.0,M,-33.7,M,0000,0000*5A 
185.11065       GPS_NMEA_FROM_GPS    iGPS            $GPGGA,162846.000,4221.4832,N,07105.3150,W,2,10,0.84,3.0,M,-33.7,M,0000,0000*5A 
186.11356       GPS_NMEA_FROM_GPS    iGPS            $GPGGA,162847.000,4221.4831,N,07105.3148,W,2,10,0.84,3.0,M,-33.7,M,0000,0000*51 
187.11702       GPS_NMEA_FROM_GPS    iGPS            $GPGSA,A,3,06,19,12,25,11,20,04,09,17,05,,,1.66,0.84,1.43*0F 
188.11918       GPS_NMEA_FROM_GPS    iGPS            $GPGSA,A,3,06,19,12,25,11,20,04,09,17,05,,,1.66,0.84,1.43*0F 
189.12198       GPS_NMEA_FROM_GPS    iGPS            $GPGSA,A,3,06,19,12,25,11,20,04,09,17,05,,,1.18,0.84,0.82*0A 
190.12539       GPS_NMEA_FROM_GPS    iGPS            $GPGSA,A,3,06,19,12,25,11,20,04,09,17,05,,,1.18,0.84,0.82*0A 
191.12815       GPS_NMEA_FROM_GPS    iGPS            $GPGGA,162852.000,4221.4823,N,07105.3136,W,2,10,0.84,3.0,M,-33.7,M,0000,0000*5F 
192.13170       GPS_NMEA_FROM_GPS    iGPS            $GPGGA,162853.000,4221.4822,N,07105.3134,W,2,10,0.84,3.0,M,-33.7,M,0000,0000*5D 
193.13476       GPS_NMEA_FROM_GPS    iGPS            $GPGSA,A,3,06,19,12,25,11,20,04,09,17,05,,,1.66,0.84,1.43*0F 
194.13762       GPS_NMEA_FROM_GPS    iGPS            $GPGSA,A,3,06,19,12,25,11,20,04,09,17,05,,,1.18,0.84,0.82*0A 
195.14050       GPS_NMEA_FROM_GPS    iGPS            $GPGGA,162856.000,4221.4819,N,07105.3126,W,2,10,0.84,3.1,M,-33.7,M,0000,0000*52 
196.14343       GPS_NMEA_FROM_GPS    iGPS            $GPGGA,162857.000,4221.4817,N,07105.3122,W,2,10,0.84,3.2,M,-33.7,M,0000,0000*5A 
197.14681       GPS_NMEA_FROM_GPS    iGPS            $GPGSA,A,3,06,19,12,25,11,20,04,09,17,05,,,1.18,0.84,0.82*0A 
198.15036       GPS_NMEA_FROM_GPS    iGPS            $GPGGA,162859.000,4221.4815,N,07105.3116,W,2,10,0.84,3.2,M,-33.7,M,0000,0000*51 
199.15442       GPS_NMEA_FROM_GPS    iGPS            $GPGSA,A,3,06,19,12,25,11,20,04,09,17,05,,,1.66,0.84,1.43*0F 
200.05675       GPS_NMEA_FROM_GPS    iGPS            $GPGGA,162901.000,4221.4812,N,07105.3110,W,2,10,0.84,3.1,M,-33.7,M,0000,0000*5F 
201.05995       GPS_NMEA_FROM_GPS    iGPS            $GPGGA,162902.000,4221.4810,N,07105.3106,W,2,10,0.84,3.1,M,-33.7,M,0000,0000*59 
202.16316       GPS_NMEA_FROM_GPS    iGPS            $GPGSA,A,3,06,19,12,25,11,20,04,09,17,05,,,1.18,0.84,0.82*0A 
203.06583       GPS_NMEA_FROM_GPS    iGPS            $GPGGA,162904.000,4221.4809,N,07105.3099,W,2,10,0.84,3.2,M,-33.7,M,0000,0000*53 
204.16902       GPS_NMEA_FROM_GPS    iGPS            $GPGGA,162905.000,4221.4808,N,07105.3096,W,2,10,0.84,3.1,M,-33.7,M,0000,0000*5F 
205.07178       GPS_NMEA_FROM_GPS    iGPS            $GPGGA,162906.000,4221.4807,N,07105.3092,W,2,10,0.84,3.1,M,-33.7,M,0000,0000*57 
206.17484       GPS_NMEA_FROM_GPS    iGPS            $GPGGA,162907.000,4221.4807,N,07105.3089,W,2,10,0.84,3.0,M,-33.7,M,0000,0000*5D 
207.17808       GPS_NMEA_FROM_GPS    iGPS            $GPGSA,A,3,06,19,12,25,11,20,04,09,17,05,,,1.18,0.84,0.82*0A 
208.08067       GPS_NMEA_FROM_GPS    iGPS            $GPGGA,162909.000,4221.4805,N,07105.3083,W,2,10,0.84,3.0,M,-33.7,M,0000,0000*5B 
209.08371       GPS_NMEA_FROM_GPS    iGPS            $GPGGA,162910.000,4221.4805,N,07105.3080,W,2,10,0.84,2.9,M,-33.7,M,0000,0000*58 
210.08662       GPS_NMEA_FROM_GPS    iGPS            $GPGGA,162911.000,4221.4804,N,07105.3076,W,2,10,0.84,2.9,M,-33.7,M,0000,0000*51 
211.08951       GPS_NMEA_FROM_GPS    iGPS            $GPGGA,162912.000,4221.4803,N,07105.3073,W,2,10,0.84,2.8,M,-33.7,M,0000,0000*51 
212.09266       GPS_NMEA_FROM_GPS    iGPS            $GPGGA,162913.000,4221.4803,N,07105.3070,W,2,10,0.84,2.9,M,-33.7,M,0000,0000*52 
213.09528       GPS_NMEA_FROM_GPS    iGPS            $GPGSA,A,3,06,19,12,25,11,20,04,09,17,05,,,1.18,0.84,0.82*0A 
214.09736       GPS_NMEA_FROM_GPS    iGPS            $GPGGA,162915.000,4221.4801,N,07105.3063,W,2,10,0.84,3.0,M,-33.7,M,0000,0000*5C 
214.99943       GPS_NMEA_FROM_GPS    iGPS            $GPGGA,162916.000,4221.4801,N,07105.3059,W,2,10,0.84,3.1,M,-33.7,M,0000,0000*57 
216.10212       GPS_NMEA_FROM_GPS    iGPS            $GPGGA,162917.000,4221.4800,N,07105.3055,W,2,10,0.84,3.3,M,-33.7,M,0000,0000*59 
217.20572       GPS_NMEA_FROM_GPS    iGPS            $GPGSA,A,3,06,19,12,25,11,20,04,09,17,05,,,1.18,0.84,0.82*0A 
218.10845       GPS_NMEA_FROM_GPS    iGPS            $GPGGA,162919.000,4221.4799,N,07105.3048,W,2,10,0.84,3.4,M,-33.7,M,0000,0000*53 
219.11161       GPS_NMEA_FROM_GPS    iGPS            $GPGGA,162920.000,4221.4798,N,07105.3044,W,2,10,0.84,3.5,M,-33.7,M,0000,0000*55 
220.11434       GPS_NMEA_FROM_GPS    iGPS            $GPGGA,162921.000,4221.4798,N,07105.3041,W,2,10,0.84,3.5,M,-33.7,M,0000,0000*51 
221.11730       GPS_NMEA_FROM_GPS    iGPS            $GPGSA,A,3,06,19,12,25,11,20,04,09,17,05,,,1.18,0.84,0.82*0A 
222.12051       GPS_NMEA_FROM_GPS    iGPS            $GPGSA,A,3,06,19,12,25,11,20,04,09,17,05,,,1.18,0.84,0.82*0A 
223.12424       GPS_NMEA_FROM_GPS    iGPS            $GPGGA,162924.000,4221.4799,N,07105.3032,W,2,10,0.84,3.6,M,-33.7,M,0000,0000*52 
224.12708       GPS_NMEA_FROM_GPS    iGPS            $GPGGA,162925.000,4221.4800,N,07105.3028,W,2,10,0.84,3.7,M,-33.7,M,0000,0000*56 
225.12991       GPS_NMEA_FROM_GPS    iGPS            $GPGGA,162926.000,4221.4800,N,07105.3025,W,2,10,0.84,3.8,M,-33.7,M,0000,0000*57 
226.13247       GPS_NMEA_FROM_GPS    iGPS            $GPGSA,A,3,06,19,12,25,11,20,04,09,17,05,,,1.18,0.84,0.82*0A 
227.13506       GPS_NMEA_FROM_GPS    iGPS            $GPGGA,162928.000,4221.4801,N,07105.3017,W,2,10,0.84,4.0,M,-33.7,M,0000,0000*56 
228.13773       GPS_NMEA_FROM_GPS    iGPS            $GPGGA,162929.000,4221.4801,N,07105.3013,W,2,10,0.84,4.0,M,-33.7,M,0000,0000*53 
229.04050       GPS_NMEA_FROM_GPS    iGPS            $GPGGA,162930.000,4221.4801,N,07105.3009,W,2,10,0.84,4.1,M,-33.7,M,0000,0000*51 
230.04333       GPS_NMEA_FROM_GPS    iGPS            $GPGGA,162931.000,4221.4802,N,07105.3006,W,2,10,0.84,4.1,M,-33.7,M,0000,0000*5C 
231.14675       GPS_NMEA_FROM_GPS    iGPS            $GPGSA,A,3,06,19,12,25,11,20,04,09,17,05,,,1.18,0.84,0.82*0A 
232.04969       GPS_NMEA_FROM_GPS    iGPS            $GPGGA,162933.000,4221.4803,N,07105.2999,W,2,10,0.84,4.2,M,-33.7,M,0000,0000*52 
233.05289       GPS_NMEA_FROM_GPS    iGPS            $GPGGA,162934.000,4221.4805,N,07105.2996,W,2,10,0.84,4.3,M,-33.7,M,0000,0000*5D 
234.05571       GPS_NMEA_FROM_GPS    iGPS            $GPGGA,162935.000,4221.4806,N,07105.2993,W,2,10,0.84,4.3,M,-33.7,M,0000,0000*5A 
235.05857       GPS_NMEA_FROM_GPS    iGPS            $GPGGA,162936.000,4221.4807,N,07105.2989,W,2,10,0.84,4.4,M,-33.7,M,0000,0000*54 
236.16167       GPS_NMEA_FROM_GPS    iGPS            $GPGSA,A,3,06,19,12,25,11,20,04,09,17,05,,,1.18,0.84,0.82*0A 
237.06494       GPS_NMEA_FROM_GPS    iGPS            $GPGGA,162938.000,4221.4808,N,07105.2981,W,2,10,0.84,4.4,M,-33.7,M,0000,0000*5D 
238.16800       GPS_NMEA_FROM_GPS    iGPS            $GPGSA,A,3,06,19,12,25,11,20,04,09,17,05,,,1.18,0.84,0.82*0A 
239.17054       GPS_NMEA_FROM_GPS    iGPS            $GPGSA,A,3,06,19,12,25,11,20,04,09,17,05,,,1.18,0.84,0.82*0A 
240.17290       GPS_NMEA_FROM_GPS    iGPS            $GPGSA,A,3,06,19,12,25,11,20,04,09,17,05,,,1.18,0.84,0.82*0A 
241.07543       GPS_NMEA_FROM_GPS    iGPS            $GPGGA,162942.000,4221.4813,N,07105.2969,W,2,10,0.84,4.4,M,-33.7,M,0000,0000*5C 
242.18049       GPS_NMEA_FROM_GPS    iGPS            $GPGSA,A,3,06,19,12,25,11,20,04,09,17,05,,,1.18,0.84,0.82*0A 
243.08215       GPS_NMEA_FROM_GPS    iGPS            $GPGGA,162944.000,4221.4816,N,07105.2964,W,2,10,0.84,4.8,M,-33.7,M,0000,0000*5E 
244.08506       GPS_NMEA_FROM_GPS    iGPS            $GPGGA,162945.000,4221.4817,N,07105.2961,W,2,10,0.84,5.0,M,-33.7,M,0000,0000*52 
245.08807       GPS_NMEA_FROM_GPS    iGPS            $GPGSA,A,3,06,19,12,25,11,20,04,09,17,05,,,1.67,0.84,1.44*09 
246.09102       GPS_NMEA_FROM_GPS    iGPS            $GPGGA,162947.000,4221.4819,N,07105.2955,W,2,10,0.84,5.2,M,-33.7,M,0000,0000*5B 
247.09437       GPS_NMEA_FROM_GPS    iGPS            $GPGSA,A,3,06,19,12,25,11,20,04,09,17,05,,,1.67,0.84,1.44*09 
248.09714       GPS_NMEA_FROM_GPS    iGPS            $GPGGA,162949.000,4221.4821,N,07105.2948,W,2,10,0.84,5.4,M,-33.7,M,0000,0000*54 
249.10006       GPS_NMEA_FROM_GPS    iGPS            $GPGGA,162950.000,4221.4822,N,07105.2944,W,2,10,0.84,5.6,M,-33.7,M,0000,0000*51 
250.10299       GPS_NMEA_FROM_GPS    iGPS            $GPGSA,A,3,06,19,12,25,11,20,04,09,17,05,,,1.18,0.84,0.82*0A 
251.10558       GPS_NMEA_FROM_GPS    iGPS            $GPGSA,A,3,06,19,12,25,11,20,04,09,17,05,,,1.18,0.84,0.82*0A 
252.10811       GPS_NMEA_FROM_GPS    iGPS            $GPGGA,162953.000,4221.4825,N,07105.2934,W,2,10,0.84,5.8,M,-33.7,M,0000,0000*5C 
253.11067       GPS_NMEA_FROM_GPS    iGPS            $GPGGA,162954.000,4221.4827,N,07105.2931,W,2,10,0.84,5.8,M,-33.7,M,0000,0000*5C 
254.11339       GPS_NMEA_FROM_GPS    iGPS            $GPGGA,162955.000,4221.4829,N,07105.2929,W,2,10,0.84,5.8,M,-33.7,M,0000,0000*5A 
255.11637       GPS_NMEA_FROM_GPS    iGPS            $GPGSA,A,3,06,19,12,25,11,20,04,09,17,05,,,1.18,0.84,0.82*0A 
256.11924       GPS_NMEA_FROM_GPS    iGPS            $GPGSA,A,3,06,19,12,25,11,20,04,09,17,05,,,1.18,0.84,0.82*0A 
257.12231       GPS_NMEA_FROM_GPS    iGPS            $GPGGA,162958.000,4221.4836,N,07105.2921,W,2,10,0.84,5.9,M,-33.7,M,0000,0000*50 
258.12522       GPS_NMEA_FROM_GPS    iGPS            $GPGGA,162959.000,4221.4838,N,07105.2918,W,2,10,0.84,5.9,M,-33.7,M,0000,0000*55 
259.12814       GPS_NMEA_FROM_GPS    iGPS            $GPGGA,163000.000,4221.4841,N,07105.2916,W,2,10,0.84,5.9,M,-33.7,M,0000,0000*51 
260.13101       GPS_NMEA_FROM_GPS    iGPS            $GPGGA,163001.000,4221.4842,N,07105.2913,W,2,10,0.84,5.9,M,-33.7,M,0000,0000*56 
261.13389       GPS_NMEA_FROM_GPS    iGPS            $GPGGA,163002.000,4221.4844,N,07105.2910,W,2,10,0.84,5.9,M,-33.7,M,0000,0000*50 
262.13726       GPS_NMEA_FROM_GPS    iGPS            $GPGSA,A,3,06,19,12,25,11,20,04,09,17,05,,,1.18,0.84,0.82*0A 
263.14028       GPS_NMEA_FROM_GPS    iGPS            $GPGSA,A,3,06,19,12,25,11,20,04,09,17,05,,,1.18,0.84,0.82*0A 
264.14305       GPS_NMEA_FROM_GPS    iGPS            $GPGSA,A,3,06,19,12,25,11,20,04,09,17,05,,,1.18,0.84,0.82*0A 
265.14541       GPS_NMEA_FROM_GPS    iGPS            $GPGSA,A,3,06,19,12,25,11,20,04,09,17,05,,,1.18,0.84,0.82*0A 
266.14776       GPS_NMEA_FROM_GPS    iGPS            $GPGGA,163007.000,4221.4854,N,07105.2895,W,2,10,0.84,6.0,M,-33.7,M,0000,0000*52 
267.15110       GPS_NMEA_FROM_GPS    iGPS            $GPGSA,A,3,06,19,12,25,11,20,04,09,17,05,,,1.18,0.84,0.82*0A 
268.05376       GPS_NMEA_FROM_GPS    iGPS            $GPGGA,163009.000,4221.4859,N,07105.2890,W,2,10,0.84,5.9,M,-33.7,M,0000,0000*5E 
269.05668       GPS_NMEA_FROM_GPS    iGPS            $GPGGA,163010.000,4221.4861,N,07105.2888,W,2,10,0.84,5.9,M,-33.7,M,0000,0000*54 
270.05945       GPS_NMEA_FROM_GPS    iGPS            $GPGGA,163011.000,4221.4863,N,07105.2886,W,2,10,0.84,5.9,M,-33.7,M,0000,0000*59 
271.16270       GPS_NMEA_FROM_GPS    iGPS            $GPGSA,A,3,06,19,12,25,11,20,04,09,17,05,,,1.18,0.84,0.82*0A 
272.16596       GPS_NMEA_FROM_GPS    iGPS            $GPGSA,A,3,06,19,12,25,11,20,04,09,17,05,,,1.18,0.84,0.82*0A 
273.06856       GPS_NMEA_FROM_GPS    iGPS            $GPGGA,163014.000,4221.4868,N,07105.2877,W,2,10,0.84,5.8,M,-33.7,M,0000,0000*58 
274.07151       GPS_NMEA_FROM_GPS    iGPS            $GPGGA,163015.000,4221.4869,N,07105.2874,W,2,10,0.84,5.8,M,-33.7,M,0000,0000*5B 
275.07456       GPS_NMEA_FROM_GPS    iGPS            $GPGGA,163016.000,4221.4869,N,07105.2870,W,2,10,0.84,5.8,M,-33.7,M,0000,0000*5C 
276.07740       GPS_NMEA_FROM_GPS    iGPS            $GPGGA,163017.000,4221.4871,N,07105.2867,W,2,10,0.84,5.8,M,-33.7,M,0000,0000*52 
277.08004       GPS_NMEA_FROM_GPS    iGPS            $GPGGA,163018.000,4221.4873,N,07105.2865,W,2,10,0.84,5.8,M,-33.7,M,0000,0000*5D 
278.18254       GPS_NMEA_FROM_GPS    iGPS            $GPGSA,A,3,06,19,12,25,11,20,04,09,17,05,,,1.18,0.84,0.82*0A 
279.18630       GPS_NMEA_FROM_GPS    iGPS            $GPGSA,A,3,06,19,12,25,11,20,04,09,17,05,,,1.18,0.84,0.82*0A 
280.09074       GPS_NMEA_FROM_GPS    iGPS            $GPGGA,163021.000,4221.4878,N,07105.2856,W,2,10,0.84,5.9,M,-33.7,M,0000,0000*5D 
281.09436       GPS_NMEA_FROM_GPS    iGPS            $GPGGA,163022.000,4221.4881,N,07105.2853,W,2,10,0.84,5.9,M,-33.7,M,0000,0000*5D 
282.09804       GPS_NMEA_FROM_GPS    iGPS            $GPGGA,163023.000,4221.4883,N,07105.2850,W,2,10,0.84,5.9,M,-33.7,M,0000,0000*5D 
283.10006       GPS_NMEA_FROM_GPS    iGPS            $GPGGA,163024.000,4221.4884,N,07105.2847,W,2,10,0.84,5.8,M,-33.7,M,0000,0000*5A 
284.10391       GPS_NMEA_FROM_GPS    iGPS            $GPGGA,163025.000,4221.4886,N,07105.2844,W,2,10,0.84,5.8,M,-33.7,M,0000,0000*5A 
285.10722       GPS_NMEA_FROM_GPS    iGPS            $GPGGA,163026.000,4221.4887,N,07105.2841,W,2,10,0.84,5.7,M,-33.7,M,0000,0000*52 
286.11043       GPS_NMEA_FROM_GPS    iGPS            $GPGGA,163027.000,4221.4888,N,07105.2838,W,2,10,0.84,5.8,M,-33.7,M,0000,0000*5D 
287.11376       GPS_NMEA_FROM_GPS    iGPS            $GPGGA,163028.000,4221.4890,N,07105.2835,W,2,10,0.84,5.7,M,-33.7,M,0000,0000*59 
288.11662       GPS_NMEA_FROM_GPS    iGPS            $GPGGA,163029.000,4221.4890,N,07105.2832,W,2,10,0.84,5.7,M,-33.7,M,0000,0000*5F 
289.11973       GPS_NMEA_FROM_GPS    iGPS            $GPGGA,163030.000,4221.4891,N,07105.2829,W,2,10,0.85,5.7,M,-33.7,M,0000,0000*5D 
290.12235       GPS_NMEA_FROM_GPS    iGPS            $GPGGA,163031.000,4221.4893,N,07105.2826,W,2,10,0.84,5.6,M,-33.7,M,0000,0000*51 
291.12476       GPS_NMEA_FROM_GPS    iGPS            $GPGGA,163032.000,4221.4895,N,07105.2823,W,2,10,0.84,5.6,M,-33.7,M,0000,0000*51 
292.12764       GPS_NMEA_FROM_GPS    iGPS            $GPGGA,163033.000,4221.4897,N,07105.2820,W,2,10,0.84,5.7,M,-33.7,M,0000,0000*50 
293.03044       GPS_NMEA_FROM_GPS    iGPS            $GPGGA,163034.000,4221.4898,N,07105.2817,W,2,10,0.84,5.6,M,-33.7,M,0000,0000*5D 
294.13344       GPS_NMEA_FROM_GPS    iGPS            $GPGSA,A,3,06,19,12,25,11,20,04,09,17,05,,,1.18,0.84,0.82*0A 
295.13629       GPS_NMEA_FROM_GPS    iGPS            $GPGSA,A,3,06,19,12,25,11,20,04,09,17,05,,,1.18,0.84,0.82*0A 
296.13907       GPS_NMEA_FROM_GPS    iGPS            $GPGSA,A,3,06,19,12,25,11,20,04,09,17,05,,,1.18,0.84,0.82*0A 
297.14220       GPS_NMEA_FROM_GPS    iGPS            $GPGGA,163038.000,4221.4903,N,07105.2805,W,2,10,0.84,5.8,M,-33.7,M,0000,0000*5F 
298.14518       GPS_NMEA_FROM_GPS    iGPS            $GPGSA,A,3,06,19,12,25,11,20,04,09,17,05,,,1.18,0.84,0.82*0A 
299.14800       GPS_NMEA_FROM_GPS    iGPS            $GPGGA,163040.000,4221.4904,N,07105.2799,W,2,10,0.84,5.7,M,-33.7,M,0000,0000*52 
300.15100       GPS_NMEA_FROM_GPS    iGPS            $GPGGA,163041.000,4221.4905,N,07105.2796,W,2,10,0.84,5.7,M,-33.7,M,0000,0000*5D 
301.15423       GPS_NMEA_FROM_GPS    iGPS            $GPGSA,A,3,06,19,12,25,11,20,04,09,17,05,,,1.18,0.84,0.82*0A 
302.05717       GPS_NMEA_FROM_GPS    iGPS            $GPGGA,163043.000,4221.4907,N,07105.2791,W,2,10,0.84,5.7,M,-33.7,M,0000,0000*5A 
303.05975       GPS_NMEA_FROM_GPS    iGPS            $GPGGA,163044.000,4221.4907,N,07105.2787,W,2,10,0.84,5.7,M,-33.7,M,0000,0000*5A 
304.16262       GPS_NMEA_FROM_GPS    iGPS            $GPGGA,163045.000,4221.4908,N,07105.2784,W,2,10,0.84,5.7,M,-33.7,M,0000,0000*57 
305.16569       GPS_NMEA_FROM_GPS    iGPS            $GPGSA,A,3,06,19,12,25,11,20,04,09,17,05,,,1.18,0.84,0.82*0A 
306.16902       GPS_NMEA_FROM_GPS    iGPS            $GPGSA,A,3,06,12,25,11,20,04,09,17,05,,,,1.21,0.87,0.84*0D 
307.17250       GPS_NMEA_FROM_GPS    iGPS            $GPGSA,A,3,06,19,12,25,11,20,04,09,17,05,,,1.18,0.84,0.82*0A 
308.17434       GPS_NMEA_FROM_GPS    iGPS            $GPGSA,A,3,06,19,12,25,11,20,04,09,17,05,,,1.18,0.84,0.82*0A 
309.17762       GPS_NMEA_FROM_GPS    iGPS            $GPGSA,A,3,06,19,12,25,11,20,04,09,17,05,,,1.18,0.84,0.82*0A 
310.08029       GPS_NMEA_FROM_GPS    iGPS            $GPGGA,163051.000,4221.4916,N,07105.2764,W,2,10,0.85,5.6,M,-33.7,M,0000,0000*53 
311.08395       GPS_NMEA_FROM_GPS    iGPS            $GPGGA,163052.000,4221.4917,N,07105.2761,W,2,10,0.85,5.6,M,-33.7,M,0000,0000*54 
312.18683       GPS_NMEA_FROM_GPS    iGPS            $GPGSA,A,3,06,19,12,25,11,20,04,09,17,05,,,1.68,0.85,1.45*06 
313.08953       GPS_NMEA_FROM_GPS    iGPS            $GPGGA,163054.000,4221.4920,N,07105.2755,W,2,10,0.85,5.6,M,-33.7,M,0000,0000*51 
314.09261       GPS_NMEA_FROM_GPS    iGPS            $GPGGA,163055.000,4221.4920,N,07105.2752,W,2,10,0.85,5.9,M,-33.7,M,0000,0000*58 
315.09540       GPS_NMEA_FROM_GPS    iGPS            $GPGSA,A,3,06,19,12,25,11,20,04,09,17,05,,,1.18,0.84,0.82*0A 
316.09797       GPS_NMEA_FROM_GPS    iGPS            $GPGSA,A,3,06,19,12,25,11,20,04,09,17,05,,,1.18,0.84,0.82*0A 
317.10080       GPS_NMEA_FROM_GPS    iGPS            $GPGSA,A,3,06,19,12,25,11,20,04,09,17,05,,,1.18,0.84,0.82*0A 
318.10365       GPS_NMEA_FROM_GPS    iGPS            $GPGSA,A,3,06,19,12,25,11,20,04,09,17,05,,,1.18,0.84,0.82*0A 
319.10655       GPS_NMEA_FROM_GPS    iGPS            $GPGSA,A,3,06,19,12,25,11,20,04,09,17,05,,,1.18,0.84,0.82*0A 
320.10931       GPS_NMEA_FROM_GPS    iGPS            $GPGGA,163101.000,4221.4927,N,07105.2733,W,2,10,0.84,6.4,M,-33.7,M,0000,0000*57 
321.11226       GPS_NMEA_FROM_GPS    iGPS            $GPGGA,163102.000,4221.4928,N,07105.2730,W,2,10,0.84,6.5,M,-33.7,M,0000,0000*59 
322.11548       GPS_NMEA_FROM_GPS    iGPS            $GPGSA,A,3,06,19,12,25,11,20,04,09,17,05,,,1.18,0.84,0.82*0A 
323.01840       GPS_NMEA_FROM_GPS    iGPS            $GPGGA,163104.000,4221.4931,N,07105.2723,W,2,10,0.84,6.8,M,-33.7,M,0000,0000*58 
324.12153       GPS_NMEA_FROM_GPS    iGPS            $GPGSA,A,3,06,19,12,25,11,20,04,09,17,05,,,1.18,0.84,0.82*0A 
325.12467       GPS_NMEA_FROM_GPS    iGPS            $GPGGA,163106.000,4221.4933,N,07105.2717,W,2,10,0.84,7.0,M,-33.7,M,0000,0000*56 
326.12753       GPS_NMEA_FROM_GPS    iGPS            $GPGGA,163107.000,4221.4934,N,07105.2713,W,2,10,0.85,7.1,M,-33.7,M,0000,0000*54 
327.13123       GPS_NMEA_FROM_GPS    iGPS            $GPGSA,A,3,06,19,12,25,11,20,04,09,17,05,,,1.18,0.84,0.82*0A 
328.13386       GPS_NMEA_FROM_GPS    iGPS            $GPGGA,163109.000,4221.4935,N,07105.2706,W,2,10,0.84,7.3,M,-33.7,M,0000,0000*5C 
329.13638       GPS_NMEA_FROM_GPS    iGPS            $GPGGA,163110.000,4221.4936,N,07105.2702,W,2,10,0.84,7.4,M,-33.7,M,0000,0000*54 
330.13858       GPS_NMEA_FROM_GPS    iGPS            $GPGSA,A,3,06,19,12,25,11,20,04,09,17,05,,,1.18,0.84,0.82*0A 
331.14162       GPS_NMEA_FROM_GPS    iGPS            $GPGSA,A,3,06,19,12,25,11,20,04,09,17,05,,,1.18,0.84,0.82*0A 
332.14483       GPS_NMEA_FROM_GPS    iGPS            $GPGGA,163113.000,4221.4938,N,07105.2691,W,2,10,0.84,7.7,M,-33.7,M,0000,0000*51 
333.14784       GPS_NMEA_FROM_GPS    iGPS            $GPGGA,163114.000,4221.4939,N,07105.2688,W,2,10,0.84,7.9,M,-33.7,M,0000,0000*51 
334.15085       GPS_NMEA_FROM_GPS    iGPS            $GPGGA,163115.000,4221.4940,N,07105.2684,W,2,10,0.85,8.0,M,-33.7,M,0000,0000*55 
335.05378       GPS_NMEA_FROM_GPS    iGPS            $GPGGA,163116.000,4221.4942,N,07105.2681,W,2,10,0.84,8.1,M,-33.7,M,0000,0000*51 
336.05672       GPS_NMEA_FROM_GPS    iGPS            $GPGGA,163117.000,4221.4943,N,07105.2678,W,2,10,0.84,8.2,M,-33.7,M,0000,0000*54 
337.06006       GPS_NMEA_FROM_GPS    iGPS            $GPGGA,163118.000,4221.4945,N,07105.2675,W,2,10,0.85,8.3,M,-33.7,M,0000,0000*50 
338.06297       GPS_NMEA_FROM_GPS    iGPS            $GPGGA,163119.000,4221.4945,N,07105.2671,W,2,10,0.84,8.5,M,-33.7,M,0000,0000*52 
339.06632       GPS_NMEA_FROM_GPS    iGPS            $GPGGA,163120.000,4221.4947,N,07105.2668,W,2,10,0.84,8.6,M,-33.7,M,0000,0000*51 
340.06936       GPS_NMEA_FROM_GPS    iGPS            $GPGGA,163121.000,4221.4948,N,07105.2665,W,2,10,0.85,8.7,M,-33.7,M,0000,0000*52 
341.17253       GPS_NMEA_FROM_GPS    iGPS            $GPGSA,A,3,06,19,12,25,11,20,04,09,17,05,,,1.18,0.84,0.82*0A 
342.17513       GPS_NMEA_FROM_GPS    iGPS            $GPGSA,A,3,06,19,12,25,11,20,04,09,17,05,,,1.18,0.84,0.82*0A 
343.07749       GPS_NMEA_FROM_GPS    iGPS            $GPGGA,163124.000,4221.4951,N,07105.2656,W,2,10,0.84,9.0,M,-33.7,M,0000,0000*58 
344.08055       GPS_NMEA_FROM_GPS    iGPS            $GPGGA,163125.000,4221.4952,N,07105.2654,W,2,10,0.84,9.1,M,-33.7,M,0000,0000*59 
345.08345       GPS_NMEA_FROM_GPS    iGPS            $GPGGA,163126.000,4221.4954,N,07105.2651,W,2,10,0.84,9.2,M,-33.7,M,0000,0000*5A 
346.18663       GPS_NMEA_FROM_GPS    iGPS            $GPGSA,A,3,06,19,12,25,11,20,04,09,17,05,,,1.18,0.84,0.82*0A 
347.18992       GPS_NMEA_FROM_GPS    iGPS            $GPGSA,A,3,06,19,12,25,11,20,04,09,17,05,,,1.18,0.85,0.82*0B 
348.19284       GPS_NMEA_FROM_GPS    iGPS            $GPGSA,A,3,06,19,12,25,11,20,04,09,17,05,,,1.18,0.84,0.82*0A 
349.19673       GPS_NMEA_FROM_GPS    iGPS            $GPGSA,A,3,06,19,12,25,11,20,04,09,17,05,,,1.18,0.84,0.82*0A 
350.19870       GPS_NMEA_FROM_GPS    iGPS            $GPGSA,A,3,06,19,12,25,11,20,04,09,17,05,,,1.18,0.84,0.82*0A 
351.10145       GPS_NMEA_FROM_GPS    iGPS            $GPGGA,163132.000,4221.4960,N,07105.2631,W,2,10,0.84,9.4,M,-33.7,M,0000,0000*58 
352.10488       GPS_NMEA_FROM_GPS    iGPS            $GPGGA,163133.000,4221.4961,N,07105.2627,W,2,10,0.85,9.5,M,-33.7,M,0000,0000*5F 
353.10864       GPS_NMEA_FROM_GPS    iGPS            $GPGGA,163134.000,4221.4962,N,07105.2624,W,2,10,0.84,9.5,M,-33.7,M,0000,0000*59 
354.11127       GPS_NMEA_FROM_GPS    iGPS            $GPGGA,163135.000,4221.4963,N,07105.2621,W,2,10,0.84,9.4,M,-33.7,M,0000,0000*5D 
355.11406       GPS_NMEA_FROM_GPS    iGPS            $GPGGA,163136.000,4221.4964,N,07105.2618,W,2,10,0.85,9.4,M,-33.7,M,0000,0000*52 
356.11700       GPS_NMEA_FROM_GPS    iGPS            $GPGGA,163137.000,4221.4965,N,07105.2615,W,2,10,0.85,9.4,M,-33.7,M,0000,0000*5F 
357.12004       GPS_NMEA_FROM_GPS    iGPS            $GPGGA,163138.000,4221.4966,N,07105.2611,W,2,10,0.84,9.4,M,-33.7,M,0000,0000*56 
358.12310       GPS_NMEA_FROM_GPS    iGPS            $GPGSA,A,3,06,19,12,25,11,20,04,09,17,05,,,1.18,0.85,0.83*0A 
359.12616       GPS_NMEA_FROM_GPS    iGPS            $GPGSA,A,3,06,19,12,25,11,20,04,09,17,05,,,1.18,0.84,0.83*0B 
360.12894       GPS_NMEA_FROM_GPS    iGPS            $GPGSA,A,3,06,19,12,25,11,20,04,09,17,05,,,1.18,0.85,0.82*0B 
361.13191       GPS_NMEA_FROM_GPS    iGPS            $GPGSA,A,3,06,19,12,25,11,20,04,09,17,05,,,1.18,0.84,0.82*0A 
362.13506       GPS_NMEA_FROM_GPS    iGPS            $GPGSA,A,3,06,19,12,25,11,20,04,09,17,05,,,1.18,0.84,0.82*0A 
363.13791       GPS_NMEA_FROM_GPS    iGPS            $GPGSA,A,3,06,19,12,25,11,20,04,09,17,05,,,1.18,0.85,0.83*0A 
364.14081       GPS_NMEA_FROM_GPS    iGPS            $GPGSA,A,3,06,19,12,25,11,20,04,09,17,05,,,1.18,0.85,0.83*0A 
365.14399       GPS_NMEA_FROM_GPS    iGPS            $GPGGA,163146.000,4221.4977,N,07105.2584,W,2,10,0.84,9.0,M,-33.7,M,0000,0000*54 
366.14581       GPS_NMEA_FROM_GPS    iGPS            $GPGGA,163147.000,4221.4978,N,07105.2581,W,2,10,0.85,9.0,M,-33.7,M,0000,0000*5E 
367.14847       GPS_NMEA_FROM_GPS    iGPS            $GPGGA,163148.000,4221.4979,N,07105.2577,W,2,10,0.85,8.9,M,-33.7,M,0000,0000*51 
368.15121       GPS_NMEA_FROM_GPS    iGPS            $GPGGA,163149.000,4221.4980,N,07105.2573,W,2,10,0.85,8.9,M,-33.7,M,0000,0000*52 
369.15422       GPS_NMEA_FROM_GPS    iGPS            $GPGGA,163150.000,4221.4981,N,07105.2570,W,2,10,0.85,8.8,M,-33.7,M,0000,0000*59 
370.15722       GPS_NMEA_FROM_GPS    iGPS            $GPGGA,163151.000,4221.4983,N,07105.2567,W,2,10,0.84,8.8,M,-33.7,M,0000,0000*5D 
371.16024       GPS_NMEA_FROM_GPS    iGPS            $GPGGA,163152.000,4221.4984,N,07105.2564,W,2,10,0.85,8.8,M,-33.7,M,0000,0000*5B 
372.06355       GPS_NMEA_FROM_GPS    iGPS            $GPGGA,163153.000,4221.4985,N,07105.2560,W,2,10,0.85,8.8,M,-33.7,M,0000,0000*5F 
373.06655       GPS_NMEA_FROM_GPS    iGPS            $GPGGA,163154.000,4221.4987,N,07105.2556,W,2,10,0.85,8.7,M,-33.7,M,0000,0000*50 
374.17125       GPS_NMEA_FROM_GPS    iGPS            $GPGSA,A,3,06,19,12,25,11,20,04,09,17,05,,,1.18,0.85,0.83*0A 
375.07499       GPS_NMEA_FROM_GPS    iGPS            $GPGGA,163156.000,4221.4989,N,07105.2551,W,2,10,0.85,8.7,M,-33.7,M,0000,0000*5B 
376.17805       GPS_NMEA_FROM_GPS    iGPS            $GPGSA,A,3,06,19,12,25,11,20,04,09,17,05,,,1.18,0.85,0.83*0A 
377.08106       GPS_NMEA_FROM_GPS    iGPS            $GPGGA,163158.000,4221.4992,N,07105.2544,W,2,10,0.85,8.7,M,-33.7,M,0000,0000*5B 
378.18488       GPS_NMEA_FROM_GPS    iGPS            $GPGSA,A,3,06,19,12,25,11,20,04,09,17,05,,,1.18,0.85,0.83*0A 
379.08811       GPS_NMEA_FROM_GPS    iGPS            $GPGGA,163200.000,4221.4993,N,07105.2537,W,2,10,0.85,8.7,M,-33.7,M,0000,0000*50 
380.09031       GPS_NMEA_FROM_GPS    iGPS            $GPGGA,163201.000,4221.4994,N,07105.2534,W,2,10,0.85,8.7,M,-33.7,M,0000,0000*55 
381.09282       GPS_NMEA_FROM_GPS    iGPS            $GPGGA,163202.000,4221.4995,N,07105.2531,W,2,10,0.85,8.7,M,-33.7,M,0000,0000*52 
382.09599       GPS_NMEA_FROM_GPS    iGPS            $GPGGA,163203.000,4221.4996,N,07105.2528,W,2,10,0.84,8.8,M,-33.7,M,0000,0000*56 
383.09898       GPS_NMEA_FROM_GPS    iGPS            $GPGGA,163204.000,4221.4998,N,07105.2525,W,2,10,0.85,8.8,M,-33.7,M,0000,0000*53 
384.10200       GPS_NMEA_FROM_GPS    iGPS            $GPGGA,163205.000,4221.4999,N,07105.2522,W,2,10,0.85,8.7,M,-33.7,M,0000,0000*5B 
385.10517       GPS_NMEA_FROM_GPS    iGPS            $GPGGA,163206.000,4221.5001,N,07105.2519,W,2,10,0.85,8.8,M,-33.7,M,0000,0000*56 
386.10817       GPS_NMEA_FROM_GPS    iGPS            $GPGGA,163207.000,4221.5001,N,07105.2516,W,2,10,0.85,9.1,M,-33.7,M,0000,0000*50 
387.11137       GPS_NMEA_FROM_GPS    iGPS            $GPGGA,163208.000,4221.5002,N,07105.2512,W,2,10,0.85,9.3,M,-33.7,M,0000,0000*5A 
388.11432       GPS_NMEA_FROM_GPS    iGPS            $GPGGA,163209.000,4221.5003,N,07105.2509,W,2,10,0.84,9.4,M,-33.7,M,0000,0000*56 
389.11733       GPS_NMEA_FROM_GPS    iGPS            $GPGGA,163210.000,4221.5004,N,07105.2506,W,2,10,0.85,9.5,M,-33.7,M,0000,0000*56 
390.12028       GPS_NMEA_FROM_GPS    iGPS            $GPGGA,163211.000,4221.5005,N,07105.2503,W,2,10,0.85,9.6,M,-33.7,M,0000,0000*50 
391.12322       GPS_NMEA_FROM_GPS    iGPS            $GPGGA,163212.000,4221.5006,N,07105.2499,W,2,10,0.85,9.7,M,-33.7,M,0000,0000*53 
392.12622       GPS_NMEA_FROM_GPS    iGPS            $GPGSA,A,3,06,19,12,25,11,20,04,09,17,05,,,1.18,0.85,0.83*0A 
393.12865       GPS_NMEA_FROM_GPS    iGPS            $GPGGA,163214.000,4221.5007,N,07105.2493,W,2,10,0.85,9.8,M,-33.7,M,0000,0000*51 
394.13136       GPS_NMEA_FROM_GPS    iGPS            $GPGGA,163215.000,4221.5009,N,07105.2489,W,2,10,0.85,9.9,M,-33.7,M,0000,0000*54 
395.13477       GPS_NMEA_FROM_GPS    iGPS            $GPGGA,163216.000,4221.5009,N,07105.2486,W,2,10,0.85,10.0,M,-33.7,M,0000,0000*69 
396.13798       GPS_NMEA_FROM_GPS    iGPS            $GPGGA,163217.000,4221.5011,N,07105.2483,W,2,10,0.85,10.1,M,-33.7,M,0000,0000*65 
397.14122       GPS_NMEA_FROM_GPS    iGPS            $GPGGA,163218.000,4221.5012,N,07105.2480,W,2,10,0.85,10.2,M,-33.7,M,0000,0000*69 
398.14433       GPS_NMEA_FROM_GPS    iGPS            $GPGSA,A,3,06,19,12,25,11,20,04,09,17,05,,,1.18,0.85,0.83*0A 
399.14725       GPS_NMEA_FROM_GPS    iGPS            $GPGGA,163220.000,4221.5015,N,07105.2474,W,2,10,0.85,10.1,M,-33.7,M,0000,0000*6D 
400.05013       GPS_NMEA_FROM_GPS    iGPS            $GPGGA,163221.000,4221.5017,N,07105.2471,W,2,10,0.85,10.1,M,-33.7,M,0000,0000*6B 
401.05303       GPS_NMEA_FROM_GPS    iGPS            $GPGGA,163222.000,4221.5018,N,07105.2467,W,2,10,0.85,10.1,M,-33.7,M,0000,0000*60 
402.05627       GPS_NMEA_FROM_GPS    iGPS            $GPGGA,163223.000,4221.5019,N,07105.2464,W,2,10,0.85,10.0,M,-33.7,M,0000,0000*62 
403.15939       GPS_NMEA_FROM_GPS    iGPS            $GPGGA,163224.000,4221.5019,N,07105.2461,W,2,10,0.85,10.0,M,-33.7,M,0000,0000*60 
404.16239       GPS_NMEA_FROM_GPS    iGPS            $GPGSA,A,3,06,19,12,25,11,20,04,09,17,05,,,1.18,0.85,0.83*0A 
405.06461       GPS_NMEA_FROM_GPS    iGPS            $GPGGA,163226.000,4221.5020,N,07105.2454,W,2,10,0.85,10.0,M,-33.7,M,0000,0000*6E 
406.06699       GPS_NMEA_FROM_GPS    iGPS            $GPGGA,163227.000,4221.5021,N,07105.2451,W,2,10,0.85,10.0,M,-33.7,M,0000,0000*6B 
407.06944       GPS_NMEA_FROM_GPS    iGPS            $GPGGA,163228.000,4221.5023,N,07105.2448,W,2,10,0.85,10.0,M,-33.7,M,0000,0000*6E 
408.17263       GPS_NMEA_FROM_GPS    iGPS            $GPGSA,A,3,06,19,12,25,11,20,04,09,17,05,,,1.69,0.85,1.47*05 
409.17553       GPS_NMEA_FROM_GPS    iGPS            $GPGSA,A,3,06,19,12,25,11,20,04,09,17,,,,2.14,1.05,1.86*0D 
410.17823       GPS_NMEA_FROM_GPS    iGPS            $GPGSA,A,3,06,19,12,25,11,20,04,09,17,05,,,1.18,0.85,0.83*0A 
411.18116       GPS_NMEA_FROM_GPS    iGPS            $GPGSA,A,3,06,19,12,25,11,20,04,09,17,05,,,1.18,0.85,0.83*0A 
412.18428       GPS_NMEA_FROM_GPS    iGPS            $GPGSA,A,3,06,19,12,25,11,20,04,09,17,05,,,1.18,0.85,0.83*0A 
413.08706       GPS_NMEA_FROM_GPS    iGPS            $GPGGA,163234.000,4221.5032,N,07105.2426,W,2,10,0.85,9.5,M,-33.7,M,0000,0000*56 
414.08995       GPS_NMEA_FROM_GPS    iGPS            $GPGGA,163235.000,4221.5033,N,07105.2423,W,2,10,0.85,9.5,M,-33.7,M,0000,0000*53 
415.09496       GPS_NMEA_FROM_GPS    iGPS            $GPGGA,163236.000,4221.5033,N,07105.2419,W,2,10,0.85,9.4,M,-33.7,M,0000,0000*58 
416.19861       GPS_NMEA_FROM_GPS    iGPS            $GPGSA,A,3,06,19,12,25,11,20,04,09,17,05,,,1.18,0.85,0.83*0A 
417.10173       GPS_NMEA_FROM_GPS    iGPS            $GPGGA,163238.000,4221.5034,N,07105.2410,W,2,10,0.85,9.5,M,-33.7,M,0000,0000*59 
418.20399       GPS_NMEA_FROM_GPS    iGPS            $GPGSA,A,3,06,19,12,25,11,20,04,09,17,05,,,1.18,0.85,0.83*0A 
419.10632       GPS_NMEA_FROM_GPS    iGPS            $GPGGA,163240.000,4221.5035,N,07105.2403,W,2,10,0.85,9.6,M,-33.7,M,0000,0000*56 
420.10840       GPS_NMEA_FROM_GPS    iGPS            $GPGGA,163241.000,4221.5036,N,07105.2400,W,2,10,0.85,9.7,M,-33.7,M,0000,0000*56 
421.11144       GPS_NMEA_FROM_GPS    iGPS            $GPGGA,163242.000,4221.5038,N,07105.2397,W,2,10,0.85,9.8,M,-33.7,M,0000,0000*5D 
422.11559       GPS_NMEA_FROM_GPS    iGPS            $GPGGA,163243.000,4221.5040,N,07105.2394,W,2,10,0.85,9.7,M,-33.7,M,0000,0000*5F 
423.11870       GPS_NMEA_FROM_GPS    iGPS            $GPGSA,A,3,06,19,12,25,11,20,04,09,17,05,,,1.18,0.85,0.83*0A 
424.12153       GPS_NMEA_FROM_GPS    iGPS            $GPGGA,163245.000,4221.5043,N,07105.2387,W,2,10,0.85,9.7,M,-33.7,M,0000,0000*58 
425.12452       GPS_NMEA_FROM_GPS    iGPS            $GPGSA,A,3,06,19,12,25,11,20,04,09,17,05,,,1.18,0.85,0.83*0A 
426.12752       GPS_NMEA_FROM_GPS    iGPS            $GPGSA,A,3,06,19,12,25,11,20,04,09,17,05,,,1.18,0.85,0.83*0A 
427.13074       GPS_NMEA_FROM_GPS    iGPS            $GPGSA,A,3,06,19,12,25,11,20,04,09,17,05,,,1.18,0.85,0.83*0A 
428.13373       GPS_NMEA_FROM_GPS    iGPS            $GPGSA,A,3,06,19,12,25,11,20,04,09,17,05,,,1.18,0.85,0.83*0A 
429.13701       GPS_NMEA_FROM_GPS    iGPS            $GPGGA,163250.000,4221.5050,N,07105.2371,W,2,09,0.99,9.6,M,-33.7,M,0000,0000*53 
430.14024       GPS_NMEA_FROM_GPS    iGPS            $GPGGA,163251.000,4221.5051,N,07105.2368,W,2,10,0.85,9.6,M,-33.7,M,0000,0000*5E 
431.14248       GPS_NMEA_FROM_GPS    iGPS            $GPGGA,163252.000,4221.5051,N,07105.2365,W,2,10,0.85,9.5,M,-33.7,M,0000,0000*53 
432.14509       GPS_NMEA_FROM_GPS    iGPS            $GPGGA,163253.000,4221.5051,N,07105.2361,W,2,10,0.85,9.5,M,-33.7,M,0000,0000*56 
433.14788       GPS_NMEA_FROM_GPS    iGPS            $GPGGA,163254.000,4221.5051,N,07105.2357,W,2,10,0.85,9.4,M,-33.7,M,0000,0000*55 
434.15100       GPS_NMEA_FROM_GPS    iGPS            $GPGSA,A,3,06,19,12,25,11,20,04,09,17,05,,,1.18,0.85,0.83*0A 
435.05367       GPS_NMEA_FROM_GPS    iGPS            $GPGGA,163256.000,4221.5051,N,07105.2350,W,2,10,0.85,9.4,M,-33.7,M,0000,0000*50 
436.15696       GPS_NMEA_FROM_GPS    iGPS            $GPGSA,A,3,06,19,12,25,11,20,04,09,17,05,,,1.18,0.85,0.83*0A 
437.16042       GPS_NMEA_FROM_GPS    iGPS            $GPGGA,163258.000,4221.5052,N,07105.2343,W,2,10,0.85,9.3,M,-33.7,M,0000,0000*58 
438.16365       GPS_NMEA_FROM_GPS    iGPS            $GPGGA,163259.000,4221.5052,N,07105.2340,W,2,10,0.85,9.3,M,-33.7,M,0000,0000*5A 
439.16687       GPS_NMEA_FROM_GPS    iGPS            $GPGGA,163300.000,4221.5054,N,07105.2337,W,2,10,0.85,9.4,M,-33.7,M,0000,0000*56 
440.16991       GPS_NMEA_FROM_GPS    iGPS            $GPGSA,A,3,06,19,12,25,11,20,04,09,17,05,,,1.70,0.85,1.47*0D 
441.07349       GPS_NMEA_FROM_GPS    iGPS            $GPGGA,163302.000,4221.5056,N,07105.2330,W,2,10,0.85,9.5,M,-33.7,M,0000,0000*50 
442.17607       GPS_NMEA_FROM_GPS    iGPS            $GPGSA,A,3,06,19,12,25,11,20,04,09,17,05,,,1.18,0.85,0.83*0A 
443.07878       GPS_NMEA_FROM_GPS    iGPS            $GPGGA,163304.000,4221.5057,N,07105.2322,W,2,10,0.85,9.7,M,-33.7,M,0000,0000*56 
444.08155       GPS_NMEA_FROM_GPS    iGPS            $GPGGA,163305.000,4221.5058,N,07105.2318,W,2,10,0.85,9.8,M,-33.7,M,0000,0000*5E 
445.08445       GPS_NMEA_FROM_GPS    iGPS            $GPGGA,163306.000,4221.5059,N,07105.2315,W,2,10,0.85,9.8,M,-33.7,M,0000,0000*51 
446.08692       GPS_NMEA_FROM_GPS    iGPS            $GPGGA,163307.000,4221.5060,N,07105.2311,W,2,10,0.85,9.8,M,-33.7,M,0000,0000*5E 
447.09058       GPS_NMEA_FROM_GPS    iGPS            $GPGGA,163308.000,4221.5060,N,07105.2308,W,2,10,0.85,9.9,M,-33.7,M,0000,0000*58 
448.09349       GPS_NMEA_FROM_GPS    iGPS            $GPGGA,163309.000,4221.5062,N,07105.2305,W,2,10,0.85,9.9,M,-33.7,M,0000,0000*56 
449.09653       GPS_NMEA_FROM_GPS    iGPS            $GPGGA,163310.000,4221.5063,N,07105.2301,W,2,10,0.85,9.9,M,-33.7,M,0000,0000*5B 
450.09949       GPS_NMEA_FROM_GPS    iGPS            $GPGGA,163311.000,4221.5064,N,07105.2297,W,2,10,0.85,9.8,M,-33.7,M,0000,0000*52 
451.20267       GPS_NMEA_FROM_GPS    iGPS            $GPGSA,A,3,06,19,12,25,11,20,04,09,17,05,,,1.18,0.85,0.83*0A 
452.10546       GPS_NMEA_FROM_GPS    iGPS            $GPGGA,163313.000,4221.5065,N,07105.2289,W,2,10,0.85,9.8,M,-33.7,M,0000,0000*5E 
453.10839       GPS_NMEA_FROM_GPS    iGPS            $GPGSA,A,3,06,19,12,25,11,20,04,09,17,05,,,1.18,0.85,0.83*0A 
454.11127       GPS_NMEA_FROM_GPS    iGPS            $GPGSA,A,3,06,19,12,25,11,20,04,09,17,05,,,1.18,0.85,0.83*0A 
455.11476       GPS_NMEA_FROM_GPS    iGPS            $GPGGA,163316.000,4221.5068,N,07105.2278,W,2,10,0.85,9.8,M,-33.7,M,0000,0000*58 
456.11745       GPS_NMEA_FROM_GPS    iGPS            $GPGGA,163317.000,4221.5069,N,07105.2275,W,2,09,0.88,9.8,M,-33.7,M,0000,0000*50 
457.12049       GPS_NMEA_FROM_GPS    iGPS            $GPGGA,163318.000,4221.5070,N,07105.2271,W,2,10,0.85,9.8,M,-33.7,M,0000,0000*56 
458.12270       GPS_NMEA_FROM_GPS    iGPS            $GPGGA,163319.000,4221.5071,N,07105.2267,W,2,10,0.85,9.8,M,-33.7,M,0000,0000*51 
459.12522       GPS_NMEA_FROM_GPS    iGPS            $GPGGA,163320.000,4221.5073,N,07105.2264,W,2,10,0.85,9.8,M,-33.7,M,0000,0000*5A 
460.12814       GPS_NMEA_FROM_GPS    iGPS            $GPGGA,163321.000,4221.5074,N,07105.2261,W,2,10,0.85,9.8,M,-33.7,M,0000,0000*59 
461.13151       GPS_NMEA_FROM_GPS    iGPS            $GPGSA,A,3,06,19,12,25,11,20,04,09,17,05,,,1.18,0.85,0.83*0A 
462.03465       GPS_NMEA_FROM_GPS    iGPS            $GPGGA,163323.000,4221.5078,N,07105.2256,W,2,10,0.85,9.8,M,-33.7,M,0000,0000*53 
463.13780       GPS_NMEA_FROM_GPS    iGPS            $GPGGA,163324.000,4221.5079,N,07105.2252,W,2,10,0.85,9.7,M,-33.7,M,0000,0000*5E 
464.14079       GPS_NMEA_FROM_GPS    iGPS            $GPGSA,A,3,06,19,12,25,11,20,04,09,17,05,,,1.18,0.85,0.83*0A 
465.14371       GPS_NMEA_FROM_GPS    iGPS            $GPGSA,A,3,06,19,12,25,11,20,04,09,17,05,,,1.18,0.85,0.83*0A 
466.04625       GPS_NMEA_FROM_GPS    iGPS            $GPGGA,163327.000,4221.5083,N,07105.2243,W,2,10,0.85,9.6,M,-33.7,M,0000,0000*59 
467.14967       GPS_NMEA_FROM_GPS    iGPS            $GPGSA,A,3,06,19,12,25,11,20,04,09,17,05,,,1.18,0.85,0.83*0A 
