2.87913         GPS_NMEA_FROM_GPS    iGPS            $GPGGA,162204.000,4221.4952,N,07105.2391,W,2,09,0.97,3.0,M,-33.7,M,0000,0000*55 
3.88197         GPS_NMEA_FROM_GPS    iGPS            $GPGGA,162205.000,4221.4952,N,07105.2392,W,2,09,0.97,3.1,M,-33.7,M,0000,0000*56 
4.88457         GPS_NMEA_FROM_GPS    iGPS            $GPGGA,162206.000,4221.4954,N,07105.2390,W,2,09,0.97,3.1,M,-33.7,M,0000,0000*51 
5.98763         GPS_NMEA_FROM_GPS    iGPS            $GPGSA,A,3,11,19,17,06,03,04,12,09,20,,,,1.26,0.97,0.81*07 
6.89045         GPS_NMEA_FROM_GPS    iGPS            $GPGSA,A,3,11,19,17,06,03,04,12,09,20,,,,1.26,0.97,0.81*07 
7.79262         GPS_NMEA_FROM_GPS    iGPS            $GPGGA,162209.000,4221.4957,N,07105.2384,W,2,09,0.97,3.2,M,-33.7,M,0000,0000*5B 
8.79468         GPS_NMEA_FROM_GPS    iGPS            $GPGGA,162210.000,4221.4958,N,07105.2382,W,2,09,0.97,3.2,M,-33.7,M,0000,0000*5A 
9.89742         GPS_NMEA_FROM_GPS    iGPS            $GPGSA,A,3,11,19,17,06,03,04,12,09,20,,,,1.26,0.97,0.81*07 
10.90002        GPS_NMEA_FROM_GPS    iGPS            $GPGGA,162212.000,4221.4961,N,07105.2376,W,2,09,0.97,3.1,M,-33.7,M,0000,0000*5A 
10.90002        GPS_NMEA_FROM_GPS    iGPS            $GPGGA,162212.000,4221.4961,N,07105.2376,W,2,09,0.97,3.1,M,-33.7,M,0000,0000*5A 
11.90343        GPS_NMEA_FROM_GPS    iGPS            $GPGSA,A,3,11,19,17,06,03,04,12,09,20,,,,1.26,0.97,0.81*07 
12.90688        GPS_NMEA_FROM_GPS    iGPS            $GPGSA,A,3,11,19,17,06,03,04,12,09,20,,,,1.26,0.97,0.81*07 
13.90967        GPS_NMEA_FROM_GPS    iGPS            $GPGGA,162215.000,4221.4963,N,07105.2365,W,2,09,0.97,3.2,M,-33.7,M,0000,0000*5E 
13.90967        GPS_NMEA_FROM_GPS    iGPS            $GPGGA,162215.000,4221.4963,N,07105.2365,W,2,09,0.97,3.2,M,-33.7,M,0000,0000*5E 
14.91220        GPS_NMEA_FROM_GPS    iGPS            $GPGGA,162216.000,4221.4963,N,07105.2363,W,2,09,0.97,3.2,M,-33.7,M,0000,0000*5B 
15.81421        GPS_NMEA_FROM_GPS    iGPS            $GPGGA,162217.000,4221.4964,N,07105.2360,W,2,09,0.97,3.2,M,-33.7,M,0000,0000*5E 
16.81778        GPS_NMEA_FROM_GPS    iGPS            $GPGGA,162218.000,4221.4964,N,07105.2356,W,2,09,0.97,3.2,M,-33.7,M,0000,0000*54 
17.91978        GPS_NMEA_FROM_GPS    iGPS            $GPGGA,162219.000,4221.4962,N,07105.2353,W,2,09,0.97,3.2,M,-33.7,M,0000,0000*56 
18.92231        GPS_NMEA_FROM_GPS    iGPS            $GPGSA,A,3,11,19,17,06,03,04,12,09,20,,,,1.26,0.97,0.81*07 
18.92231        GPS_NMEA_FROM_GPS    iGPS            $GPGSA,A,3,11,19,17,06,03,04,12,09,20,,,,1.26,0.97,0.81*07 
19.82496        GPS_NMEA_FROM_GPS    iGPS            $GPGGA,162221.000,4221.4963,N,07105.2348,W,2,09,0.97,3.2,M,-33.7,M,0000,0000*56 
20.82731        GPS_NMEA_FROM_GPS    iGPS            $GPGGA,162222.000,4221.4963,N,07105.2344,W,2,09,0.97,3.2,M,-33.7,M,0000,0000*59 
21.93014        GPS_NMEA_FROM_GPS    iGPS            $GPGSA,A,3,11,19,17,06,03,04,12,09,20,,,,1.26,0.97,0.81*07 
22.93216        GPS_NMEA_FROM_GPS    iGPS            $GPGSA,A,3,11,19,17,06,03,04,12,09,20,,,,1.26,0.97,0.81*07 
23.93468        GPS_NMEA_FROM_GPS    iGPS            $GPGGA,162225.000,4221.4963,N,07105.2334,W,2,09,0.97,3.3,M,-33.7,M,0000,0000*58 
24.93714        GPS_NMEA_FROM_GPS    iGPS            $GPGSA,A,3,11,19,17,06,03,04,12,09,20,,,,1.26,0.97,0.81*07 
25.94028        GPS_NMEA_FROM_GPS    iGPS            $GPGSA,A,3,11,19,17,06,03,04,12,09,20,,,,1.26,0.97,0.81*07 
26.94341        GPS_NMEA_FROM_GPS    iGPS            $GPGSA,A,3,11,19,17,06,03,04,12,09,20,,,,1.26,0.97,0.81*07 
27.84629        GPS_NMEA_FROM_GPS    iGPS            $GPGGA,162229.000,4221.4963,N,07105.2321,W,2,09,0.97,3.1,M,-33.7,M,0000,0000*52 
28.84915        GPS_NMEA_FROM_GPS    iGPS            $GPGGA,162230.000,4221.4963,N,07105.2317,W,2,09,0.97,3.0,M,-33.7,M,0000,0000*5E 
29.85256        GPS_NMEA_FROM_GPS    iGPS            $GPGGA,162231.000,4221.4963,N,07105.2313,W,2,09,0.97,3.0,M,-33.7,M,0000,0000*5B 
30.85537        GPS_NMEA_FROM_GPS    iGPS            $GPGGA,162232.000,4221.4963,N,07105.2310,W,2,09,0.97,3.0,M,-33.7,M,0000,0000*5B 
31.85927        GPS_NMEA_FROM_GPS    iGPS            $GPGGA,162233.000,4221.4964,N,07105.2305,W,2,09,0.97,3.0,M,-33.7,M,0000,0000*59 
32.86206        GPS_NMEA_FROM_GPS    iGPS            $GPGGA,162234.000,4221.4965,N,07105.2300,W,2,09,0.97,3.0,M,-33.7,M,0000,0000*5A 
33.86456        GPS_NMEA_FROM_GPS    iGPS            $GPGGA,162235.000,4221.4965,N,07105.2295,W,2,09,0.97,3.0,M,-33.7,M,0000,0000*56 
34.86683        GPS_NMEA_FROM_GPS    iGPS            $GPGGA,162236.000,4221.4966,N,07105.2291,W,2,09,0.97,3.0,M,-33.7,M,0000,0000*52 
35.86971        GPS_NMEA_FROM_GPS    iGPS            $GPGGA,162237.000,4221.4966,N,07105.2287,W,2,09,0.97,3.0,M,-33.7,M,0000,0000*54 
36.87201        GPS_NMEA_FROM_GPS    iGPS            $GPGGA,162238.000,4221.4966,N,07105.2284,W,2,09,0.97,3.0,M,-33.7,M,0000,0000*58 
37.87520        GPS_NMEA_FROM_GPS    iGPS            $GPGGA,162239.000,4221.4965,N,07105.2282,W,2,09,0.97,2.9,M,-33.7,M,0000,0000*54 
38.97817        GPS_NMEA_FROM_GPS    iGPS            $GPGSA,A,3,11,19,17,06,03,04,12,09,20,,,,1.26,0.97,0.81*07 
39.88093        GPS_NMEA_FROM_GPS    iGPS            $GPGSA,A,3,11,19,17,06,03,04,12,09,20,,,,1.26,0.97,0.81*07 
40.88355        GPS_NMEA_FROM_GPS    iGPS            $GPGSA,A,3,11,19,17,06,03,04,12,09,20,,,,1.26,0.97,0.81*07 
41.88700        GPS_NMEA_FROM_GPS    iGPS            $GPGGA,162243.000,4221.4965,N,07105.2274,W,2,09,0.97,2.9,M,-33.7,M,0000,0000*50 
42.99006        GPS_NMEA_FROM_GPS    iGPS            $GPGSA,A,3,11,19,17,06,03,04,12,09,20,,,,1.26,0.97,0.81*07 
43.89272        GPS_NMEA_FROM_GPS    iGPS            $GPGGA,162245.000,4221.4967,N,07105.2278,W,2,09,0.97,3.0,M,-33.7,M,0000,0000*50 
44.89555        GPS_NMEA_FROM_GPS    iGPS            $GPGGA,162246.000,4221.4967,N,07105.2277,W,2,09,0.97,3.0,M,-33.7,M,0000,0000*5C 
45.89836        GPS_NMEA_FROM_GPS    iGPS            $GPGGA,162247.000,4221.4968,N,07105.2276,W,2,09,0.97,3.0,M,-33.7,M,0000,0000*53 
46.90105        GPS_NMEA_FROM_GPS    iGPS            $GPGGA,162248.000,4221.4968,N,07105.2276,W,2,09,0.97,3.0,M,-33.7,M,0000,0000*5C 
47.90353        GPS_NMEA_FROM_GPS    iGPS            $GPGGA,162249.000,4221.4968,N,07105.2276,W,2,09,0.97,3.0,M,-33.7,M,0000,0000*5D 
48.80604        GPS_NMEA_FROM_GPS    iGPS            $GPGGA,162250.000,4221.4968,N,07105.2275,W,2,09,0.97,3.0,M,-33.7,M,0000,0000*56 
49.80903        GPS_NMEA_FROM_GPS    iGPS            $GPGGA,162251.000,4221.4968,N,07105.2274,W,2,09,0.97,3.0,M,-33.7,M,0000,0000*56 
50.91272        GPS_NMEA_FROM_GPS    iGPS            $GPGSA,A,3,11,19,17,06,03,04,12,09,20,,,,1.26,0.97,0.81*07 
51.81469        GPS_NMEA_FROM_GPS    iGPS            $GPGGA,162253.000,4221.4968,N,07105.2273,W,2,09,0.97,3.0,M,-33.7,M,0000,0000*53 
52.91784        GPS_NMEA_FROM_GPS    iGPS            $GPGSA,A,3,11,19,17,06,03,04,12,09,20,,,,1.26,0.97,0.81*07 
53.82043        GPS_NMEA_FROM_GPS    iGPS            $GPGGA,162255.000,4221.4969,N,07105.2270,W,2,09,0.97,3.0,M,-33.7,M,0000,0000*57 
54.92349        GPS_NMEA_FROM_GPS    iGPS            $GPGGA,162256.000,4221.4969,N,07105.2269,W,2,09,0.97,3.0,M,-33.7,M,0000,0000*5C 
55.92645        GPS_NMEA_FROM_GPS    iGPS            $GPGSA,A,3,11,19,17,06,03,04,12,09,20,,,,1.26,0.97,0.81*07 
56.82907        GPS_NMEA_FROM_GPS    iGPS            $GPGGA,162258.000,4221.4969,N,07105.2265,W,2,09,0.97,3.0,M,-33.7,M,0000,0000*5E 
57.93255        GPS_NMEA_FROM_GPS    iGPS            $GPGSA,A,3,11,19,17,06,03,04,12,09,20,,,,1.26,0.97,0.81*07 
58.93516        GPS_NMEA_FROM_GPS    iGPS            $GPGSA,A,3,11,19,17,06,03,04,12,09,20,,,,1.26,0.97,0.81*07 
59.93768        GPS_NMEA_FROM_GPS    iGPS            $GPGSA,A,3,11,19,17,06,03,04,12,09,20,,,,1.26,0.97,0.81*07 
60.83992        GPS_NMEA_FROM_GPS    iGPS            $GPGGA,162302.000,4221.4968,N,07105.2257,W,2,09,0.97,3.0,M,-33.7,M,0000,0000*50 
61.84345        GPS_NMEA_FROM_GPS    iGPS            $GPGGA,162303.000,4221.4968,N,07105.2255,W,2,09,0.97,3.0,M,-33.7,M,0000,0000*53 
62.84521        GPS_NMEA_FROM_GPS    iGPS            $GPGGA,162304.000,4221.4965,N,07105.2254,W,2,09,0.97,3.0,M,-33.7,M,0000,0000*58 
63.94840        GPS_NMEA_FROM_GPS    iGPS            $GPGSA,A,3,11,19,17,06,03,04,12,09,20,,,,1.26,0.97,0.81*07 
64.95110        GPS_NMEA_FROM_GPS    iGPS            $GPGSA,A,3,11,19,17,06,03,12,09,20,,,,,1.29,1.00,0.82*00 
65.95391        GPS_NMEA_FROM_GPS    iGPS            $GPGSA,A,3,11,19,17,06,03,12,09,20,,,,,1.29,1.00,0.82*00 
66.85678        GPS_NMEA_FROM_GPS    iGPS            $GPGGA,162308.000,4221.4953,N,07105.2259,W,2,08,1.00,2.7,M,-33.7,M,0000,0000*54 
67.95960        GPS_NMEA_FROM_GPS    iGPS            $GPGSA,A,3,11,19,17,06,03,04,12,09,20,,,,1.26,0.97,0.81*07 
68.96212        GPS_NMEA_FROM_GPS    iGPS            $GPGSA,A,3,11,19,17,06,03,04,12,09,20,,,,1.26,0.97,0.81*07 
69.96504        GPS_NMEA_FROM_GPS    iGPS            $GPGSA,A,3,11,19,17,06,03,04,12,09,20,,,,1.26,0.97,0.81*07 
70.86772        GPS_NMEA_FROM_GPS    iGPS            $GPGGA,162312.000,4221.4940,N,07105.2266,W,2,08,1.00,2.6,M,-33.7,M,0000,0000*50 
71.87068        GPS_NMEA_FROM_GPS    iGPS            $GPGGA,162313.000,4221.4938,N,07105.2267,W,2,08,1.00,2.6,M,-33.7,M,0000,0000*5F 
72.87306        GPS_NMEA_FROM_GPS    iGPS            $GPGSA,A,3,11,19,17,06,03,12,09,20,,,,,1.29,1.00,0.82*00 
73.77519        GPS_NMEA_FROM_GPS    iGPS            $GPGGA,162315.000,4221.4931,N,07105.2271,W,2,08,1.00,2.6,M,-33.7,M,0000,0000*57 
74.87810        GPS_NMEA_FROM_GPS    iGPS            $GPGSA,A,3,11,19,17,06,03,12,09,20,,,,,1.29,1.00,0.82*00 
75.88100        GPS_NMEA_FROM_GPS    iGPS            $GPGGA,162317.000,4221.4927,N,07105.2275,W,2,08,1.00,2.7,M,-33.7,M,0000,0000*57 
76.88414        GPS_NMEA_FROM_GPS    iGPS            $GPGSA,A,3,11,19,17,06,03,12,09,20,,,,,1.29,1.00,0.82*00 
77.88696        GPS_NMEA_FROM_GPS    iGPS            $GPGGA,162319.000,4221.4921,N,07105.2283,W,2,08,1.00,2.7,M,-33.7,M,0000,0000*56 
78.88984        GPS_NMEA_FROM_GPS    iGPS            $GPGGA,162320.000,4221.4918,N,07105.2287,W,2,08,1.00,2.7,M,-33.7,M,0000,0000*52 
79.89275        GPS_NMEA_FROM_GPS    iGPS            $GPGGA,162321.000,4221.4914,N,07105.2291,W,2,08,1.00,2.8,M,-33.7,M,0000,0000*57 
80.89556        GPS_NMEA_FROM_GPS    iGPS            $GPGGA,162322.000,4221.4911,N,07105.2295,W,2,09,0.97,2.8,M,-33.7,M,0000,0000*5B 
81.89889        GPS_NMEA_FROM_GPS    iGPS            $GPGSA,A,3,19,17,06,03,04,12,09,20,,,,,1.30,1.02,0.81*0D 
82.80150        GPS_NMEA_FROM_GPS    iGPS            $GPGGA,162324.000,4221.4905,N,07105.2304,W,2,08,1.00,3.0,M,-33.7,M,0000,0000*56 
83.80434        GPS_NMEA_FROM_GPS    iGPS            $GPGGA,162325.000,4221.4903,N,07105.2309,W,2,07,1.06,3.0,M,-33.7,M,0000,0000*55 
84.90713        GPS_NMEA_FROM_GPS    iGPS            $GPGSA,A,3,19,17,06,03,12,09,20,,,,,,1.34,1.06,0.82*0A 
85.80906        GPS_NMEA_FROM_GPS    iGPS            $GPGGA,162327.000,4221.4898,N,07105.2319,W,2,07,1.06,3.1,M,-33.7,M,0000,0000*54 
86.91198        GPS_NMEA_FROM_GPS    iGPS            $GPGSA,A,3,19,17,06,03,12,09,20,,,,,,1.34,1.06,0.82*0A 
87.91491        GPS_NMEA_FROM_GPS    iGPS            $GPGSA,A,3,19,17,06,03,12,09,20,,,,,,1.34,1.06,0.82*0A 
88.91782        GPS_NMEA_FROM_GPS    iGPS            $GPGSA,A,3,11,19,17,06,03,12,09,20,,,,,1.29,1.00,0.82*00 
89.92085        GPS_NMEA_FROM_GPS    iGPS            $GPGSA,A,3,19,17,06,03,12,09,20,,,,,,1.34,1.06,0.82*0A 
90.82340        GPS_NMEA_FROM_GPS    iGPS            $GPGGA,162332.000,4221.4885,N,07105.2342,W,2,07,1.06,3.0,M,-33.7,M,0000,0000*53 
91.82663        GPS_NMEA_FROM_GPS    iGPS            $GPGGA,162333.000,4221.4885,N,07105.2346,W,2,07,1.06,3.0,M,-33.7,M,0000,0000*56 
92.92982        GPS_NMEA_FROM_GPS    iGPS            $GPGGA,162334.000,4221.4883,N,07105.2350,W,2,09,0.97,3.0,M,-33.7,M,0000,0000*57 
93.93287        GPS_NMEA_FROM_GPS    iGPS            $GPGSA,A,3,11,19,17,06,03,12,04,09,20,,,,1.26,0.97,0.81*07 
94.93575        GPS_NMEA_FROM_GPS    iGPS            $GPGSA,A,3,11,19,17,06,03,12,04,09,20,,,,1.26,0.97,0.81*07 
95.93868        GPS_NMEA_FROM_GPS    iGPS            $GPGSA,A,3,11,19,17,06,03,12,04,09,20,,,,1.26,0.97,0.81*07 
96.94190        GPS_NMEA_FROM_GPS    iGPS            $GPGSA,A,3,11,19,17,06,03,12,04,09,20,,,,1.26,0.97,0.81*07 
97.84399        GPS_NMEA_FROM_GPS    iGPS            $GPGGA,162339.000,4221.4878,N,07105.2367,W,2,09,0.97,2.9,M,-33.7,M,0000,0000*52 
98.84599        GPS_NMEA_FROM_GPS    iGPS            $GPGGA,162340.000,4221.4878,N,07105.2371,W,2,09,0.97,2.9,M,-33.7,M,0000,0000*5B 
99.84842        GPS_NMEA_FROM_GPS    iGPS            $GPGGA,162341.000,4221.4877,N,07105.2375,W,2,08,1.00,3.0,M,-33.7,M,0000,0000*57 
100.95135       GPS_NMEA_FROM_GPS    iGPS            $GPGSA,A,3,11,19,17,06,03,12,04,09,20,,,,1.26,0.97,0.81*07 
101.95441       GPS_NMEA_FROM_GPS    iGPS            $GPGGA,162343.000,4221.4877,N,07105.2382,W,2,09,0.97,2.9,M,-33.7,M,0000,0000*5B 
102.95736       GPS_NMEA_FROM_GPS    iGPS            $GPGSA,A,3,11,19,17,06,03,12,04,09,20,,,,1.26,0.97,0.81*07 
103.85998       GPS_NMEA_FROM_GPS    iGPS            $GPGGA,162345.000,4221.4878,N,07105.2389,W,2,09,0.97,2.8,M,-33.7,M,0000,0000*58 
104.86300       GPS_NMEA_FROM_GPS    iGPS            $GPGGA,162346.000,4221.4880,N,07105.2392,W,2,09,0.97,2.8,M,-33.7,M,0000,0000*56 
105.96635       GPS_NMEA_FROM_GPS    iGPS            $GPGSA,A,3,11,19,17,06,03,12,04,09,20,,,,1.26,0.97,0.81*07 
106.86924       GPS_NMEA_FROM_GPS    iGPS            $GPGGA,162348.000,4221.4880,N,07105.2400,W,2,09,0.97,2.7,M,-33.7,M,0000,0000*5B 
107.97233       GPS_NMEA_FROM_GPS    iGPS            $GPGSA,A,3,11,19,17,06,03,12,04,09,20,,,,1.26,0.97,0.81*07 
108.97521       GPS_NMEA_FROM_GPS    iGPS            $GPGSA,A,3,11,19,17,06,03,12,04,09,20,,,,1.26,0.97,0.81*07 
109.87789       GPS_NMEA_FROM_GPS    iGPS            $GPGGA,162351.000,4221.4883,N,07105.2407,W,2,09,0.97,2.5,M,-33.7,M,0000,0000*55 
110.88039       GPS_NMEA_FROM_GPS    iGPS            $GPGSA,A,3,11,19,17,06,03,12,09,20,,,,,1.30,1.00,0.82*08 
111.78279       GPS_NMEA_FROM_GPS    iGPS            $GPGGA,162353.000,4221.4881,N,07105.2415,W,2,08,1.00,2.4,M,-33.7,M,0000,0000*59 
112.88580       GPS_NMEA_FROM_GPS    iGPS            $GPGSA,A,3,11,19,17,06,03,12,09,20,,,,,1.30,1.00,0.82*08 
113.88849       GPS_NMEA_FROM_GPS    iGPS            $GPGGA,162355.000,4221.4880,N,07105.2421,W,2,08,1.00,2.4,M,-33.7,M,0000,0000*59 
114.89141       GPS_NMEA_FROM_GPS    iGPS            $GPGGA,162356.000,4221.4880,N,07105.2423,W,2,08,1.00,2.3,M,-33.7,M,0000,0000*5F 
115.89470       GPS_NMEA_FROM_GPS    iGPS            $GPGSA,A,3,19,17,06,03,12,04,09,20,,,,,1.30,1.02,0.81*0D 
116.89869       GPS_NMEA_FROM_GPS    iGPS            $GPGSA,A,3,19,17,06,03,12,04,09,20,,,,,1.30,1.02,0.81*0D 
117.90187       GPS_NMEA_FROM_GPS    iGPS            $GPGSA,A,3,19,17,06,03,12,09,20,,,,,,1.34,1.06,0.82*0A 
118.80351       GPS_NMEA_FROM_GPS    iGPS            $GPGGA,162400.000,4221.4879,N,07105.2432,W,2,08,1.00,2.0,M,-33.7,M,0000,0000*5E 
119.90661       GPS_NMEA_FROM_GPS    iGPS            $GPGGA,162401.000,4221.4879,N,07105.2436,W,2,09,0.97,2.1,M,-33.7,M,0000,0000*54 
120.80980       GPS_NMEA_FROM_GPS    iGPS            $GPGGA,162402.000,4221.4878,N,07105.2439,W,2,08,1.00,2.0,M,-33.7,M,0000,0000*56 
121.91304       GPS_NMEA_FROM_GPS    iGPS            $GPGSA,A,3,11,19,17,06,03,12,09,20,,,,,1.30,1.00,0.82*08 
122.91592       GPS_NMEA_FROM_GPS    iGPS            $GPGGA,162404.000,4221.4875,N,07105.2445,W,2,08,1.00,1.9,M,-33.7,M,0000,0000*5C 
123.91839       GPS_NMEA_FROM_GPS    iGPS            $GPGGA,162405.000,4221.4874,N,07105.2449,W,2,09,0.97,1.9,M,-33.7,M,0000,0000*5E 
124.82063       GPS_NMEA_FROM_GPS    iGPS            $GPGGA,162406.000,4221.4873,N,07105.2453,W,2,08,1.00,1.9,M,-33.7,M,0000,0000*5F 
125.92424       GPS_NMEA_FROM_GPS    iGPS            $GPGSA,A,3,11,19,17,06,03,12,04,09,20,,,,1.27,0.97,0.81*06 
126.92750       GPS_NMEA_FROM_GPS    iGPS            $GPGGA,162408.000,4221.4871,N,07105.2463,W,2,09,0.97,1.9,M,-33.7,M,0000,0000*5E 
127.93050       GPS_NMEA_FROM_GPS    iGPS            $GPGSA,A,3,11,19,17,06,03,12,04,09,20,,,,1.27,0.97,0.81*06 
128.93330       GPS_NMEA_FROM_GPS    iGPS            $GPGSA,A,3,11,19,17,06,03,12,04,09,20,,,,1.27,0.97,0.81*06 
129.93609       GPS_NMEA_FROM_GPS    iGPS            $GPGGA,162411.000,4221.4869,N,07105.2472,W,2,09,0.97,1.8,M,-33.7,M,0000,0000*5E 
130.93902       GPS_NMEA_FROM_GPS    iGPS            $GPGSA,A,3,11,19,17,06,03,12,04,09,20,,,,1.27,0.97,0.81*06 
131.94207       GPS_NMEA_FROM_GPS    iGPS            $GPGGA,162413.000,4221.4867,N,07105.2481,W,2,09,0.97,1.7,M,-33.7,M,0000,0000*51 
132.84488       GPS_NMEA_FROM_GPS    iGPS            $GPGGA,162414.000,4221.4867,N,07105.2485,W,2,09,0.97,1.7,M,-33.7,M,0000,0000*52 
133.84785       GPS_NMEA_FROM_GPS    iGPS            $GPGGA,162415.000,4221.4867,N,07105.2488,W,2,09,0.97,1.7,M,-33.7,M,0000,0000*5E 
134.95099       GPS_NMEA_FROM_GPS    iGPS            $GPGSA,A,3,11,19,17,06,03,12,04,09,20,,,,1.27,0.97,0.81*06 
135.95358       GPS_NMEA_FROM_GPS    iGPS            $GPGSA,A,3,11,19,17,06,03,12,04,09,20,,,,1.27,0.97,0.81*06 
136.85573       GPS_NMEA_FROM_GPS    iGPS            $GPGGA,162418.000,4221.4870,N,07105.2499,W,2,09,0.97,1.5,M,-33.7,M,0000,0000*57 
137.85795       GPS_NMEA_FROM_GPS    iGPS            $GPGGA,162419.000,4221.4872,N,07105.2503,W,2,09,0.97,1.4,M,-33.7,M,0000,0000*57 
138.86125       GPS_NMEA_FROM_GPS    iGPS            $GPGGA,162420.000,4221.4870,N,07105.2508,W,2,09,0.97,1.4,M,-33.7,M,0000,0000*54 
139.86417       GPS_NMEA_FROM_GPS    iGPS            $GPGGA,162421.000,4221.4871,N,07105.2511,W,2,09,0.97,1.3,M,-33.7,M,0000,0000*5B 
140.86738       GPS_NMEA_FROM_GPS    iGPS            $GPGSA,A,3,11,19,17,06,03,12,04,09,20,,,,1.27,0.97,0.81*06 
141.87082       GPS_NMEA_FROM_GPS    iGPS            $GPGGA,162423.000,4221.4871,N,07105.2518,W,2,09,0.97,1.4,M,-33.7,M,0000,0000*57 
142.87374       GPS_NMEA_FROM_GPS    iGPS            $GPGGA,162424.000,4221.4870,N,07105.2521,W,2,09,0.97,1.4,M,-33.7,M,0000,0000*5B 
143.87660       GPS_NMEA_FROM_GPS    iGPS            $GPGGA,162425.000,4221.4871,N,07105.2525,W,2,09,0.97,1.3,M,-33.7,M,0000,0000*58 
144.87981       GPS_NMEA_FROM_GPS    iGPS            $GPGGA,162426.000,4221.4870,N,07105.2529,W,2,09,0.97,1.3,M,-33.7,M,0000,0000*56 
145.88271       GPS_NMEA_FROM_GPS    iGPS            $GPGSA,A,3,11,19,17,06,03,12,04,09,20,,,,1.27,0.97,0.81*06 
146.78573       GPS_NMEA_FROM_GPS    iGPS            $GPGGA,162428.000,4221.4871,N,07105.2535,W,2,09,0.97,1.3,M,-33.7,M,0000,0000*54 
147.88941       GPS_NMEA_FROM_GPS    iGPS            $GPGGA,162429.000,4221.4871,N,07105.2538,W,2,09,0.97,1.3,M,-33.7,M,0000,0000*58 
148.89192       GPS_NMEA_FROM_GPS    iGPS            $GPGSA,A,3,11,19,17,06,03,12,04,09,20,,,,1.27,0.97,0.81*06 
149.89442       GPS_NMEA_FROM_GPS    iGPS            $GPGSA,A,3,11,19,17,06,03,12,04,09,20,,,,1.27,0.97,0.81*06 
150.89691       GPS_NMEA_FROM_GPS    iGPS            $GPGSA,A,3,11,19,17,06,03,12,04,09,20,,,,1.27,0.97,0.81*06 
151.90008       GPS_NMEA_FROM_GPS    iGPS            $GPGGA,162433.000,4221.4873,N,07105.2552,W,2,09,0.97,1.3,M,-33.7,M,0000,0000*5D 
152.90307       GPS_NMEA_FROM_GPS    iGPS            $GPGGA,162434.000,4221.4875,N,07105.2555,W,2,09,0.97,1.3,M,-33.7,M,0000,0000*5B 
153.90602       GPS_NMEA_FROM_GPS    iGPS            $GPGGA,162435.000,4221.4874,N,07105.2558,W,2,09,0.97,1.3,M,-33.7,M,0000,0000*56 
154.90895       GPS_NMEA_FROM_GPS    iGPS            $GPGGA,162436.000,4221.4876,N,07105.2560,W,2,09,0.97,1.3,M,-33.7,M,0000,0000*5C 
155.91168       GPS_NMEA_FROM_GPS    iGPS            $GPGGA,162437.000,4221.4876,N,07105.2562,W,2,09,0.97,1.3,M,-33.7,M,0000,0000*5F 
156.91498       GPS_NMEA_FROM_GPS    iGPS            $GPGGA,162438.000,4221.4877,N,07105.2565,W,2,09,0.97,1.3,M,-33.7,M,0000,0000*56 
157.91810       GPS_NMEA_FROM_GPS    iGPS            $GPGSA,A,3,11,19,17,06,03,12,04,09,20,,,,1.27,0.97,0.81*06 
158.82075       GPS_NMEA_FROM_GPS    iGPS            $GPGGA,162440.000,4221.4875,N,07105.2572,W,2,09,0.97,1.3,M,-33.7,M,0000,0000*5D 
159.82364       GPS_NMEA_FROM_GPS    iGPS            $GPGGA,162441.000,4221.4874,N,07105.2575,W,2,09,0.97,1.3,M,-33.7,M,0000,0000*5A 
160.82688       GPS_NMEA_FROM_GPS    iGPS            $GPGGA,162442.000,4221.4874,N,07105.2578,W,2,09,0.97,1.3,M,-33.7,M,0000,0000*54 
161.83038       GPS_NMEA_FROM_GPS    iGPS            $GPGGA,162443.000,4221.4871,N,07105.2582,W,2,09,0.97,1.4,M,-33.7,M,0000,0000*52 
162.83292       GPS_NMEA_FROM_GPS    iGPS            $GPGGA,162444.000,4221.4869,N,07105.2585,W,2,09,0.97,1.4,M,-33.7,M,0000,0000*5B 
163.93644       GPS_NMEA_FROM_GPS    iGPS            $GPGSA,A,3,11,19,17,06,03,12,04,09,20,,,,1.27,0.97,0.81*06 
164.83916       GPS_NMEA_FROM_GPS    iGPS            $GPGGA,162446.000,4221.4865,N,07105.2594,W,2,09,0.97,1.4,M,-33.7,M,0000,0000*55 
165.94221       GPS_NMEA_FROM_GPS    iGPS            $GPGSA,A,3,11,19,17,06,03,12,04,09,20,,,,1.27,0.97,0.81*06 
166.84532       GPS_NMEA_FROM_GPS    iGPS            $GPGGA,162448.000,4221.4861,N,07105.2600,W,2,09,0.97,1.5,M,-33.7,M,0000,0000*50 
167.84812       GPS_NMEA_FROM_GPS    iGPS            $GPGGA,162449.000,4221.4859,N,07105.2604,W,2,09,0.97,1.6,M,-33.7,M,0000,0000*5D 
168.95130       GPS_NMEA_FROM_GPS    iGPS            $GPGSA,A,3,11,19,17,06,03,12,04,09,20,,,,1.27,0.97,0.81*06 
169.85385       GPS_NMEA_FROM_GPS    iGPS            $GPGSA,A,3,11,19,17,06,03,12,04,09,20,,,,1.27,0.97,0.81*06 
170.85689       GPS_NMEA_FROM_GPS    iGPS            $GPGSA,A,3,11,19,17,06,03,12,04,09,20,,,,1.27,0.97,0.81*06 
171.86008       GPS_NMEA_FROM_GPS    iGPS            $GPGGA,162453.000,4221.4854,N,07105.2618,W,2,09,0.97,1.9,M,-33.7,M,0000,0000*59 
172.86304       GPS_NMEA_FROM_GPS    iGPS            $GPGGA,162454.000,4221.4854,N,07105.2621,W,2,09,0.97,1.9,M,-33.7,M,0000,0000*54 
173.86599       GPS_NMEA_FROM_GPS    iGPS            $GPGGA,162455.000,4221.4854,N,07105.2625,W,2,09,0.97,1.9,M,-33.7,M,0000,0000*51 
174.96871       GPS_NMEA_FROM_GPS    iGPS            $GPGSA,A,3,11,19,17,06,03,12,04,09,20,,,,1.27,0.97,0.81*06 
175.87083       GPS_NMEA_FROM_GPS    iGPS            $GPGGA,162457.000,4221.4852,N,07105.2634,W,2,09,0.97,2.0,M,-33.7,M,0000,0000*5F 
176.97346       GPS_NMEA_FROM_GPS    iGPS            $GPGSA,A,3,11,19,17,06,03,12,04,09,20,,,,1.27,0.97,0.81*06 
177.97627       GPS_NMEA_FROM_GPS    iGPS            $GPGSA,A,3,11,19,17,06,03,12,04,09,20,,,,1.27,0.97,0.81*06 
178.87901       GPS_NMEA_FROM_GPS    iGPS            $GPGGA,162500.000,4221.4856,N,07105.2643,W,2,09,0.97,1.9,M,-33.7,M,0000,0000*52 
179.88177       GPS_NMEA_FROM_GPS    iGPS            $GPGGA,162501.000,4221.4857,N,07105.2647,W,2,09,0.97,1.9,M,-33.7,M,0000,0000*56 
180.88502       GPS_NMEA_FROM_GPS    iGPS            $GPGGA,162502.000,4221.4857,N,07105.2650,W,2,09,0.97,1.9,M,-33.7,M,0000,0000*53 
181.88836       GPS_NMEA_FROM_GPS    iGPS            $GPGGA,162503.000,4221.4856,N,07105.2654,W,2,09,0.97,1.8,M,-33.7,M,0000,0000*56 
182.89144       GPS_NMEA_FROM_GPS    iGPS            $GPGSA,A,3,11,19,17,06,03,12,04,09,20,,,,1.27,0.97,0.81*06 
183.89425       GPS_NMEA_FROM_GPS    iGPS            $GPGSA,A,3,11,19,17,06,03,12,04,09,20,,,,1.27,0.97,0.81*06 
184.89736       GPS_NMEA_FROM_GPS    iGPS            $GPGGA,162506.000,4221.4855,N,07105.2664,W,2,09,0.97,1.7,M,-33.7,M,0000,0000*5C 
185.90119       GPS_NMEA_FROM_GPS    iGPS            $GPGGA,162507.000,4221.4855,N,07105.2666,W,2,09,0.97,1.7,M,-33.7,M,0000,0000*5F 
186.90337       GPS_NMEA_FROM_GPS    iGPS            $GPGGA,162508.000,4221.4853,N,07105.2669,W,2,09,0.97,1.7,M,-33.7,M,0000,0000*59 
187.90573       GPS_NMEA_FROM_GPS    iGPS            $GPGGA,162509.000,4221.4853,N,07105.2673,W,2,09,0.97,1.6,M,-33.7,M,0000,0000*52 
188.90827       GPS_NMEA_FROM_GPS    iGPS            $GPGGA,162510.000,4221.4852,N,07105.2676,W,2,09,0.97,1.5,M,-33.7,M,0000,0000*5D 
189.91051       GPS_NMEA_FROM_GPS    iGPS            $GPGGA,162511.000,4221.4852,N,07105.2679,W,2,09,0.97,1.5,M,-33.7,M,0000,0000*53 
190.91406       GPS_NMEA_FROM_GPS    iGPS            $GPGSA,A,3,11,19,17,06,03,12,04,09,20,,,,1.27,0.97,0.81*06 
191.91619       GPS_NMEA_FROM_GPS    iGPS            $GPGSA,A,3,11,19,17,06,03,12,04,09,20,,,,1.27,0.97,0.81*06 
192.81882       GPS_NMEA_FROM_GPS    iGPS            $GPGGA,162514.000,4221.4855,N,07105.2690,W,2,09,0.97,1.5,M,-33.7,M,0000,0000*56 
193.92173       GPS_NMEA_FROM_GPS    iGPS            $GPGGA,162515.000,4221.4853,N,07105.2695,W,2,09,0.97,1.5,M,-33.7,M,0000,0000*54 
194.92463       GPS_NMEA_FROM_GPS    iGPS            $GPGSA,A,3,11,19,17,06,03,12,04,09,20,,,,1.27,0.97,0.81*06 
195.92739       GPS_NMEA_FROM_GPS    iGPS            $GPGSA,A,3,11,19,17,06,03,12,04,09,20,,,,1.27,0.97,0.81*06 
196.93045       GPS_NMEA_FROM_GPS    iGPS            $GPGSA,A,3,11,19,17,06,03,12,04,09,20,,,,1.27,0.97,0.81*06 
197.93318       GPS_NMEA_FROM_GPS    iGPS            $GPGGA,162519.000,4221.4849,N,07105.2708,W,2,09,0.97,1.5,M,-33.7,M,0000,0000*56 
198.93665       GPS_NMEA_FROM_GPS    iGPS            $GPGSA,A,3,11,19,17,06,03,12,04,09,20,,,,1.27,0.97,0.81*06 
199.83910       GPS_NMEA_FROM_GPS    iGPS            $GPGGA,162521.000,4221.4849,N,07105.2713,W,2,09,0.97,1.4,M,-33.7,M,0000,0000*56 
199.83910       GPS_NMEA_FROM_GPS    iGPS            $GPGGA,162521.000,4221.4849,N,07105.2713,W,2,09,0.97,1.4,M,-33.7,M,0000,0000*56 
254.88384       GPS_NMEA_FROM_GPS    iGPS            $GPGSA,A,3,11,19,17,06,03,12,04,09,20,,,,1.27,0.97,0.82*05 
255.88621       GPS_NMEA_FROM_GPS    iGPS            $GPGSA,A,3,11,19,17,06,03,12,04,09,20,,,,1.27,0.97,0.82*05 
256.88882       GPS_NMEA_FROM_GPS    iGPS            $GPGGA,162618.000,4221.4818,N,07105.2812,W,2,09,0.97,1.5,M,-33.7,M,0000,0000*54 
257.89150       GPS_NMEA_FROM_GPS    iGPS            $GPGSA,A,3,11,19,17,06,03,12,04,09,20,,,,1.27,0.97,0.82*05 
258.89468       GPS_NMEA_FROM_GPS    iGPS            $GPGGA,162620.000,4221.4818,N,07105.2814,W,2,09,0.97,1.5,M,-33.7,M,0000,0000*59 
259.89750       GPS_NMEA_FROM_GPS    iGPS            $GPGGA,162621.000,4221.4818,N,07105.2815,W,2,09,0.97,1.5,M,-33.7,M,0000,0000*59 
260.90012       GPS_NMEA_FROM_GPS    iGPS            $GPGSA,A,3,11,19,17,06,03,12,04,09,20,,,,1.27,0.97,0.82*05 
261.80245       GPS_NMEA_FROM_GPS    iGPS            $GPGGA,162623.000,4221.4818,N,07105.2818,W,2,09,0.97,1.5,M,-33.7,M,0000,0000*56 
262.80550       GPS_NMEA_FROM_GPS    iGPS            $GPGGA,162624.000,4221.4818,N,07105.2819,W,2,09,0.97,1.5,M,-33.7,M,0000,0000*50 
263.80815       GPS_NMEA_FROM_GPS    iGPS            $GPGGA,162625.000,4221.4818,N,07105.2820,W,2,09,0.97,1.5,M,-33.7,M,0000,0000*5B 
264.91112       GPS_NMEA_FROM_GPS    iGPS            $GPGSA,A,3,11,19,17,06,03,12,04,09,20,,,,1.27,0.97,0.82*05 
265.91331       GPS_NMEA_FROM_GPS    iGPS            $GPGSA,A,3,11,19,17,06,03,12,04,09,20,,,,1.27,0.97,0.82*05 
266.81607       GPS_NMEA_FROM_GPS    iGPS            $GPGGA,162628.000,4221.4818,N,07105.2825,W,2,09,0.97,1.4,M,-33.7,M,0000,0000*52 
267.81904       GPS_NMEA_FROM_GPS    iGPS            $GPGGA,162629.000,4221.4818,N,07105.2826,W,2,09,0.97,1.4,M,-33.7,M,0000,0000*50 
268.82219       GPS_NMEA_FROM_GPS    iGPS            $GPGGA,162630.000,4221.4817,N,07105.2828,W,2,09,0.97,1.4,M,-33.7,M,0000,0000*59 
269.92503       GPS_NMEA_FROM_GPS    iGPS            $GPGSA,A,3,11,19,17,06,03,12,04,09,20,,,,1.27,0.97,0.82*05 
270.92733       GPS_NMEA_FROM_GPS    iGPS            $GPGSA,A,3,11,19,17,06,03,12,04,09,20,,,,1.27,0.97,0.82*05 
271.82930       GPS_NMEA_FROM_GPS    iGPS            $GPGGA,162633.000,4221.4817,N,07105.2831,W,2,09,0.97,1.4,M,-33.7,M,0000,0000*52 
272.83229       GPS_NMEA_FROM_GPS    iGPS            $GPGGA,162634.000,4221.4817,N,07105.2833,W,2,09,0.97,1.4,M,-33.7,M,0000,0000*57 
273.93570       GPS_NMEA_FROM_GPS    iGPS            $GPGSA,A,3,11,19,17,06,03,12,04,09,20,,,,1.27,0.97,0.82*05 
274.93867       GPS_NMEA_FROM_GPS    iGPS            $GPGSA,A,3,11,19,17,06,03,12,04,09,20,,,,1.27,0.97,0.82*05 
275.84105       GPS_NMEA_FROM_GPS    iGPS            $GPGGA,162637.000,4221.4816,N,07105.2837,W,2,09,0.97,1.4,M,-33.7,M,0000,0000*51 
276.84382       GPS_NMEA_FROM_GPS    iGPS            $GPGGA,162638.000,4221.4816,N,07105.2839,W,2,09,0.97,1.4,M,-33.7,M,0000,0000*50 
277.84574       GPS_NMEA_FROM_GPS    iGPS            $GPGGA,162639.000,4221.4815,N,07105.2840,W,2,09,0.98,1.4,M,-33.7,M,0000,0000*53 
278.84885       GPS_NMEA_FROM_GPS    iGPS            $GPGGA,162640.000,4221.4815,N,07105.2842,W,2,09,0.98,1.4,M,-33.7,M,0000,0000*5F 
279.95207       GPS_NMEA_FROM_GPS    iGPS            $GPGSA,A,3,11,19,17,06,03,12,04,09,20,,,,1.27,0.97,0.82*05 
280.95465       GPS_NMEA_FROM_GPS    iGPS            $GPGSA,A,3,11,19,17,06,03,12,04,09,20,,,,1.27,0.98,0.82*0A 
281.95717       GPS_NMEA_FROM_GPS    iGPS            $GPGSA,A,3,11,19,17,06,03,12,04,09,20,,,,1.27,0.98,0.82*0A 
282.85985       GPS_NMEA_FROM_GPS    iGPS            $GPGGA,162644.000,4221.4814,N,07105.2848,W,2,09,0.98,1.4,M,-33.7,M,0000,0000*50 
283.86303       GPS_NMEA_FROM_GPS    iGPS            $GPGGA,162645.000,4221.4813,N,07105.2850,W,2,09,0.98,1.4,M,-33.7,M,0000,0000*5F 
284.86605       GPS_NMEA_FROM_GPS    iGPS            $GPGSA,A,3,11,19,17,06,03,12,04,09,20,,,,1.27,0.98,0.82*0A 
285.86839       GPS_NMEA_FROM_GPS    iGPS            $GPGGA,162647.000,4221.4812,N,07105.2853,W,2,08,1.14,1.4,M,-33.7,M,0000,0000*5B 
286.87094       GPS_NMEA_FROM_GPS    iGPS            $GPGGA,162648.000,4221.4812,N,07105.2856,W,2,08,1.14,1.4,M,-33.7,M,0000,0000*51 
287.87336       GPS_NMEA_FROM_GPS    iGPS            $GPGGA,162649.000,4221.4812,N,07105.2859,W,2,09,0.98,1.4,M,-33.7,M,0000,0000*5B 
288.87644       GPS_NMEA_FROM_GPS    iGPS            $GPGGA,162650.000,4221.4812,N,07105.2862,W,2,09,0.98,1.4,M,-33.7,M,0000,0000*5B 
289.77899       GPS_NMEA_FROM_GPS    iGPS            $GPGGA,162651.000,4221.4813,N,07105.2863,W,2,09,0.98,1.4,M,-33.7,M,0000,0000*5A 
290.88156       GPS_NMEA_FROM_GPS    iGPS            $GPGSA,A,3,11,19,17,06,03,12,04,09,20,,,,1.27,0.98,0.82*0A 
291.88392       GPS_NMEA_FROM_GPS    iGPS            $GPGSA,A,3,11,19,17,06,03,12,04,09,20,,,,1.27,0.98,0.82*0A 
292.78619       GPS_NMEA_FROM_GPS    iGPS            $GPGGA,162654.000,4221.4813,N,07105.2869,W,2,09,0.98,1.4,M,-33.7,M,0000,0000*55 
293.88911       GPS_NMEA_FROM_GPS    iGPS            $GPGGA,162655.000,4221.4813,N,07105.2870,W,2,09,0.98,1.4,M,-33.7,M,0000,0000*5C 
294.89201       GPS_NMEA_FROM_GPS    iGPS            $GPGSA,A,3,11,19,17,06,03,12,04,09,20,,,,1.27,0.98,0.82*0A 
295.89434       GPS_NMEA_FROM_GPS    iGPS            $GPGGA,162657.000,4221.4812,N,07105.2873,W,2,09,0.98,1.4,M,-33.7,M,0000,0000*5C 
296.89753       GPS_NMEA_FROM_GPS    iGPS            $GPGSA,A,3,11,19,17,06,03,12,04,09,20,,,,1.27,0.98,0.82*0A 
297.90031       GPS_NMEA_FROM_GPS    iGPS            $GPGSA,A,3,11,19,17,06,03,12,04,09,20,,,,1.27,0.98,0.82*0A 
298.90318       GPS_NMEA_FROM_GPS    iGPS            $GPGGA,162700.000,4221.4810,N,07105.2877,W,2,09,0.98,1.3,M,-33.7,M,0000,0000*5E 
299.90661       GPS_NMEA_FROM_GPS    iGPS            $GPGSA,A,3,11,19,17,06,03,12,04,09,20,,,,1.27,0.98,0.82*0A 
300.90968       GPS_NMEA_FROM_GPS    iGPS            $GPGSA,A,3,11,19,17,06,03,12,04,09,20,,,,1.27,0.98,0.82*0A 
301.81253       GPS_NMEA_FROM_GPS    iGPS            $GPGGA,162703.000,4221.4806,N,07105.2881,W,2,09,0.98,1.3,M,-33.7,M,0000,0000*53 
302.91491       GPS_NMEA_FROM_GPS    iGPS            $GPGGA,162704.000,4221.4805,N,07105.2882,W,2,09,0.98,1.3,M,-33.7,M,0000,0000*54 
303.91692       GPS_NMEA_FROM_GPS    iGPS            $GPGGA,162705.000,4221.4804,N,07105.2883,W,2,09,0.98,1.3,M,-33.7,M,0000,0000*55 
304.91962       GPS_NMEA_FROM_GPS    iGPS            $GPGSA,A,3,11,19,17,06,03,12,04,09,20,,,,1.27,0.98,0.82*0A 
305.92183       GPS_NMEA_FROM_GPS    iGPS            $GPGGA,162707.000,4221.4803,N,07105.2887,W,2,09,0.98,1.3,M,-33.7,M,0000,0000*54 
306.92482       GPS_NMEA_FROM_GPS    iGPS            $GPGGA,162708.000,4221.4803,N,07105.2889,W,2,09,0.98,1.3,M,-33.7,M,0000,0000*55 
307.82811       GPS_NMEA_FROM_GPS    iGPS            $GPGGA,162709.000,4221.4803,N,07105.2891,W,2,09,0.98,1.3,M,-33.7,M,0000,0000*5D 
308.83138       GPS_NMEA_FROM_GPS    iGPS            $GPGGA,162710.000,4221.4803,N,07105.2892,W,2,09,0.98,1.3,M,-33.7,M,0000,0000*56 
309.83482       GPS_NMEA_FROM_GPS    iGPS            $GPGGA,162711.000,4221.4803,N,07105.2894,W,2,09,0.98,1.3,M,-33.7,M,0000,0000*51 
310.83652       GPS_NMEA_FROM_GPS    iGPS            $GPGGA,162712.000,4221.4802,N,07105.2897,W,2,09,0.98,1.3,M,-33.7,M,0000,0000*50 
311.83941       GPS_NMEA_FROM_GPS    iGPS            $GPGGA,162713.000,4221.4801,N,07105.2899,W,2,09,0.98,1.3,M,-33.7,M,0000,0000*5C 
312.84257       GPS_NMEA_FROM_GPS    iGPS            $GPGGA,162714.000,4221.4801,N,07105.2901,W,2,09,1.00,1.2,M,-33.7,M,0000,0000*5A 
313.84610       GPS_NMEA_FROM_GPS    iGPS            $GPGGA,162715.000,4221.4801,N,07105.2903,W,2,09,0.98,1.2,M,-33.7,M,0000,0000*59 
314.94820       GPS_NMEA_FROM_GPS    iGPS            $GPGSA,A,3,11,19,17,06,03,12,04,09,20,,,,1.73,1.00,1.42*06 
315.95029       GPS_NMEA_FROM_GPS    iGPS            $GPGSA,A,3,11,19,17,06,03,12,04,09,20,,,,1.73,1.00,1.42*06 
