2.92292         GPS_NMEA_FROM_GPS    iGPS            $GPGSA,A,3,13,12,29,19,11,25,06,20,09,05,,,1.48,0.84,1.22*0F 
3.92467         GPS_NMEA_FROM_GPS    iGPS            $GPGSA,A,3,13,12,29,19,11,25,06,20,09,05,,,1.12,0.81,0.77*04 
3.92467         GPS_NMEA_FROM_GPS    iGPS            $GPGSA,A,3,13,12,29,19,11,25,06,20,09,05,,,1.12,0.81,0.77*04 
4.92640         GPS_NMEA_FROM_GPS    iGPS            $GPGSA,A,3,13,12,29,19,11,25,06,20,09,05,,,1.12,0.81,0.77*04 
5.92818         GPS_NMEA_FROM_GPS    iGPS            $GPGSA,A,3,13,12,29,19,11,25,06,20,09,05,,,1.12,0.81,0.77*04 
6.82975         GPS_NMEA_FROM_GPS    iGPS            $GPGGA,171208.000,4221.5029,N,07105.2401,W,2,10,0.84,1.7,M,-33.7,M,0000,0000*5E 
7.93177         GPS_NMEA_FROM_GPS    iGPS            $GPGSA,A,3,13,12,29,19,11,25,06,20,09,05,,,1.48,0.84,1.22*0F 
8.93396         GPS_NMEA_FROM_GPS    iGPS            $GPGSA,A,3,13,12,29,19,11,25,06,20,09,05,,,1.48,0.84,1.22*0F 
9.83657         GPS_NMEA_FROM_GPS    iGPS            $GPGGA,171211.000,4221.5033,N,07105.2398,W,2,10,0.81,1.5,M,-33.7,M,0000,0000*5D 
10.93880        GPS_NMEA_FROM_GPS    iGPS            $GPGSA,A,3,13,12,29,19,11,25,06,20,09,05,,,1.48,0.84,1.22*0F 
10.93880        GPS_NMEA_FROM_GPS    iGPS            $GPGSA,A,3,13,12,29,19,11,25,06,20,09,05,,,1.48,0.84,1.22*0F 
11.84034        GPS_NMEA_FROM_GPS    iGPS            $GPGGA,171213.000,4221.5036,N,07105.2394,W,2,10,0.81,1.4,M,-33.7,M,0000,0000*57 
11.84034        GPS_NMEA_FROM_GPS    iGPS            $GPGGA,171213.000,4221.5036,N,07105.2394,W,2,10,0.81,1.4,M,-33.7,M,0000,0000*57 
12.84222        GPS_NMEA_FROM_GPS    iGPS            $GPGGA,171214.000,4221.5037,N,07105.2392,W,2,10,0.81,1.5,M,-33.7,M,0000,0000*56 
13.94429        GPS_NMEA_FROM_GPS    iGPS            $GPGSA,A,3,13,12,29,19,11,25,06,20,09,05,,,1.48,0.84,1.22*0F 
14.84623        GPS_NMEA_FROM_GPS    iGPS            $GPGGA,171216.000,4221.5041,N,07105.2389,W,2,10,0.84,1.5,M,-33.7,M,0000,0000*5A 
14.84623        GPS_NMEA_FROM_GPS    iGPS            $GPGGA,171216.000,4221.5041,N,07105.2389,W,2,10,0.84,1.5,M,-33.7,M,0000,0000*5A 
15.84838        GPS_NMEA_FROM_GPS    iGPS            $GPGGA,171217.000,4221.5043,N,07105.2387,W,2,10,0.84,1.4,M,-33.7,M,0000,0000*56 
15.84838        GPS_NMEA_FROM_GPS    iGPS            $GPGGA,171217.000,4221.5043,N,07105.2387,W,2,10,0.84,1.4,M,-33.7,M,0000,0000*56 
16.85036        GPS_NMEA_FROM_GPS    iGPS            $GPGGA,171218.000,4221.5045,N,07105.2386,W,2,10,0.81,1.4,M,-33.7,M,0000,0000*5B 
17.85314        GPS_NMEA_FROM_GPS    iGPS            $GPGGA,171219.000,4221.5045,N,07105.2385,W,2,10,0.81,1.5,M,-33.7,M,0000,0000*58 
18.85563        GPS_NMEA_FROM_GPS    iGPS            $GPGSA,A,3,13,12,29,19,11,25,06,20,09,05,,,1.48,0.84,1.22*0F 
19.85750        GPS_NMEA_FROM_GPS    iGPS            $GPGSA,A,3,13,12,29,19,11,25,06,20,09,05,,,1.12,0.81,0.77*04 
20.85942        GPS_NMEA_FROM_GPS    iGPS            $GPGSA,A,3,13,12,29,19,11,25,06,20,09,05,,,1.48,0.84,1.22*0F 
21.86129        GPS_NMEA_FROM_GPS    iGPS            $GPGSA,A,3,13,12,29,19,11,25,06,20,09,05,,,1.48,0.84,1.22*0F 
22.86337        GPS_NMEA_FROM_GPS    iGPS            $GPGGA,171224.000,4221.5052,N,07105.2381,W,2,10,0.84,1.5,M,-33.7,M,0000,0000*51 
23.86715        GPS_NMEA_FROM_GPS    iGPS            $GPGGA,171225.000,4221.5053,N,07105.2381,W,2,10,0.84,1.4,M,-33.7,M,0000,0000*50 
24.86904        GPS_NMEA_FROM_GPS    iGPS            $GPGGA,171226.000,4221.5055,N,07105.2381,W,2,10,0.84,1.4,M,-33.7,M,0000,0000*55 
25.87093        GPS_NMEA_FROM_GPS    iGPS            $GPGGA,171227.000,4221.5056,N,07105.2381,W,2,10,0.84,1.5,M,-33.7,M,0000,0000*56 
26.87281        GPS_NMEA_FROM_GPS    iGPS            $GPGGA,171228.000,4221.5058,N,07105.2381,W,2,10,0.84,1.5,M,-33.7,M,0000,0000*57 
27.87490        GPS_NMEA_FROM_GPS    iGPS            $GPGGA,171229.000,4221.5059,N,07105.2380,W,2,10,0.84,1.5,M,-33.7,M,0000,0000*56 
28.87688        GPS_NMEA_FROM_GPS    iGPS            $GPGGA,171230.000,4221.5060,N,07105.2379,W,2,10,0.84,1.6,M,-33.7,M,0000,0000*51 
29.87878        GPS_NMEA_FROM_GPS    iGPS            $GPGGA,171231.000,4221.5060,N,07105.2379,W,2,10,0.84,1.6,M,-33.7,M,0000,0000*50 
30.78058        GPS_NMEA_FROM_GPS    iGPS            $GPGGA,171232.000,4221.5061,N,07105.2380,W,2,10,0.84,1.6,M,-33.7,M,0000,0000*54 
31.88291        GPS_NMEA_FROM_GPS    iGPS            $GPGSA,A,3,13,12,29,19,11,25,06,20,09,05,,,1.48,0.84,1.22*0F 
32.88498        GPS_NMEA_FROM_GPS    iGPS            $GPGGA,171234.000,4221.5063,N,07105.2380,W,2,10,0.84,1.6,M,-33.7,M,0000,0000*50 
33.88703        GPS_NMEA_FROM_GPS    iGPS            $GPGSA,A,3,13,12,29,19,11,25,06,20,09,05,,,1.48,0.84,1.22*0F 
34.88909        GPS_NMEA_FROM_GPS    iGPS            $GPGGA,171236.000,4221.5065,N,07105.2381,W,2,10,0.84,1.6,M,-33.7,M,0000,0000*55 
35.79077        GPS_NMEA_FROM_GPS    iGPS            $GPGGA,171237.000,4221.5066,N,07105.2381,W,2,10,0.84,1.6,M,-33.7,M,0000,0000*57 
36.89276        GPS_NMEA_FROM_GPS    iGPS            $GPGSA,A,3,13,12,29,19,11,25,06,20,09,05,,,1.48,0.84,1.22*0F 
37.89470        GPS_NMEA_FROM_GPS    iGPS            $GPGGA,171239.000,4221.5068,N,07105.2381,W,2,10,0.84,1.6,M,-33.7,M,0000,0000*57 
38.79645        GPS_NMEA_FROM_GPS    iGPS            $GPGGA,171240.000,4221.5069,N,07105.2380,W,2,10,0.81,1.6,M,-33.7,M,0000,0000*5C 
39.89855        GPS_NMEA_FROM_GPS    iGPS            $GPGSA,A,3,13,12,29,19,11,25,06,20,09,05,,,1.48,0.84,1.22*0F 
40.80037        GPS_NMEA_FROM_GPS    iGPS            $GPGGA,171242.000,4221.5070,N,07105.2380,W,2,10,0.81,1.7,M,-33.7,M,0000,0000*57 
41.90248        GPS_NMEA_FROM_GPS    iGPS            $GPGSA,A,3,13,12,29,19,11,25,06,20,09,05,,,1.12,0.81,0.77*04 
42.80458        GPS_NMEA_FROM_GPS    iGPS            $GPGGA,171244.000,4221.5070,N,07105.2383,W,2,10,0.81,1.7,M,-33.7,M,0000,0000*52 
43.80647        GPS_NMEA_FROM_GPS    iGPS            $GPGGA,171245.000,4221.5070,N,07105.2385,W,2,10,0.81,1.7,M,-33.7,M,0000,0000*55 
43.80647        GPS_NMEA_FROM_GPS    iGPS            $GPGGA,171245.000,4221.5070,N,07105.2385,W,2,10,0.81,1.7,M,-33.7,M,0000,0000*55 
44.80843        GPS_NMEA_FROM_GPS    iGPS            $GPGGA,171246.000,4221.5069,N,07105.2391,W,2,10,0.81,1.7,M,-33.7,M,0000,0000*5B 
45.81035        GPS_NMEA_FROM_GPS    iGPS            $GPGGA,171247.000,4221.5070,N,07105.2393,W,2,10,0.81,1.8,M,-33.7,M,0000,0000*5F 
46.91239        GPS_NMEA_FROM_GPS    iGPS            $GPGSA,A,3,13,12,29,19,11,25,06,20,09,05,,,1.12,0.81,0.77*04 
47.91435        GPS_NMEA_FROM_GPS    iGPS            $GPGGA,171249.000,4221.5067,N,07105.2401,W,2,10,0.81,1.9,M,-33.7,M,0000,0000*5A 
48.91621        GPS_NMEA_FROM_GPS    iGPS            $GPGSA,A,3,13,12,29,19,11,25,06,20,09,05,,,1.12,0.81,0.77*04 
49.92059        GPS_NMEA_FROM_GPS    iGPS            $GPGSA,A,3,13,12,29,19,11,25,06,20,09,05,,,1.12,0.81,0.77*04 
50.82476        GPS_NMEA_FROM_GPS    iGPS            $GPGGA,171252.000,4221.5065,N,07105.2409,W,2,10,0.81,2.0,M,-33.7,M,0000,0000*50 
51.92675        GPS_NMEA_FROM_GPS    iGPS            $GPGSA,A,3,13,12,29,19,11,25,06,20,09,05,,,1.12,0.81,0.77*04 
52.82869        GPS_NMEA_FROM_GPS    iGPS            $GPGGA,171254.000,4221.5065,N,07105.2413,W,2,10,0.81,2.1,M,-33.7,M,0000,0000*5C 
53.83047        GPS_NMEA_FROM_GPS    iGPS            $GPGGA,171255.000,4221.5065,N,07105.2415,W,2,10,0.81,2.2,M,-33.7,M,0000,0000*58 
54.83241        GPS_NMEA_FROM_GPS    iGPS            $GPGGA,171256.000,4221.5065,N,07105.2417,W,2,10,0.81,2.2,M,-33.7,M,0000,0000*59 
55.83426        GPS_NMEA_FROM_GPS    iGPS            $GPGGA,171257.000,4221.5063,N,07105.2419,W,2,10,0.81,2.1,M,-33.7,M,0000,0000*53 
56.83617        GPS_NMEA_FROM_GPS    iGPS            $GPGGA,171258.000,4221.5062,N,07105.2420,W,2,10,0.81,2.1,M,-33.7,M,0000,0000*57 
57.83822        GPS_NMEA_FROM_GPS    iGPS            $GPGGA,171259.000,4221.5061,N,07105.2422,W,2,10,0.81,2.1,M,-33.7,M,0000,0000*57 
58.84031        GPS_NMEA_FROM_GPS    iGPS            $GPGGA,171300.000,4221.5059,N,07105.2423,W,2,10,0.81,2.2,M,-33.7,M,0000,0000*53 
59.84299        GPS_NMEA_FROM_GPS    iGPS            $GPGSA,A,3,13,12,29,19,11,25,06,20,09,05,,,1.12,0.81,0.77*04 
60.84489        GPS_NMEA_FROM_GPS    iGPS            $GPGSA,A,3,13,12,29,19,11,25,06,20,09,05,,,1.12,0.81,0.77*04 
61.84679        GPS_NMEA_FROM_GPS    iGPS            $GPGSA,A,3,13,12,29,19,11,25,06,20,09,05,,,1.12,0.81,0.77*04 
62.84895        GPS_NMEA_FROM_GPS    iGPS            $GPGSA,A,3,13,12,29,19,11,25,06,20,09,05,,,1.12,0.81,0.77*04 
63.85085        GPS_NMEA_FROM_GPS    iGPS            $GPGSA,A,3,13,12,29,19,11,25,06,20,09,05,,,1.12,0.81,0.77*04 
64.85282        GPS_NMEA_FROM_GPS    iGPS            $GPGGA,171306.000,4221.5045,N,07105.2420,W,2,10,0.81,2.7,M,-33.7,M,0000,0000*5E 
65.85550        GPS_NMEA_FROM_GPS    iGPS            $GPGGA,171307.000,4221.5042,N,07105.2420,W,2,10,0.81,2.7,M,-33.7,M,0000,0000*58 
66.85764        GPS_NMEA_FROM_GPS    iGPS            $GPGGA,171308.000,4221.5038,N,07105.2419,W,2,10,0.81,2.8,M,-33.7,M,0000,0000*5F 
67.86003        GPS_NMEA_FROM_GPS    iGPS            $GPGGA,171309.000,4221.5035,N,07105.2419,W,2,10,0.81,2.9,M,-33.7,M,0000,0000*52 
68.86193        GPS_NMEA_FROM_GPS    iGPS            $GPGGA,171310.000,4221.5033,N,07105.2420,W,2,10,0.81,2.9,M,-33.7,M,0000,0000*56 
69.86380        GPS_NMEA_FROM_GPS    iGPS            $GPGSA,A,3,13,12,29,19,11,25,06,20,09,05,,,1.12,0.81,0.77*04 
70.86706        GPS_NMEA_FROM_GPS    iGPS            $GPGGA,171312.000,4221.5029,N,07105.2425,W,2,10,0.81,3.0,M,-33.7,M,0000,0000*52 
71.86998        GPS_NMEA_FROM_GPS    iGPS            $GPGGA,171313.000,4221.5026,N,07105.2428,W,2,10,0.81,3.0,M,-33.7,M,0000,0000*51 
72.87208        GPS_NMEA_FROM_GPS    iGPS            $GPGGA,171314.000,4221.5023,N,07105.2429,W,2,10,0.81,3.1,M,-33.7,M,0000,0000*53 
73.77386        GPS_NMEA_FROM_GPS    iGPS            $GPGGA,171315.000,4221.5020,N,07105.2432,W,2,10,0.81,3.3,M,-33.7,M,0000,0000*59 
74.87587        GPS_NMEA_FROM_GPS    iGPS            $GPGGA,171316.000,4221.5018,N,07105.2435,W,2,10,0.81,3.3,M,-33.7,M,0000,0000*56 
75.77789        GPS_NMEA_FROM_GPS    iGPS            $GPGGA,171317.000,4221.5016,N,07105.2439,W,2,10,0.81,3.3,M,-33.7,M,0000,0000*55 
76.87995        GPS_NMEA_FROM_GPS    iGPS            $GPGGA,171318.000,4221.5014,N,07105.2441,W,2,10,0.81,3.3,M,-33.7,M,0000,0000*57 
77.88200        GPS_NMEA_FROM_GPS    iGPS            $GPGSA,A,3,13,12,29,19,11,25,06,20,09,05,,,1.12,0.81,0.77*04 
78.88383        GPS_NMEA_FROM_GPS    iGPS            $GPGGA,171320.000,4221.5011,N,07105.2446,W,2,10,0.81,3.3,M,-33.7,M,0000,0000*5E 
79.88567        GPS_NMEA_FROM_GPS    iGPS            $GPGSA,A,3,13,12,29,19,11,25,06,20,09,05,,,1.12,0.81,0.77*04 
80.88745        GPS_NMEA_FROM_GPS    iGPS            $GPGGA,171322.000,4221.5006,N,07105.2452,W,2,10,0.81,3.4,M,-33.7,M,0000,0000*58 
81.78927        GPS_NMEA_FROM_GPS    iGPS            $GPGGA,171323.000,4221.5004,N,07105.2455,W,2,10,0.81,3.5,M,-33.7,M,0000,0000*5D 
82.79154        GPS_NMEA_FROM_GPS    iGPS            $GPGGA,171324.000,4221.5002,N,07105.2458,W,2,10,0.81,3.6,M,-33.7,M,0000,0000*52 
83.79345        GPS_NMEA_FROM_GPS    iGPS            $GPGGA,171325.000,4221.5000,N,07105.2462,W,2,10,0.81,3.8,M,-33.7,M,0000,0000*56 
84.79536        GPS_NMEA_FROM_GPS    iGPS            $GPGGA,171326.000,4221.4997,N,07105.2466,W,2,10,0.81,3.9,M,-33.7,M,0000,0000*56 
85.79720        GPS_NMEA_FROM_GPS    iGPS            $GPGGA,171327.000,4221.4994,N,07105.2472,W,2,10,0.81,4.0,M,-33.7,M,0000,0000*5F 
86.79905        GPS_NMEA_FROM_GPS    iGPS            $GPGGA,171328.000,4221.4992,N,07105.2475,W,2,10,0.81,4.1,M,-33.7,M,0000,0000*50 
87.90135        GPS_NMEA_FROM_GPS    iGPS            $GPGSA,A,3,13,12,29,19,11,25,06,20,09,05,,,1.12,0.81,0.77*04 
88.90353        GPS_NMEA_FROM_GPS    iGPS            $GPGSA,A,3,13,12,29,19,11,25,06,20,09,05,,,1.12,0.81,0.77*04 
89.90526        GPS_NMEA_FROM_GPS    iGPS            $GPGGA,171331.000,4221.4989,N,07105.2484,W,2,10,0.81,4.1,M,-33.7,M,0000,0000*5C 
90.80726        GPS_NMEA_FROM_GPS    iGPS            $GPGGA,171332.000,4221.4989,N,07105.2488,W,2,10,0.81,4.1,M,-33.7,M,0000,0000*53 
91.90942        GPS_NMEA_FROM_GPS    iGPS            $GPGSA,A,3,13,12,29,19,11,25,06,20,09,05,,,1.12,0.81,0.77*04 
92.91138        GPS_NMEA_FROM_GPS    iGPS            $GPGGA,171334.000,4221.4988,N,07105.2493,W,2,10,0.81,4.1,M,-33.7,M,0000,0000*5E 
93.91394        GPS_NMEA_FROM_GPS    iGPS            $GPGSA,A,3,13,12,29,19,11,25,06,20,09,05,,,1.12,0.81,0.77*04 
94.81565        GPS_NMEA_FROM_GPS    iGPS            $GPGGA,171336.000,4221.4989,N,07105.2492,W,2,10,0.81,4.3,M,-33.7,M,0000,0000*5E 
95.91757        GPS_NMEA_FROM_GPS    iGPS            $GPGSA,A,3,13,12,29,19,11,25,06,20,09,05,,,1.12,0.81,0.77*04 
96.81952        GPS_NMEA_FROM_GPS    iGPS            $GPGGA,171338.000,4221.4988,N,07105.2492,W,2,10,0.81,4.3,M,-33.7,M,0000,0000*51 
97.92161        GPS_NMEA_FROM_GPS    iGPS            $GPGSA,A,3,13,12,29,19,11,25,06,20,09,05,,,1.12,0.81,0.77*04 
98.82387        GPS_NMEA_FROM_GPS    iGPS            $GPGGA,171340.000,4221.4985,N,07105.2492,W,2,10,0.81,4.3,M,-33.7,M,0000,0000*53 
99.92584        GPS_NMEA_FROM_GPS    iGPS            $GPGSA,A,3,13,12,29,19,11,25,06,20,09,05,,,1.12,0.81,0.77*04 
100.82761       GPS_NMEA_FROM_GPS    iGPS            $GPGGA,171342.000,4221.4984,N,07105.2492,W,2,10,0.81,4.4,M,-33.7,M,0000,0000*57 
101.92980       GPS_NMEA_FROM_GPS    iGPS            $GPGSA,A,3,13,12,29,19,11,25,06,20,09,05,,,1.12,0.81,0.77*04 
102.83164       GPS_NMEA_FROM_GPS    iGPS            $GPGGA,171344.000,4221.4982,N,07105.2492,W,2,10,0.81,4.4,M,-33.7,M,0000,0000*57 
103.83351       GPS_NMEA_FROM_GPS    iGPS            $GPGGA,171345.000,4221.4981,N,07105.2491,W,2,10,0.81,4.4,M,-33.7,M,0000,0000*56 
104.83536       GPS_NMEA_FROM_GPS    iGPS            $GPGGA,171346.000,4221.4981,N,07105.2490,W,2,10,0.81,4.4,M,-33.7,M,0000,0000*54 
105.83725       GPS_NMEA_FROM_GPS    iGPS            $GPGGA,171347.000,4221.4980,N,07105.2489,W,2,10,0.81,4.4,M,-33.7,M,0000,0000*5C 
106.83942       GPS_NMEA_FROM_GPS    iGPS            $GPGGA,171348.000,4221.4980,N,07105.2488,W,2,10,0.81,4.4,M,-33.7,M,0000,0000*52 
106.83942       GPS_NMEA_FROM_GPS    iGPS            $GPGGA,171348.000,4221.4980,N,07105.2488,W,2,10,0.81,4.4,M,-33.7,M,0000,0000*52 
107.84483       GPS_NMEA_FROM_GPS    iGPS            $GPGGA,171349.000,4221.4980,N,07105.2486,W,2,10,0.81,4.4,M,-33.7,M,0000,0000*5D 
107.84483       GPS_NMEA_FROM_GPS    iGPS            $GPGGA,171349.000,4221.4980,N,07105.2486,W,2,10,0.81,4.4,M,-33.7,M,0000,0000*5D 
108.84694       GPS_NMEA_FROM_GPS    iGPS            $GPGGA,171350.000,4221.4982,N,07105.2483,W,2,10,0.81,4.4,M,-33.7,M,0000,0000*52 
109.84899       GPS_NMEA_FROM_GPS    iGPS            $GPGGA,171351.000,4221.4983,N,07105.2481,W,2,10,0.81,4.4,M,-33.7,M,0000,0000*50 
110.85097       GPS_NMEA_FROM_GPS    iGPS            $GPGGA,171352.000,4221.4984,N,07105.2478,W,2,10,0.81,4.4,M,-33.7,M,0000,0000*52 
111.85388       GPS_NMEA_FROM_GPS    iGPS            $GPGGA,171353.000,4221.4984,N,07105.2476,W,2,10,0.81,4.4,M,-33.7,M,0000,0000*5D 
112.85590       GPS_NMEA_FROM_GPS    iGPS            $GPGGA,171354.000,4221.4985,N,07105.2475,W,2,10,0.81,4.4,M,-33.7,M,0000,0000*58 
113.85793       GPS_NMEA_FROM_GPS    iGPS            $GPGGA,171355.000,4221.4985,N,07105.2474,W,2,10,0.81,4.4,M,-33.7,M,0000,0000*58 
114.85983       GPS_NMEA_FROM_GPS    iGPS            $GPGGA,171356.000,4221.4986,N,07105.2473,W,2,10,0.81,4.4,M,-33.7,M,0000,0000*5F 
115.86174       GPS_NMEA_FROM_GPS    iGPS            $GPGGA,171357.000,4221.4987,N,07105.2472,W,2,10,0.81,4.4,M,-33.7,M,0000,0000*5E 
116.86359       GPS_NMEA_FROM_GPS    iGPS            $GPGGA,171358.000,4221.4988,N,07105.2471,W,2,10,0.81,4.4,M,-33.7,M,0000,0000*5D 
117.86596       GPS_NMEA_FROM_GPS    iGPS            $GPGGA,171359.000,4221.4989,N,07105.2470,W,2,10,0.81,4.4,M,-33.7,M,0000,0000*5C 
118.86794       GPS_NMEA_FROM_GPS    iGPS            $GPGGA,171400.000,4221.4990,N,07105.2467,W,2,10,0.81,4.4,M,-33.7,M,0000,0000*59 
119.86980       GPS_NMEA_FROM_GPS    iGPS            $GPGSA,A,3,13,12,29,19,11,25,06,20,09,05,,,1.12,0.81,0.77*04 
120.87171       GPS_NMEA_FROM_GPS    iGPS            $GPGSA,A,3,13,12,29,19,11,25,06,20,09,05,,,1.12,0.81,0.77*04 
121.87361       GPS_NMEA_FROM_GPS    iGPS            $GPGGA,171403.000,4221.4991,N,07105.2461,W,2,10,0.81,4.4,M,-33.7,M,0000,0000*5D 
122.87553       GPS_NMEA_FROM_GPS    iGPS            $GPGGA,171404.000,4221.4993,N,07105.2459,W,2,10,0.81,4.4,M,-33.7,M,0000,0000*53 
123.87744       GPS_NMEA_FROM_GPS    iGPS            $GPGSA,A,3,13,12,29,19,11,25,06,20,09,05,,,1.12,0.81,0.77*04 
124.77916       GPS_NMEA_FROM_GPS    iGPS            $GPGGA,171406.000,4221.4993,N,07105.2457,W,2,10,0.81,4.3,M,-33.7,M,0000,0000*58 
125.78092       GPS_NMEA_FROM_GPS    iGPS            $GPGGA,171407.000,4221.4994,N,07105.2456,W,2,09,0.87,4.3,M,-33.7,M,0000,0000*51 
126.78301       GPS_NMEA_FROM_GPS    iGPS            $GPGGA,171408.000,4221.4995,N,07105.2456,W,2,09,0.87,4.3,M,-33.7,M,0000,0000*5F 
127.88514       GPS_NMEA_FROM_GPS    iGPS            $GPGSA,A,3,13,12,29,19,11,25,06,20,09,05,,,1.12,0.81,0.77*04 
128.78686       GPS_NMEA_FROM_GPS    iGPS            $GPGGA,171410.000,4221.4998,N,07105.2452,W,2,10,0.81,4.3,M,-33.7,M,0000,0000*51 
129.88883       GPS_NMEA_FROM_GPS    iGPS            $GPGGA,171411.000,4221.5000,N,07105.2450,W,2,10,0.81,4.2,M,-33.7,M,0000,0000*5A 
130.79078       GPS_NMEA_FROM_GPS    iGPS            $GPGGA,171412.000,4221.5005,N,07105.2449,W,2,09,0.87,4.2,M,-33.7,M,0000,0000*5A 
131.89311       GPS_NMEA_FROM_GPS    iGPS            $GPGGA,171413.000,4221.5008,N,07105.2448,W,2,09,0.87,4.1,M,-33.7,M,0000,0000*54 
132.89588       GPS_NMEA_FROM_GPS    iGPS            $GPGSA,A,3,13,12,29,19,11,25,20,09,05,,,,1.16,0.87,0.77*00 
133.89793       GPS_NMEA_FROM_GPS    iGPS            $GPGGA,171415.000,4221.5012,N,07105.2447,W,2,10,0.81,3.9,M,-33.7,M,0000,0000*57 
134.89989       GPS_NMEA_FROM_GPS    iGPS            $GPGSA,A,3,13,12,29,19,11,25,20,09,05,,,,1.16,0.87,0.77*00 
135.90169       GPS_NMEA_FROM_GPS    iGPS            $GPGGA,171417.000,4221.5018,N,07105.2442,W,2,09,0.87,3.9,M,-33.7,M,0000,0000*54 
136.80372       GPS_NMEA_FROM_GPS    iGPS            $GPGGA,171418.000,4221.5020,N,07105.2438,W,2,09,0.87,3.8,M,-33.7,M,0000,0000*5C 
136.80372       GPS_NMEA_FROM_GPS    iGPS            $GPGGA,171418.000,4221.5020,N,07105.2438,W,2,09,0.87,3.8,M,-33.7,M,0000,0000*5C 
137.90597       GPS_NMEA_FROM_GPS    iGPS            $GPGGA,171419.000,4221.5021,N,07105.2433,W,2,10,0.81,3.8,M,-33.7,M,0000,0000*59 
138.90806       GPS_NMEA_FROM_GPS    iGPS            $GPGSA,A,3,13,12,29,19,11,25,06,20,09,05,,,1.12,0.81,0.77*04 
139.90996       GPS_NMEA_FROM_GPS    iGPS            $GPGSA,A,3,13,12,29,19,11,25,20,09,05,,,,1.16,0.87,0.77*00 
140.81162       GPS_NMEA_FROM_GPS    iGPS            $GPGGA,171422.000,4221.5022,N,07105.2417,W,2,09,0.87,3.8,M,-33.7,M,0000,0000*5A 
141.81353       GPS_NMEA_FROM_GPS    iGPS            $GPGGA,171423.000,4221.5023,N,07105.2413,W,2,09,0.87,3.7,M,-33.7,M,0000,0000*51 
142.91578       GPS_NMEA_FROM_GPS    iGPS            $GPGSA,A,3,13,12,29,19,11,25,20,09,05,,,,1.16,0.87,0.77*00 
143.91833       GPS_NMEA_FROM_GPS    iGPS            $GPGSA,A,3,13,12,29,19,11,25,20,09,05,,,,1.16,0.87,0.77*00 
144.82002       GPS_NMEA_FROM_GPS    iGPS            $GPGGA,171426.000,4221.5026,N,07105.2404,W,2,09,0.87,3.7,M,-33.7,M,0000,0000*57 
145.82184       GPS_NMEA_FROM_GPS    iGPS            $GPGGA,171427.000,4221.5028,N,07105.2401,W,2,09,0.87,3.7,M,-33.7,M,0000,0000*5D 
146.82451       GPS_NMEA_FROM_GPS    iGPS            $GPGGA,171428.000,4221.5028,N,07105.2400,W,2,09,0.87,3.7,M,-33.7,M,0000,0000*53 
147.82640       GPS_NMEA_FROM_GPS    iGPS            $GPGGA,171429.000,4221.5029,N,07105.2398,W,2,09,0.87,3.7,M,-33.7,M,0000,0000*55 
148.82851       GPS_NMEA_FROM_GPS    iGPS            $GPGGA,171430.000,4221.5031,N,07105.2394,W,2,10,0.81,3.7,M,-33.7,M,0000,0000*56 
149.83032       GPS_NMEA_FROM_GPS    iGPS            $GPGGA,171431.000,4221.5032,N,07105.2391,W,2,10,0.81,3.7,M,-33.7,M,0000,0000*51 
150.83237       GPS_NMEA_FROM_GPS    iGPS            $GPGGA,171432.000,4221.5033,N,07105.2386,W,2,10,0.81,3.7,M,-33.7,M,0000,0000*55 
151.83421       GPS_NMEA_FROM_GPS    iGPS            $GPGGA,171433.000,4221.5033,N,07105.2379,W,2,10,0.81,3.7,M,-33.7,M,0000,0000*54 
152.83633       GPS_NMEA_FROM_GPS    iGPS            $GPGGA,171434.000,4221.5034,N,07105.2372,W,2,10,0.81,3.7,M,-33.7,M,0000,0000*5F 
153.83850       GPS_NMEA_FROM_GPS    iGPS            $GPGGA,171435.000,4221.5035,N,07105.2364,W,2,10,0.81,3.8,M,-33.7,M,0000,0000*57 
154.84088       GPS_NMEA_FROM_GPS    iGPS            $GPGGA,171436.000,4221.5035,N,07105.2358,W,2,10,0.81,3.8,M,-33.7,M,0000,0000*5B 
155.84333       GPS_NMEA_FROM_GPS    iGPS            $GPGGA,171437.000,4221.5036,N,07105.2354,W,2,09,0.87,3.7,M,-33.7,M,0000,0000*54 
156.84527       GPS_NMEA_FROM_GPS    iGPS            $GPGGA,171438.000,4221.5037,N,07105.2350,W,2,09,0.87,3.8,M,-33.7,M,0000,0000*51 
157.84730       GPS_NMEA_FROM_GPS    iGPS            $GPGGA,171439.000,4221.5039,N,07105.2346,W,2,09,0.87,3.7,M,-33.7,M,0000,0000*56 
158.84918       GPS_NMEA_FROM_GPS    iGPS            $GPGGA,171440.000,4221.5040,N,07105.2343,W,2,09,0.87,3.6,M,-33.7,M,0000,0000*52 
159.85109       GPS_NMEA_FROM_GPS    iGPS            $GPGSA,A,3,13,12,29,19,11,25,20,09,05,,,,1.16,0.87,0.77*00 
160.85303       GPS_NMEA_FROM_GPS    iGPS            $GPGGA,171442.000,4221.5044,N,07105.2336,W,2,10,0.81,3.6,M,-33.7,M,0000,0000*58 
161.85604       GPS_NMEA_FROM_GPS    iGPS            $GPGGA,171443.000,4221.5046,N,07105.2332,W,2,10,0.81,3.6,M,-33.7,M,0000,0000*5F 
162.86155       GPS_NMEA_FROM_GPS    iGPS            $GPGGA,171444.000,4221.5048,N,07105.2328,W,2,09,0.87,3.6,M,-33.7,M,0000,0000*53 
163.86471       GPS_NMEA_FROM_GPS    iGPS            $GPGSA,A,3,13,12,29,19,11,25,20,09,05,,,,1.16,0.87,0.77*00 
164.86661       GPS_NMEA_FROM_GPS    iGPS            $GPGGA,171446.000,4221.5051,N,07105.2317,W,2,09,0.87,3.7,M,-33.7,M,0000,0000*54 
165.86880       GPS_NMEA_FROM_GPS    iGPS            $GPGSA,A,3,13,12,29,19,11,25,20,09,05,,,,1.16,0.87,0.77*00 
166.87069       GPS_NMEA_FROM_GPS    iGPS            $GPGGA,171448.000,4221.5053,N,07105.2306,W,2,10,0.81,3.6,M,-33.7,M,0000,0000*57 
167.87282       GPS_NMEA_FROM_GPS    iGPS            $GPGSA,A,3,13,12,29,19,11,25,06,20,09,05,,,1.12,0.81,0.77*04 
167.87282       GPS_NMEA_FROM_GPS    iGPS            $GPGSA,A,3,13,12,29,19,11,25,06,20,09,05,,,1.12,0.81,0.77*04 
168.87484       GPS_NMEA_FROM_GPS    iGPS            $GPGGA,171450.000,4221.5054,N,07105.2297,W,2,10,0.81,3.6,M,-33.7,M,0000,0000*50 
169.87678       GPS_NMEA_FROM_GPS    iGPS            $GPGSA,A,3,13,12,29,19,11,25,06,20,09,05,,,1.12,0.81,0.77*04 
170.87867       GPS_NMEA_FROM_GPS    iGPS            $GPGSA,A,3,13,12,29,19,11,25,06,20,09,05,,,1.12,0.81,0.77*04 
171.88044       GPS_NMEA_FROM_GPS    iGPS            $GPGSA,A,3,13,12,29,19,11,25,06,20,09,05,,,1.12,0.81,0.77*04 
172.88259       GPS_NMEA_FROM_GPS    iGPS            $GPGSA,A,3,13,12,29,19,11,25,06,20,09,05,,,1.12,0.81,0.77*04 
173.88441       GPS_NMEA_FROM_GPS    iGPS            $GPGGA,171455.000,4221.5062,N,07105.2267,W,2,10,0.81,3.4,M,-33.7,M,0000,0000*5D 
174.88689       GPS_NMEA_FROM_GPS    iGPS            $GPGGA,171456.000,4221.5062,N,07105.2261,W,2,10,0.81,3.4,M,-33.7,M,0000,0000*58 
175.88944       GPS_NMEA_FROM_GPS    iGPS            $GPGGA,171457.000,4221.5062,N,07105.2256,W,2,10,0.81,3.4,M,-33.7,M,0000,0000*5D 
176.89305       GPS_NMEA_FROM_GPS    iGPS            $GPGGA,171458.000,4221.5063,N,07105.2251,W,2,10,0.81,3.3,M,-33.7,M,0000,0000*53 
177.89500       GPS_NMEA_FROM_GPS    iGPS            $GPGGA,171459.000,4221.5063,N,07105.2246,W,2,10,0.81,3.3,M,-33.7,M,0000,0000*54 
178.79785       GPS_NMEA_FROM_GPS    iGPS            $GPGGA,171500.000,4221.5063,N,07105.2244,W,2,10,0.81,3.3,M,-33.7,M,0000,0000*5B 
179.89984       GPS_NMEA_FROM_GPS    iGPS            $GPGGA,171501.000,4221.5062,N,07105.2241,W,2,10,0.81,3.3,M,-33.7,M,0000,0000*5E 
180.80235       GPS_NMEA_FROM_GPS    iGPS            $GPGGA,171502.000,4221.5060,N,07105.2236,W,2,10,0.81,3.4,M,-33.7,M,0000,0000*58 
181.80415       GPS_NMEA_FROM_GPS    iGPS            $GPGGA,171503.000,4221.5057,N,07105.2229,W,2,10,0.81,3.4,M,-33.7,M,0000,0000*53 
182.90716       GPS_NMEA_FROM_GPS    iGPS            $GPGSA,A,3,13,12,29,19,11,25,06,20,09,05,,,1.12,0.81,0.77*04 
183.80878       GPS_NMEA_FROM_GPS    iGPS            $GPGGA,171505.000,4221.5053,N,07105.2223,W,2,10,0.81,3.5,M,-33.7,M,0000,0000*5A 
184.81165       GPS_NMEA_FROM_GPS    iGPS            $GPGGA,171506.000,4221.5050,N,07105.2222,W,2,10,0.81,3.5,M,-33.7,M,0000,0000*5B 
185.91406       GPS_NMEA_FROM_GPS    iGPS            $GPGGA,171507.000,4221.5048,N,07105.2219,W,2,10,0.81,3.6,M,-33.7,M,0000,0000*58 
186.81578       GPS_NMEA_FROM_GPS    iGPS            $GPGGA,171508.000,4221.5046,N,07105.2214,W,2,10,0.81,3.6,M,-33.7,M,0000,0000*54 
187.91797       GPS_NMEA_FROM_GPS    iGPS            $GPGSA,A,3,13,12,29,19,11,25,06,20,09,05,,,1.12,0.81,0.77*04 
188.81967       GPS_NMEA_FROM_GPS    iGPS            $GPGGA,171510.000,4221.5046,N,07105.2207,W,2,10,0.81,3.6,M,-33.7,M,0000,0000*5F 
189.82161       GPS_NMEA_FROM_GPS    iGPS            $GPGGA,171511.000,4221.5048,N,07105.2205,W,2,10,0.81,3.6,M,-33.7,M,0000,0000*52 
190.82346       GPS_NMEA_FROM_GPS    iGPS            $GPGGA,171512.000,4221.5050,N,07105.2203,W,2,10,0.81,3.7,M,-33.7,M,0000,0000*5F 
191.82548       GPS_NMEA_FROM_GPS    iGPS            $GPGGA,171513.000,4221.5051,N,07105.2198,W,2,10,0.81,3.7,M,-33.7,M,0000,0000*5E 
192.82750       GPS_NMEA_FROM_GPS    iGPS            $GPGGA,171514.000,4221.5054,N,07105.2193,W,2,10,0.81,3.7,M,-33.7,M,0000,0000*57 
193.82951       GPS_NMEA_FROM_GPS    iGPS            $GPGGA,171515.000,4221.5056,N,07105.2189,W,2,10,0.81,3.7,M,-33.7,M,0000,0000*5F 
194.83171       GPS_NMEA_FROM_GPS    iGPS            $GPGGA,171516.000,4221.5057,N,07105.2184,W,2,10,0.81,3.8,M,-33.7,M,0000,0000*5F 
195.83406       GPS_NMEA_FROM_GPS    iGPS            $GPGSA,A,3,13,12,29,19,11,25,06,20,09,05,,,1.12,0.81,0.77*04 
196.93614       GPS_NMEA_FROM_GPS    iGPS            $GPGSA,A,3,13,12,29,19,11,25,06,20,09,05,,,1.12,0.81,0.77*04 
197.83801       GPS_NMEA_FROM_GPS    iGPS            $GPGGA,171519.000,4221.5055,N,07105.2178,W,2,10,0.81,3.7,M,-33.7,M,0000,0000*5E 
198.83998       GPS_NMEA_FROM_GPS    iGPS            $GPGGA,171520.000,4221.5053,N,07105.2177,W,2,10,0.81,3.7,M,-33.7,M,0000,0000*5D 
199.84181       GPS_NMEA_FROM_GPS    iGPS            $GPGGA,171521.000,4221.5053,N,07105.2175,W,2,10,0.81,3.8,M,-33.7,M,0000,0000*51 
200.94456       GPS_NMEA_FROM_GPS    iGPS            $GPGSA,A,3,13,12,29,19,11,25,06,20,09,05,,,1.12,0.81,0.77*04 
201.84633       GPS_NMEA_FROM_GPS    iGPS            $GPGGA,171523.000,4221.5049,N,07105.2171,W,2,10,0.81,3.8,M,-33.7,M,0000,0000*5C 
202.84848       GPS_NMEA_FROM_GPS    iGPS            $GPGSA,A,3,13,12,29,19,11,25,06,20,09,05,,,1.12,0.81,0.77*04 
203.85375       GPS_NMEA_FROM_GPS    iGPS            $GPGGA,171525.000,4221.5045,N,07105.2166,W,2,10,0.81,3.9,M,-33.7,M,0000,0000*51 
204.85566       GPS_NMEA_FROM_GPS    iGPS            $GPGGA,171526.000,4221.5042,N,07105.2163,W,2,10,0.81,3.9,M,-33.7,M,0000,0000*50 
205.85755       GPS_NMEA_FROM_GPS    iGPS            $GPGSA,A,3,13,12,29,19,11,25,06,20,09,05,,,1.12,0.81,0.77*04 
206.86021       GPS_NMEA_FROM_GPS    iGPS            $GPGGA,171528.000,4221.5039,N,07105.2158,W,2,10,0.81,4.0,M,-33.7,M,0000,0000*54 
207.86264       GPS_NMEA_FROM_GPS    iGPS            $GPGSA,A,3,13,12,29,19,11,25,06,20,09,05,,,1.12,0.81,0.77*04 
208.86450       GPS_NMEA_FROM_GPS    iGPS            $GPGGA,171530.000,4221.5036,N,07105.2151,W,2,10,0.81,4.0,M,-33.7,M,0000,0000*5B 
209.86633       GPS_NMEA_FROM_GPS    iGPS            $GPGGA,171531.000,4221.5038,N,07105.2147,W,2,10,0.81,4.1,M,-33.7,M,0000,0000*52 
210.86851       GPS_NMEA_FROM_GPS    iGPS            $GPGSA,A,3,13,12,29,19,11,25,06,20,09,05,,,1.12,0.81,0.77*04 
211.87039       GPS_NMEA_FROM_GPS    iGPS            $GPGSA,A,3,13,12,29,19,11,25,06,20,09,05,,,1.12,0.81,0.77*04 
212.87241       GPS_NMEA_FROM_GPS    iGPS            $GPGSA,A,3,13,12,29,19,11,25,06,20,09,05,,,1.12,0.81,0.77*04 
213.87426       GPS_NMEA_FROM_GPS    iGPS            $GPGSA,A,3,13,12,29,19,11,25,06,20,09,05,,,1.12,0.81,0.77*04 
214.87700       GPS_NMEA_FROM_GPS    iGPS            $GPGSA,A,3,13,12,29,19,11,25,06,20,09,05,,,1.12,0.81,0.77*04 
215.87808       GPS_NMEA_FROM_GPS    iGPS            $GPGSA,A,3,13,12,29,19,11,25,06,20,09,05,,,1.12,0.81,0.77*04 
216.88016       GPS_NMEA_FROM_GPS    iGPS            $GPGSA,A,3,13,12,29,19,11,25,06,20,09,05,,,1.12,0.81,0.77*04 
217.88221       GPS_NMEA_FROM_GPS    iGPS            $GPGGA,171539.000,4221.5043,N,07105.2111,W,2,10,0.81,4.1,M,-33.7,M,0000,0000*55 
218.88413       GPS_NMEA_FROM_GPS    iGPS            $GPGGA,171540.000,4221.5043,N,07105.2106,W,2,10,0.81,4.1,M,-33.7,M,0000,0000*5D 
219.88605       GPS_NMEA_FROM_GPS    iGPS            $GPGGA,171541.000,4221.5043,N,07105.2100,W,2,10,0.81,4.1,M,-33.7,M,0000,0000*5A 
220.88901       GPS_NMEA_FROM_GPS    iGPS            $GPGSA,A,3,13,12,29,19,11,25,06,20,09,05,,,1.12,0.81,0.77*04 
221.89533       GPS_NMEA_FROM_GPS    iGPS            $GPGGA,171543.000,4221.5044,N,07105.2091,W,2,10,0.81,4.1,M,-33.7,M,0000,0000*56 
222.90241       GPS_NMEA_FROM_GPS    iGPS            $GPGGA,171544.000,4221.5043,N,07105.2087,W,2,10,0.81,4.1,M,-33.7,M,0000,0000*51 
223.90460       GPS_NMEA_FROM_GPS    iGPS            $GPGSA,A,3,13,12,29,19,11,25,06,20,09,05,,,1.12,0.81,0.77*04 
224.80656       GPS_NMEA_FROM_GPS    iGPS            $GPGGA,171546.000,4221.5042,N,07105.2080,W,2,10,0.81,4.1,M,-33.7,M,0000,0000*55 
225.90906       GPS_NMEA_FROM_GPS    iGPS            $GPGGA,171547.000,4221.5040,N,07105.2077,W,2,10,0.81,4.0,M,-33.7,M,0000,0000*5F 
226.91097       GPS_NMEA_FROM_GPS    iGPS            $GPGGA,171548.000,4221.5039,N,07105.2076,W,2,10,0.81,3.9,M,-33.7,M,0000,0000*51 
227.91303       GPS_NMEA_FROM_GPS    iGPS            $GPGGA,171549.000,4221.5038,N,07105.2073,W,2,10,0.81,3.9,M,-33.7,M,0000,0000*54 
228.91756       GPS_NMEA_FROM_GPS    iGPS            $GPGSA,A,3,13,12,29,19,11,25,06,20,09,05,,,1.12,0.81,0.77*04 
229.82076       GPS_NMEA_FROM_GPS    iGPS            $GPGGA,171551.000,4221.5039,N,07105.2069,W,2,10,0.81,3.8,M,-33.7,M,0000,0000*56 
230.82271       GPS_NMEA_FROM_GPS    iGPS            $GPGGA,171552.000,4221.5040,N,07105.2068,W,2,10,0.81,3.8,M,-33.7,M,0000,0000*5A 
231.92516       GPS_NMEA_FROM_GPS    iGPS            $GPGSA,A,3,13,12,29,19,11,25,06,20,09,05,,,1.12,0.81,0.77*04 
232.82817       GPS_NMEA_FROM_GPS    iGPS            $GPGGA,171554.000,4221.5042,N,07105.2064,W,2,10,0.81,3.8,M,-33.7,M,0000,0000*52 
233.82997       GPS_NMEA_FROM_GPS    iGPS            $GPGGA,171555.000,4221.5043,N,07105.2061,W,2,10,0.81,3.7,M,-33.7,M,0000,0000*58 
234.83220       GPS_NMEA_FROM_GPS    iGPS            $GPGGA,171556.000,4221.5045,N,07105.2057,W,2,10,0.81,3.7,M,-33.7,M,0000,0000*58 
235.93417       GPS_NMEA_FROM_GPS    iGPS            $GPGSA,A,3,13,12,29,19,11,25,06,20,09,05,,,1.12,0.81,0.77*04 
236.83590       GPS_NMEA_FROM_GPS    iGPS            $GPGGA,171558.000,4221.5050,N,07105.2051,W,2,10,0.81,3.7,M,-33.7,M,0000,0000*54 
237.83836       GPS_NMEA_FROM_GPS    iGPS            $GPGGA,171559.000,4221.5052,N,07105.2045,W,2,10,0.81,3.7,M,-33.7,M,0000,0000*52 
238.94047       GPS_NMEA_FROM_GPS    iGPS            $GPGSA,A,3,13,12,29,19,11,25,06,20,09,05,,,1.12,0.81,0.77*04 
239.94227       GPS_NMEA_FROM_GPS    iGPS            $GPGSA,A,3,13,12,29,19,11,25,06,20,09,05,,,1.12,0.81,0.77*04 
240.84411       GPS_NMEA_FROM_GPS    iGPS            $GPGGA,171602.000,4221.5054,N,07105.2032,W,2,10,0.81,3.6,M,-33.7,M,0000,0000*58 
241.84648       GPS_NMEA_FROM_GPS    iGPS            $GPGGA,171603.000,4221.5054,N,07105.2028,W,2,10,0.81,3.5,M,-33.7,M,0000,0000*51 
242.84879       GPS_NMEA_FROM_GPS    iGPS            $GPGGA,171604.000,4221.5054,N,07105.2022,W,2,10,0.81,3.5,M,-33.7,M,0000,0000*5C 
243.85084       GPS_NMEA_FROM_GPS    iGPS            $GPGSA,A,3,13,12,29,19,11,25,06,20,09,05,,,1.12,0.81,0.77*04 
244.85290       GPS_NMEA_FROM_GPS    iGPS            $GPGGA,171606.000,4221.5054,N,07105.2014,W,2,10,0.81,3.5,M,-33.7,M,0000,0000*5B 
245.95491       GPS_NMEA_FROM_GPS    iGPS            $GPGSA,A,3,13,12,29,19,11,25,06,20,09,05,,,1.12,0.81,0.77*04 
246.85758       GPS_NMEA_FROM_GPS    iGPS            $GPGGA,171608.000,4221.5057,N,07105.2009,W,2,10,0.81,3.5,M,-33.7,M,0000,0000*5A 
247.85966       GPS_NMEA_FROM_GPS    iGPS            $GPGSA,A,3,13,12,29,19,11,25,06,20,09,05,,,1.12,0.81,0.77*04 
248.86237       GPS_NMEA_FROM_GPS    iGPS            $GPGGA,171610.000,4221.5061,N,07105.2006,W,2,10,0.81,3.5,M,-33.7,M,0000,0000*59 
249.86587       GPS_NMEA_FROM_GPS    iGPS            $GPGSA,A,3,13,12,29,19,11,25,06,20,09,05,,,1.12,0.81,0.77*04 
250.86781       GPS_NMEA_FROM_GPS    iGPS            $GPGSA,A,3,13,12,29,19,11,25,06,20,09,05,,,1.12,0.81,0.77*04 
251.86952       GPS_NMEA_FROM_GPS    iGPS            $GPGGA,171613.000,4221.5065,N,07105.1998,W,2,10,0.81,3.6,M,-33.7,M,0000,0000*50 
252.87214       GPS_NMEA_FROM_GPS    iGPS            $GPGSA,A,3,13,12,29,19,11,25,06,20,09,05,,,1.12,0.81,0.77*04 
253.77378       GPS_NMEA_FROM_GPS    iGPS            $GPGGA,171615.000,4221.5069,N,07105.1993,W,2,10,0.81,3.8,M,-33.7,M,0000,0000*5F 
254.77562       GPS_NMEA_FROM_GPS    iGPS            $GPGGA,171616.000,4221.5070,N,07105.1991,W,2,10,0.81,3.8,M,-33.7,M,0000,0000*56 
255.77748       GPS_NMEA_FROM_GPS    iGPS            $GPGGA,171617.000,4221.5072,N,07105.1989,W,2,09,0.89,3.9,M,-33.7,M,0000,0000*5D 
256.77939       GPS_NMEA_FROM_GPS    iGPS            $GPGGA,171618.000,4221.5074,N,07105.1983,W,2,09,0.89,4.0,M,-33.7,M,0000,0000*50 
257.88147       GPS_NMEA_FROM_GPS    iGPS            $GPGSA,A,3,13,12,29,19,11,25,06,20,09,05,,,1.12,0.81,0.77*04 
258.78323       GPS_NMEA_FROM_GPS    iGPS            $GPGGA,171620.000,4221.5075,N,07105.1974,W,2,10,0.81,4.1,M,-33.7,M,0000,0000*53 
258.78323       GPS_NMEA_FROM_GPS    iGPS            $GPGGA,171620.000,4221.5075,N,07105.1974,W,2,10,0.81,4.1,M,-33.7,M,0000,0000*53 
259.88870       GPS_NMEA_FROM_GPS    iGPS            $GPGSA,A,3,13,12,29,19,11,25,06,20,09,05,,,1.12,0.81,0.77*04 
260.79041       GPS_NMEA_FROM_GPS    iGPS            $GPGGA,171622.000,4221.5076,N,07105.1963,W,2,10,0.81,4.1,M,-33.7,M,0000,0000*54 
261.89241       GPS_NMEA_FROM_GPS    iGPS            $GPGGA,171623.000,4221.5078,N,07105.1962,W,2,10,0.81,4.2,M,-33.7,M,0000,0000*59 
262.89456       GPS_NMEA_FROM_GPS    iGPS            $GPGGA,171624.000,4221.5079,N,07105.1957,W,2,10,0.81,4.2,M,-33.7,M,0000,0000*59 
263.89643       GPS_NMEA_FROM_GPS    iGPS            $GPGGA,171625.000,4221.5080,N,07105.1953,W,2,10,0.81,4.2,M,-33.7,M,0000,0000*5A 
264.89843       GPS_NMEA_FROM_GPS    iGPS            $GPGGA,171626.000,4221.5082,N,07105.1949,W,2,10,0.81,4.1,M,-33.7,M,0000,0000*53 
265.80011       GPS_NMEA_FROM_GPS    iGPS            $GPGGA,171627.000,4221.5084,N,07105.1945,W,2,10,0.81,4.1,M,-33.7,M,0000,0000*58 
266.90219       GPS_NMEA_FROM_GPS    iGPS            $GPGSA,A,3,13,12,29,19,11,25,06,20,09,05,,,1.12,0.81,0.77*04 
267.90415       GPS_NMEA_FROM_GPS    iGPS            $GPGSA,A,3,13,12,29,19,11,25,06,20,09,05,,,1.12,0.81,0.77*04 
268.90599       GPS_NMEA_FROM_GPS    iGPS            $GPGSA,A,3,13,12,29,19,11,25,06,20,09,05,,,1.12,0.81,0.77*04 
269.90800       GPS_NMEA_FROM_GPS    iGPS            $GPGGA,171631.000,4221.5099,N,07105.1936,W,2,10,0.81,4.2,M,-33.7,M,0000,0000*54 
270.91071       GPS_NMEA_FROM_GPS    iGPS            $GPGGA,171632.000,4221.5102,N,07105.1932,W,2,10,0.81,4.2,M,-33.7,M,0000,0000*50 
270.91071       GPS_NMEA_FROM_GPS    iGPS            $GPGGA,171632.000,4221.5102,N,07105.1932,W,2,10,0.81,4.2,M,-33.7,M,0000,0000*50 
271.81240       GPS_NMEA_FROM_GPS    iGPS            $GPGGA,171633.000,4221.5104,N,07105.1929,W,2,10,0.81,4.3,M,-33.7,M,0000,0000*5C 
272.81438       GPS_NMEA_FROM_GPS    iGPS            $GPGGA,171634.000,4221.5107,N,07105.1925,W,2,10,0.81,4.3,M,-33.7,M,0000,0000*54 
273.91644       GPS_NMEA_FROM_GPS    iGPS            $GPGGA,171635.000,4221.5108,N,07105.1920,W,2,10,0.81,4.3,M,-33.7,M,0000,0000*5F 
274.81821       GPS_NMEA_FROM_GPS    iGPS            $GPGGA,171636.000,4221.5109,N,07105.1915,W,2,10,0.81,4.3,M,-33.7,M,0000,0000*5B 
275.82008       GPS_NMEA_FROM_GPS    iGPS            $GPGGA,171637.000,4221.5111,N,07105.1910,W,2,10,0.81,4.3,M,-33.7,M,0000,0000*56 
276.82198       GPS_NMEA_FROM_GPS    iGPS            $GPGGA,171638.000,4221.5113,N,07105.1904,W,2,10,0.81,4.3,M,-33.7,M,0000,0000*5E 
277.82400       GPS_NMEA_FROM_GPS    iGPS            $GPGGA,171639.000,4221.5114,N,07105.1900,W,2,10,0.81,4.3,M,-33.7,M,0000,0000*5C 
278.82586       GPS_NMEA_FROM_GPS    iGPS            $GPGGA,171640.000,4221.5115,N,07105.1897,W,2,10,0.81,4.3,M,-33.7,M,0000,0000*5C 
279.82826       GPS_NMEA_FROM_GPS    iGPS            $GPGGA,171641.000,4221.5119,N,07105.1894,W,2,10,0.81,4.3,M,-33.7,M,0000,0000*52 
280.83065       GPS_NMEA_FROM_GPS    iGPS            $GPGGA,171642.000,4221.5121,N,07105.1890,W,2,10,0.81,4.3,M,-33.7,M,0000,0000*5E 
281.83245       GPS_NMEA_FROM_GPS    iGPS            $GPGSA,A,3,13,12,29,19,11,25,06,20,09,05,,,1.12,0.81,0.77*04 
282.93467       GPS_NMEA_FROM_GPS    iGPS            $GPGSA,A,3,13,12,29,19,11,25,06,20,09,05,,,1.12,0.81,0.77*04 
283.83637       GPS_NMEA_FROM_GPS    iGPS            $GPGGA,171645.000,4221.5130,N,07105.1883,W,2,10,0.81,4.4,M,-33.7,M,0000,0000*5C 
284.83882       GPS_NMEA_FROM_GPS    iGPS            $GPGGA,171646.000,4221.5133,N,07105.1881,W,2,10,0.81,4.4,M,-33.7,M,0000,0000*5E 
285.94088       GPS_NMEA_FROM_GPS    iGPS            $GPGSA,A,3,13,12,29,19,11,25,06,20,09,05,,,1.12,0.81,0.77*04 
286.84264       GPS_NMEA_FROM_GPS    iGPS            $GPGGA,171648.000,4221.5136,N,07105.1877,W,2,10,0.81,4.4,M,-33.7,M,0000,0000*5C 
287.84459       GPS_NMEA_FROM_GPS    iGPS            $GPGGA,171649.000,4221.5136,N,07105.1876,W,2,10,0.81,4.4,M,-33.7,M,0000,0000*5C 
288.84648       GPS_NMEA_FROM_GPS    iGPS            $GPGGA,171650.000,4221.5137,N,07105.1873,W,2,10,0.81,4.4,M,-33.7,M,0000,0000*50 
289.84845       GPS_NMEA_FROM_GPS    iGPS            $GPGGA,171651.000,4221.5138,N,07105.1871,W,2,10,0.81,4.4,M,-33.7,M,0000,0000*5C 
290.85046       GPS_NMEA_FROM_GPS    iGPS            $GPGGA,171652.000,4221.5139,N,07105.1867,W,2,10,0.81,4.4,M,-33.7,M,0000,0000*59 
291.85231       GPS_NMEA_FROM_GPS    iGPS            $GPGGA,171653.000,4221.5141,N,07105.1863,W,2,10,0.81,4.4,M,-33.7,M,0000,0000*53 
292.85429       GPS_NMEA_FROM_GPS    iGPS            $GPGGA,171654.000,4221.5142,N,07105.1860,W,2,10,0.81,4.4,M,-33.7,M,0000,0000*54 
293.85653       GPS_NMEA_FROM_GPS    iGPS            $GPGGA,171655.000,4221.5144,N,07105.1856,W,2,10,0.81,4.4,M,-33.7,M,0000,0000*56 
294.85908       GPS_NMEA_FROM_GPS    iGPS            $GPGGA,171656.000,4221.5145,N,07105.1854,W,2,10,0.81,4.4,M,-33.7,M,0000,0000*56 
295.86107       GPS_NMEA_FROM_GPS    iGPS            $GPGSA,A,3,13,12,29,19,11,25,06,20,09,05,,,1.12,0.81,0.77*04 
296.86314       GPS_NMEA_FROM_GPS    iGPS            $GPGSA,A,3,13,12,29,19,11,25,06,20,09,05,,,1.12,0.81,0.77*04 
297.76514       GPS_NMEA_FROM_GPS    iGPS            $GPGGA,171659.000,4221.5147,N,07105.1849,W,2,10,0.81,4.3,M,-33.7,M,0000,0000*50 
298.86720       GPS_NMEA_FROM_GPS    iGPS            $GPGSA,A,3,13,12,29,19,11,25,06,20,09,05,,,1.12,0.81,0.77*04 
299.86904       GPS_NMEA_FROM_GPS    iGPS            $GPGSA,A,3,13,12,29,19,11,25,06,20,09,05,,,1.12,0.81,0.77*04 
300.77078       GPS_NMEA_FROM_GPS    iGPS            $GPGGA,171702.000,4221.5151,N,07105.1847,W,2,10,0.81,4.4,M,-33.7,M,0000,0000*51 
301.87296       GPS_NMEA_FROM_GPS    iGPS            $GPGSA,A,3,13,12,29,19,11,25,06,20,09,05,,,1.12,0.81,0.77*04 
302.87497       GPS_NMEA_FROM_GPS    iGPS            $GPGSA,A,3,13,12,29,19,11,25,06,20,09,05,,,1.12,0.81,0.77*04 
303.87688       GPS_NMEA_FROM_GPS    iGPS            $GPGGA,171705.000,4221.5152,N,07105.1850,W,2,10,0.81,4.4,M,-33.7,M,0000,0000*53 
304.87878       GPS_NMEA_FROM_GPS    iGPS            $GPGGA,171706.000,4221.5152,N,07105.1852,W,2,10,0.81,4.4,M,-33.7,M,0000,0000*52 
305.88089       GPS_NMEA_FROM_GPS    iGPS            $GPGGA,171707.000,4221.5152,N,07105.1854,W,2,10,0.84,4.4,M,-33.7,M,0000,0000*50 
306.88310       GPS_NMEA_FROM_GPS    iGPS            $GPGGA,171708.000,4221.5153,N,07105.1854,W,2,10,0.84,4.4,M,-33.7,M,0000,0000*5E 
307.88506       GPS_NMEA_FROM_GPS    iGPS            $GPGSA,A,3,13,12,29,19,11,25,06,20,09,05,,,1.47,0.84,1.20*02 
308.78672       GPS_NMEA_FROM_GPS    iGPS            $GPGGA,171710.000,4221.5154,N,07105.1853,W,2,10,0.81,4.4,M,-33.7,M,0000,0000*52 
309.88872       GPS_NMEA_FROM_GPS    iGPS            $GPGGA,171711.000,4221.5154,N,07105.1853,W,2,10,0.81,4.4,M,-33.7,M,0000,0000*53 
310.89062       GPS_NMEA_FROM_GPS    iGPS            $GPGGA,171712.000,4221.5155,N,07105.1852,W,2,10,0.81,4.4,M,-33.7,M,0000,0000*50 
311.89242       GPS_NMEA_FROM_GPS    iGPS            $GPGSA,A,3,13,12,29,19,11,25,06,20,09,05,,,1.12,0.81,0.77*04 
312.89439       GPS_NMEA_FROM_GPS    iGPS            $GPGGA,171714.000,4221.5156,N,07105.1849,W,2,10,0.81,4.4,M,-33.7,M,0000,0000*5F 
313.89624       GPS_NMEA_FROM_GPS    iGPS            $GPGSA,A,3,13,12,29,19,11,25,06,20,09,05,,,1.12,0.81,0.77*04 
314.89809       GPS_NMEA_FROM_GPS    iGPS            $GPGGA,171716.000,4221.5158,N,07105.1846,W,2,10,0.81,4.4,M,-33.7,M,0000,0000*5C 
315.90049       GPS_NMEA_FROM_GPS    iGPS            $GPGSA,A,3,13,12,29,19,11,25,06,20,09,05,,,1.12,0.81,0.77*04 
316.80211       GPS_NMEA_FROM_GPS    iGPS            $GPGGA,171718.000,4221.5159,N,07105.1844,W,2,10,0.81,4.5,M,-33.7,M,0000,0000*50 
317.90430       GPS_NMEA_FROM_GPS    iGPS            $GPGSA,A,3,13,12,29,19,11,25,06,20,09,05,,,1.12,0.81,0.77*04 
318.80612       GPS_NMEA_FROM_GPS    iGPS            $GPGGA,171720.000,4221.5162,N,07105.1843,W,2,10,0.81,4.5,M,-33.7,M,0000,0000*54 
319.80819       GPS_NMEA_FROM_GPS    iGPS            $GPGGA,171721.000,4221.5163,N,07105.1842,W,2,10,0.81,4.5,M,-33.7,M,0000,0000*55 
320.81146       GPS_NMEA_FROM_GPS    iGPS            $GPGGA,171722.000,4221.5164,N,07105.1842,W,2,10,0.81,4.5,M,-33.7,M,0000,0000*51 
321.81328       GPS_NMEA_FROM_GPS    iGPS            $GPGGA,171723.000,4221.5165,N,07105.1841,W,2,10,0.81,4.5,M,-33.7,M,0000,0000*52 
322.81559       GPS_NMEA_FROM_GPS    iGPS            $GPGGA,171724.000,4221.5164,N,07105.1841,W,2,10,0.81,4.5,M,-33.7,M,0000,0000*54 
323.81753       GPS_NMEA_FROM_GPS    iGPS            $GPGGA,171725.000,4221.5165,N,07105.1841,W,2,10,0.84,4.5,M,-33.7,M,0000,0000*51 
323.81753       GPS_NMEA_FROM_GPS    iGPS            $GPGGA,171725.000,4221.5165,N,07105.1841,W,2,10,0.84,4.5,M,-33.7,M,0000,0000*51 
324.91980       GPS_NMEA_FROM_GPS    iGPS            $GPGSA,A,3,13,12,29,19,11,25,06,20,09,05,,,1.47,0.84,1.20*02 
325.92166       GPS_NMEA_FROM_GPS    iGPS            $GPGSA,A,3,13,12,29,19,11,25,06,20,09,05,,,1.12,0.81,0.77*04 
326.92352       GPS_NMEA_FROM_GPS    iGPS            $GPGSA,A,3,13,12,29,19,11,25,06,20,09,05,,,1.47,0.84,1.20*02 
327.92556       GPS_NMEA_FROM_GPS    iGPS            $GPGSA,A,3,13,12,29,19,11,25,06,20,09,05,,,1.12,0.81,0.77*04 
328.92744       GPS_NMEA_FROM_GPS    iGPS            $GPGSA,A,3,13,12,29,19,11,25,06,20,09,05,,,1.12,0.81,0.77*04 
329.83126       GPS_NMEA_FROM_GPS    iGPS            $GPGGA,171731.000,4221.5162,N,07105.1845,W,2,10,0.81,4.6,M,-33.7,M,0000,0000*51 
330.83493       GPS_NMEA_FROM_GPS    iGPS            $GPGGA,171732.000,4221.5162,N,07105.1845,W,2,10,0.81,4.6,M,-33.7,M,0000,0000*52 
331.93693       GPS_NMEA_FROM_GPS    iGPS            $GPGSA,A,3,13,12,29,19,11,25,06,20,09,05,,,1.12,0.81,0.77*04 
332.83873       GPS_NMEA_FROM_GPS    iGPS            $GPGGA,171734.000,4221.5163,N,07105.1845,W,2,10,0.81,4.6,M,-33.7,M,0000,0000*55 
333.84059       GPS_NMEA_FROM_GPS    iGPS            $GPGGA,171735.000,4221.5164,N,07105.1845,W,2,10,0.81,4.6,M,-33.7,M,0000,0000*53 
334.94289       GPS_NMEA_FROM_GPS    iGPS            $GPGSA,A,3,13,12,29,19,11,25,06,20,09,05,,,1.12,0.81,0.77*04 
335.84453       GPS_NMEA_FROM_GPS    iGPS            $GPGGA,171737.000,4221.5165,N,07105.1843,W,2,10,0.81,4.6,M,-33.7,M,0000,0000*56 
336.84662       GPS_NMEA_FROM_GPS    iGPS            $GPGGA,171738.000,4221.5166,N,07105.1842,W,2,10,0.81,4.6,M,-33.7,M,0000,0000*5B 
337.84881       GPS_NMEA_FROM_GPS    iGPS            $GPGSA,A,3,13,12,29,19,11,25,06,20,09,05,,,1.12,0.81,0.77*04 
338.85087       GPS_NMEA_FROM_GPS    iGPS            $GPGGA,171740.000,4221.5166,N,07105.1840,W,2,10,0.81,4.6,M,-33.7,M,0000,0000*56 
339.85273       GPS_NMEA_FROM_GPS    iGPS            $GPGGA,171741.000,4221.5167,N,07105.1839,W,2,10,0.81,4.6,M,-33.7,M,0000,0000*58 
340.85454       GPS_NMEA_FROM_GPS    iGPS            $GPGGA,171742.000,4221.5167,N,07105.1839,W,2,10,0.81,4.6,M,-33.7,M,0000,0000*5B 
341.85638       GPS_NMEA_FROM_GPS    iGPS            $GPGGA,171743.000,4221.5168,N,07105.1839,W,2,10,0.81,4.6,M,-33.7,M,0000,0000*55 
342.85907       GPS_NMEA_FROM_GPS    iGPS            $GPGSA,A,3,13,12,29,19,11,25,06,20,09,05,,,1.12,0.81,0.77*04 
343.76072       GPS_NMEA_FROM_GPS    iGPS            $GPGGA,171745.000,4221.5168,N,07105.1838,W,2,10,0.81,4.6,M,-33.7,M,0000,0000*52 
344.76271       GPS_NMEA_FROM_GPS    iGPS            $GPGGA,171746.000,4221.5168,N,07105.1838,W,2,10,0.81,4.6,M,-33.7,M,0000,0000*51 
345.86489       GPS_NMEA_FROM_GPS    iGPS            $GPGSA,A,3,13,12,29,19,11,25,06,20,09,05,,,1.12,0.81,0.77*04 
346.86675       GPS_NMEA_FROM_GPS    iGPS            $GPGSA,A,3,13,12,29,19,11,25,06,20,09,05,,,1.12,0.81,0.77*04 
347.86878       GPS_NMEA_FROM_GPS    iGPS            $GPGGA,171749.000,4221.5169,N,07105.1836,W,2,10,0.84,4.6,M,-33.7,M,0000,0000*54 
348.87069       GPS_NMEA_FROM_GPS    iGPS            $GPGSA,A,3,12,29,19,11,25,06,20,09,05,,,,1.18,0.90,0.77*0C 
349.87244       GPS_NMEA_FROM_GPS    iGPS            $GPGGA,171751.000,4221.5170,N,07105.1837,W,2,10,0.81,4.6,M,-33.7,M,0000,0000*51 
350.87431       GPS_NMEA_FROM_GPS    iGPS            $GPGGA,171752.000,4221.5170,N,07105.1838,W,2,10,0.81,4.6,M,-33.7,M,0000,0000*5D 
351.87622       GPS_NMEA_FROM_GPS    iGPS            $GPGGA,171753.000,4221.5170,N,07105.1839,W,2,10,0.81,4.6,M,-33.7,M,0000,0000*5D 
352.87849       GPS_NMEA_FROM_GPS    iGPS            $GPGGA,171754.000,4221.5170,N,07105.1841,W,2,10,0.81,4.6,M,-33.7,M,0000,0000*55 
353.88037       GPS_NMEA_FROM_GPS    iGPS            $GPGGA,171755.000,4221.5170,N,07105.1843,W,2,10,0.81,4.6,M,-33.7,M,0000,0000*56 
354.88218       GPS_NMEA_FROM_GPS    iGPS            $GPGGA,171756.000,4221.5169,N,07105.1848,W,2,10,0.81,4.6,M,-33.7,M,0000,0000*56 
355.88408       GPS_NMEA_FROM_GPS    iGPS            $GPGGA,171757.000,4221.5167,N,07105.1853,W,2,10,0.81,4.6,M,-33.7,M,0000,0000*53 
356.78579       GPS_NMEA_FROM_GPS    iGPS            $GPGGA,171758.000,4221.5165,N,07105.1858,W,2,10,0.81,4.7,M,-33.7,M,0000,0000*54 
357.88809       GPS_NMEA_FROM_GPS    iGPS            $GPGSA,A,3,13,12,29,19,11,25,06,20,09,05,,,1.12,0.81,0.77*04 
358.79058       GPS_NMEA_FROM_GPS    iGPS            $GPGGA,171800.000,4221.5162,N,07105.1866,W,2,10,0.81,4.7,M,-33.7,M,0000,0000*5C 
359.89284       GPS_NMEA_FROM_GPS    iGPS            $GPGGA,171801.000,4221.5159,N,07105.1870,W,2,10,0.81,4.7,M,-33.7,M,0000,0000*52 
360.89470       GPS_NMEA_FROM_GPS    iGPS            $GPGGA,171802.000,4221.5157,N,07105.1874,W,2,10,0.81,4.8,M,-33.7,M,0000,0000*54 
361.79639       GPS_NMEA_FROM_GPS    iGPS            $GPGGA,171803.000,4221.5154,N,07105.1879,W,2,10,0.81,4.9,M,-33.7,M,0000,0000*5A 
362.79835       GPS_NMEA_FROM_GPS    iGPS            $GPGGA,171804.000,4221.5151,N,07105.1884,W,2,10,0.81,4.9,M,-33.7,M,0000,0000*5A 
363.80022       GPS_NMEA_FROM_GPS    iGPS            $GPGGA,171805.000,4221.5149,N,07105.1888,W,2,10,0.81,5.0,M,-33.7,M,0000,0000*56 
364.80220       GPS_NMEA_FROM_GPS    iGPS            $GPGGA,171806.000,4221.5148,N,07105.1890,W,2,10,0.81,5.0,M,-33.7,M,0000,0000*5D 
365.90434       GPS_NMEA_FROM_GPS    iGPS            $GPGSA,A,3,13,12,29,19,11,25,06,20,09,05,,,1.12,0.81,0.77*04 
366.80597       GPS_NMEA_FROM_GPS    iGPS            $GPGGA,171808.000,4221.5143,N,07105.1898,W,2,10,0.81,5.1,M,-33.7,M,0000,0000*51 
367.80819       GPS_NMEA_FROM_GPS    iGPS            $GPGGA,171809.000,4221.5140,N,07105.1902,W,2,10,0.81,5.1,M,-33.7,M,0000,0000*51 
368.91014       GPS_NMEA_FROM_GPS    iGPS            $GPGSA,A,3,13,12,29,19,11,25,06,20,09,05,,,1.12,0.81,0.77*04 
369.91204       GPS_NMEA_FROM_GPS    iGPS            $GPGSA,A,3,13,12,29,19,11,25,06,20,09,05,,,1.12,0.81,0.77*04 
370.91449       GPS_NMEA_FROM_GPS    iGPS            $GPGSA,A,3,13,12,29,19,11,25,06,20,09,05,,,1.12,0.81,0.77*04 
371.81623       GPS_NMEA_FROM_GPS    iGPS            $GPGGA,171813.000,4221.5130,N,07105.1918,W,2,10,0.81,5.3,M,-33.7,M,0000,0000*54 
372.91842       GPS_NMEA_FROM_GPS    iGPS            $GPGSA,A,3,13,12,29,19,11,25,06,20,09,05,,,1.12,0.81,0.77*04 
373.92031       GPS_NMEA_FROM_GPS    iGPS            $GPGSA,A,3,13,12,29,19,11,25,06,20,09,05,,,1.12,0.81,0.77*04 
374.92212       GPS_NMEA_FROM_GPS    iGPS            $GPGSA,A,3,13,12,29,19,11,25,06,20,09,05,,,1.12,0.81,0.77*04 
375.82435       GPS_NMEA_FROM_GPS    iGPS            $GPGGA,171817.000,4221.5120,N,07105.1931,W,2,10,0.81,5.3,M,-33.7,M,0000,0000*5A 
376.92669       GPS_NMEA_FROM_GPS    iGPS            $GPGSA,A,3,13,12,29,19,11,25,06,20,09,05,,,1.12,0.81,0.77*04 
377.92873       GPS_NMEA_FROM_GPS    iGPS            $GPGSA,A,3,13,12,29,19,11,25,06,20,09,05,,,1.12,0.81,0.77*04 
378.83041       GPS_NMEA_FROM_GPS    iGPS            $GPGGA,171820.000,4221.5115,N,07105.1938,W,2,10,0.81,5.3,M,-33.7,M,0000,0000*51 
379.83234       GPS_NMEA_FROM_GPS    iGPS            $GPGGA,171821.000,4221.5113,N,07105.1941,W,2,10,0.81,5.4,M,-33.7,M,0000,0000*5F 
380.93439       GPS_NMEA_FROM_GPS    iGPS            $GPGSA,A,3,13,12,29,19,11,25,06,20,09,05,,,1.12,0.81,0.77*04 
381.83608       GPS_NMEA_FROM_GPS    iGPS            $GPGGA,171823.000,4221.5110,N,07105.1948,W,2,10,0.81,5.5,M,-33.7,M,0000,0000*56 
382.94105       GPS_NMEA_FROM_GPS    iGPS            $GPGSA,A,3,13,12,29,19,11,25,06,20,09,05,,,1.12,0.81,0.77*04 
383.84656       GPS_NMEA_FROM_GPS    iGPS            $GPGGA,171825.000,4221.5106,N,07105.1955,W,2,10,0.81,5.4,M,-33.7,M,0000,0000*5A 
384.85147       GPS_NMEA_FROM_GPS    iGPS            $GPGGA,171826.000,4221.5105,N,07105.1959,W,2,10,0.81,5.5,M,-33.7,M,0000,0000*57 
385.85398       GPS_NMEA_FROM_GPS    iGPS            $GPGGA,171827.000,4221.5103,N,07105.1963,W,2,10,0.81,5.5,M,-33.7,M,0000,0000*59 
386.85580       GPS_NMEA_FROM_GPS    iGPS            $GPGGA,171828.000,4221.5101,N,07105.1966,W,2,10,0.81,5.5,M,-33.7,M,0000,0000*51 
387.85803       GPS_NMEA_FROM_GPS    iGPS            $GPGSA,A,3,13,12,29,19,11,25,06,20,09,05,,,1.12,0.81,0.77*04 
388.85993       GPS_NMEA_FROM_GPS    iGPS            $GPGSA,A,3,13,12,29,19,11,25,06,20,09,05,,,1.12,0.81,0.77*04 
389.86227       GPS_NMEA_FROM_GPS    iGPS            $GPGGA,171831.000,4221.5095,N,07105.1977,W,2,10,0.81,5.5,M,-33.7,M,0000,0000*55 
390.86543       GPS_NMEA_FROM_GPS    iGPS            $GPGGA,171832.000,4221.5094,N,07105.1978,W,2,10,0.81,5.5,M,-33.7,M,0000,0000*58 
391.86815       GPS_NMEA_FROM_GPS    iGPS            $GPGGA,171833.000,4221.5091,N,07105.1981,W,2,10,0.81,5.5,M,-33.7,M,0000,0000*5A 
392.87010       GPS_NMEA_FROM_GPS    iGPS            $GPGSA,A,3,13,12,29,19,11,25,06,20,09,05,,,1.12,0.81,0.77*04 
393.87194       GPS_NMEA_FROM_GPS    iGPS            $GPGGA,171835.000,4221.5088,N,07105.1989,W,2,10,0.81,5.6,M,-33.7,M,0000,0000*5F 
394.87387       GPS_NMEA_FROM_GPS    iGPS            $GPGGA,171836.000,4221.5087,N,07105.1993,W,2,10,0.81,5.6,M,-33.7,M,0000,0000*58 
395.87604       GPS_NMEA_FROM_GPS    iGPS            $GPGGA,171837.000,4221.5084,N,07105.1995,W,2,10,0.81,5.7,M,-33.7,M,0000,0000*5D 
396.77806       GPS_NMEA_FROM_GPS    iGPS            $GPGGA,171838.000,4221.5081,N,07105.2000,W,2,10,0.81,5.8,M,-33.7,M,0000,0000*5E 
397.88037       GPS_NMEA_FROM_GPS    iGPS            $GPGGA,171839.000,4221.5079,N,07105.2004,W,2,10,0.81,5.8,M,-33.7,M,0000,0000*5C 
398.88232       GPS_NMEA_FROM_GPS    iGPS            $GPGGA,171840.000,4221.5077,N,07105.2005,W,2,10,0.81,5.9,M,-33.7,M,0000,0000*5C 
399.78412       GPS_NMEA_FROM_GPS    iGPS            $GPGGA,171841.000,4221.5075,N,07105.2009,W,2,10,0.82,6.0,M,-33.7,M,0000,0000*5A 
400.78604       GPS_NMEA_FROM_GPS    iGPS            $GPGGA,171842.000,4221.5074,N,07105.2011,W,2,10,0.81,6.0,M,-33.7,M,0000,0000*52 
401.88806       GPS_NMEA_FROM_GPS    iGPS            $GPGSA,A,3,13,12,29,19,11,25,06,20,09,05,,,1.12,0.81,0.77*04 
402.78991       GPS_NMEA_FROM_GPS    iGPS            $GPGGA,171844.000,4221.5068,N,07105.2018,W,2,10,0.81,6.2,M,-33.7,M,0000,0000*52 
403.89192       GPS_NMEA_FROM_GPS    iGPS            $GPGSA,A,3,13,12,29,19,11,25,06,20,09,05,,,1.12,0.81,0.77*04 
404.89375       GPS_NMEA_FROM_GPS    iGPS            $GPGSA,A,3,13,12,29,19,11,25,06,20,09,05,,,1.12,0.81,0.77*04 
405.79548       GPS_NMEA_FROM_GPS    iGPS            $GPGGA,171847.000,4221.5060,N,07105.2031,W,2,10,0.81,6.3,M,-33.7,M,0000,0000*53 
406.79731       GPS_NMEA_FROM_GPS    iGPS            $GPGGA,171848.000,4221.5058,N,07105.2034,W,2,10,0.81,6.3,M,-33.7,M,0000,0000*52 
407.79934       GPS_NMEA_FROM_GPS    iGPS            $GPGGA,171849.000,4221.5056,N,07105.2038,W,2,10,0.81,6.4,M,-33.7,M,0000,0000*56 
408.80121       GPS_NMEA_FROM_GPS    iGPS            $GPGGA,171850.000,4221.5054,N,07105.2042,W,2,10,0.81,6.5,M,-33.7,M,0000,0000*50 
409.80306       GPS_NMEA_FROM_GPS    iGPS            $GPGGA,171851.000,4221.5052,N,07105.2045,W,2,10,0.81,6.5,M,-33.7,M,0000,0000*50 
410.80488       GPS_NMEA_FROM_GPS    iGPS            $GPGGA,171852.000,4221.5050,N,07105.2049,W,2,10,0.81,6.5,M,-33.7,M,0000,0000*5D 
411.80671       GPS_NMEA_FROM_GPS    iGPS            $GPGGA,171853.000,4221.5048,N,07105.2051,W,2,10,0.81,6.6,M,-33.7,M,0000,0000*5F 
412.81144       GPS_NMEA_FROM_GPS    iGPS            $GPGGA,171854.000,4221.5047,N,07105.2053,W,2,10,0.81,6.6,M,-33.7,M,0000,0000*55 
413.91496       GPS_NMEA_FROM_GPS    iGPS            $GPGGA,171855.000,4221.5044,N,07105.2055,W,2,10,0.81,6.7,M,-33.7,M,0000,0000*50 
414.91682       GPS_NMEA_FROM_GPS    iGPS            $GPGSA,A,3,13,12,29,19,11,25,06,20,09,05,,,1.12,0.81,0.77*04 
415.91867       GPS_NMEA_FROM_GPS    iGPS            $GPGSA,A,3,13,12,29,19,11,25,06,20,09,05,,,1.12,0.81,0.77*04 
416.82018       GPS_NMEA_FROM_GPS    iGPS            $GPGGA,171858.000,4221.5040,N,07105.2060,W,2,10,0.81,6.9,M,-33.7,M,0000,0000*51 
417.82272       GPS_NMEA_FROM_GPS    iGPS            $GPGGA,171859.000,4221.5037,N,07105.2064,W,2,10,0.81,7.0,M,-33.7,M,0000,0000*5C 
418.92467       GPS_NMEA_FROM_GPS    iGPS            $GPGSA,A,3,13,12,29,19,11,25,06,20,09,05,,,1.12,0.81,0.77*04 
419.92650       GPS_NMEA_FROM_GPS    iGPS            $GPGSA,A,3,13,12,29,19,11,25,06,20,09,05,,,1.12,0.81,0.77*04 
420.82816       GPS_NMEA_FROM_GPS    iGPS            $GPGGA,171902.000,4221.5031,N,07105.2071,W,2,10,0.81,7.1,M,-33.7,M,0000,0000*50 
421.83019       GPS_NMEA_FROM_GPS    iGPS            $GPGSA,A,3,13,12,29,19,11,25,06,20,09,05,,,1.12,0.81,0.77*04 
422.83217       GPS_NMEA_FROM_GPS    iGPS            $GPGGA,171904.000,4221.5027,N,07105.2078,W,2,10,0.81,7.2,M,-33.7,M,0000,0000*5B 
423.83426       GPS_NMEA_FROM_GPS    iGPS            $GPGGA,171905.000,4221.5025,N,07105.2082,W,2,10,0.81,7.2,M,-33.7,M,0000,0000*5D 
424.83605       GPS_NMEA_FROM_GPS    iGPS            $GPGGA,171906.000,4221.5024,N,07105.2086,W,2,10,0.81,7.3,M,-33.7,M,0000,0000*5A 
425.83808       GPS_NMEA_FROM_GPS    iGPS            $GPGSA,A,3,13,12,29,19,11,25,06,20,09,05,,,1.12,0.81,0.77*04 
426.83993       GPS_NMEA_FROM_GPS    iGPS            $GPGGA,171908.000,4221.5022,N,07105.2091,W,2,10,0.81,7.4,M,-33.7,M,0000,0000*53 
427.84203       GPS_NMEA_FROM_GPS    iGPS            $GPGSA,A,3,13,12,29,19,11,25,06,20,09,05,,,1.12,0.81,0.77*04 
428.84436       GPS_NMEA_FROM_GPS    iGPS            $GPGSA,A,3,13,12,29,19,11,25,06,20,09,05,,,1.12,0.81,0.77*04 
429.84621       GPS_NMEA_FROM_GPS    iGPS            $GPGSA,A,3,13,12,29,19,11,25,06,20,09,05,,,1.12,0.81,0.77*04 
430.84802       GPS_NMEA_FROM_GPS    iGPS            $GPGSA,A,3,13,12,29,19,11,25,06,20,09,05,,,1.12,0.81,0.77*04 
431.84997       GPS_NMEA_FROM_GPS    iGPS            $GPGSA,A,3,13,12,29,19,11,25,06,20,09,05,,,1.12,0.81,0.77*04 
432.85199       GPS_NMEA_FROM_GPS    iGPS            $GPGSA,A,3,13,12,29,19,11,25,06,20,09,05,,,1.12,0.81,0.77*04 
433.85405       GPS_NMEA_FROM_GPS    iGPS            $GPGGA,171915.000,4221.5003,N,07105.2116,W,2,10,0.81,8.0,M,-33.7,M,0000,0000*59 
434.85592       GPS_NMEA_FROM_GPS    iGPS            $GPGGA,171916.000,4221.5000,N,07105.2120,W,2,10,0.81,8.1,M,-33.7,M,0000,0000*5D 
435.85791       GPS_NMEA_FROM_GPS    iGPS            $GPGGA,171917.000,4221.4998,N,07105.2123,W,2,10,0.81,8.1,M,-33.7,M,0000,0000*56 
436.86030       GPS_NMEA_FROM_GPS    iGPS            $GPGGA,171918.000,4221.4995,N,07105.2127,W,2,10,0.81,8.2,M,-33.7,M,0000,0000*53 
437.86241       GPS_NMEA_FROM_GPS    iGPS            $GPGGA,171919.000,4221.4993,N,07105.2131,W,2,10,0.81,8.3,M,-33.7,M,0000,0000*52 
438.86462       GPS_NMEA_FROM_GPS    iGPS            $GPGSA,A,3,13,12,29,19,11,25,06,20,09,05,,,1.12,0.82,0.77*07 
439.86645       GPS_NMEA_FROM_GPS    iGPS            $GPGGA,171921.000,4221.4989,N,07105.2138,W,2,10,0.81,8.4,M,-33.7,M,0000,0000*5C 
440.86833       GPS_NMEA_FROM_GPS    iGPS            $GPGGA,171922.000,4221.4989,N,07105.2143,W,2,10,0.81,8.4,M,-33.7,M,0000,0000*53 
441.87040       GPS_NMEA_FROM_GPS    iGPS            $GPGGA,171923.000,4221.4988,N,07105.2147,W,2,10,0.81,8.5,M,-33.7,M,0000,0000*56 
442.87237       GPS_NMEA_FROM_GPS    iGPS            $GPGGA,171924.000,4221.4985,N,07105.2152,W,2,10,0.81,8.5,M,-33.7,M,0000,0000*58 
443.87427       GPS_NMEA_FROM_GPS    iGPS            $GPGSA,A,3,13,12,29,19,11,25,06,20,09,05,,,1.12,0.81,0.77*04 
444.87616       GPS_NMEA_FROM_GPS    iGPS            $GPGGA,171926.000,4221.4988,N,07105.2163,W,2,10,0.81,8.6,M,-33.7,M,0000,0000*56 
445.87800       GPS_NMEA_FROM_GPS    iGPS            $GPGGA,171927.000,4221.4986,N,07105.2167,W,2,10,0.81,8.6,M,-33.7,M,0000,0000*5D 
446.87987       GPS_NMEA_FROM_GPS    iGPS            $GPGSA,A,3,13,12,29,19,11,25,06,20,09,05,,,1.12,0.81,0.77*04 
447.88195       GPS_NMEA_FROM_GPS    iGPS            $GPGGA,171929.000,4221.4981,N,07105.2174,W,2,10,0.81,8.7,M,-33.7,M,0000,0000*57 
448.88377       GPS_NMEA_FROM_GPS    iGPS            $GPGSA,A,3,13,12,29,19,11,25,06,20,09,05,,,1.12,0.81,0.77*04 
449.88562       GPS_NMEA_FROM_GPS    iGPS            $GPGSA,A,3,13,12,29,19,11,25,06,20,09,05,,,1.12,0.81,0.77*04 
450.88740       GPS_NMEA_FROM_GPS    iGPS            $GPGSA,A,3,13,12,29,19,11,25,06,20,09,05,,,1.12,0.81,0.77*04 
451.78908       GPS_NMEA_FROM_GPS    iGPS            $GPGGA,171933.000,4221.4977,N,07105.2186,W,2,10,0.81,8.9,M,-33.7,M,0000,0000*56 
452.79121       GPS_NMEA_FROM_GPS    iGPS            $GPGGA,171934.000,4221.4978,N,07105.2190,W,2,10,0.81,8.9,M,-33.7,M,0000,0000*59 
453.89326       GPS_NMEA_FROM_GPS    iGPS            $GPGSA,A,3,13,12,29,19,11,25,06,20,09,05,,,1.12,0.81,0.77*04 
454.89517       GPS_NMEA_FROM_GPS    iGPS            $GPGGA,171936.000,4221.4981,N,07105.2194,W,2,10,0.81,8.9,M,-33.7,M,0000,0000*59 
455.79689       GPS_NMEA_FROM_GPS    iGPS            $GPGGA,171937.000,4221.4985,N,07105.2197,W,2,10,0.81,8.9,M,-33.7,M,0000,0000*5F 
456.89897       GPS_NMEA_FROM_GPS    iGPS            $GPGGA,171938.000,4221.4989,N,07105.2199,W,2,10,0.81,8.9,M,-33.7,M,0000,0000*52 
457.90105       GPS_NMEA_FROM_GPS    iGPS            $GPGGA,171939.000,4221.4992,N,07105.2201,W,2,10,0.81,8.8,M,-33.7,M,0000,0000*5A 
