1.85685         IM300_RAW_NMEA       iM300           $CPNVR,171148.540,0.130219,0.151956,0,17.272962,0.549317,-0.854493*52 
1.95680         IM300_RAW_NMEA       iM300           $GNGGA,171147.00,4221.52228,N,07105.16310,W,1,12,0.67,3.6,M,-33.2,M,,*71 
1.95747         IM300_RAW_NMEA       iM300           $GNVTG,217.89,T,,M,0.381,N,0.705,K,A*2E 
1.95777         IM300_RAW_NMEA       iM300           $GNRMC,171147.00,A,4221.52228,N,07105.16310,W,0.381,217.89,110723,,,A*62 
2.05766         IM300_RAW_NMEA       iM300           $CPIMU,171148.740,6.530766,-13.366709,-2.502443,0.34311,0.01976,-9.016081*60 
2.05799         IM300_RAW_NMEA       iM300           $CPRCM,171148.743,0,227.029099,-1.505683,0.295926,171148.740*4C 
2.05829         IM300_RAW_NMEA       iM300           $CPNVR,171148.742,-0.176432,-0.085376,0,-13.366709,6.530766,-2.502443*7A 
2.15795         IM300_RAW_NMEA       iM300           $GNGGA,171147.20,4221.52226,N,07105.16313,W,1,12,0.67,3.6,M,-33.2,M,,*7E 
2.15863         IM300_RAW_NMEA       iM300           $GNVTG,218.94,T,,M,0.504,N,0.933,K,A*2D 
2.15908         IM300_RAW_NMEA       iM300           $GNRMC,171147.20,A,4221.52226,N,07105.16313,W,0.504,218.94,110723,,,A*65 
2.16526         IM300_RAW_NMEA       iM300           $CPNVG,171148.834,4221.52228,N,7105.1631,W,1,0,0,90,nan,nan,171148.790*50 
2.25873         IM300_RAW_NMEA       iM300           $CPRBS,171148.977,15.272784,15.272784,15.272784,0*77 
2.25942         IM300_RAW_NMEA       iM300           $CPIMU,171148.942,-0.427246,-10.375984,-2.014162,-0.73652,-0.195807,-8.446626*78 
2.25975         IM300_RAW_NMEA       iM300           $CPNVR,171148.944,-0.214094,0.146253,0,-10.375984,-0.427246,-2.014162*7D 
2.35955         IM300_RAW_NMEA       iM300           $CPNVG,171149.082,4221.52226,N,7105.16313,W,1,0,0,235.662033,nan,nan,171149.041*72 
2.36025         IM300_RAW_NMEA       iM300           $GNGGA,171147.40,4221.52223,N,07105.16315,W,1,12,0.67,3.6,M,-33.2,M,,*7B 
2.36089         IM300_RAW_NMEA       iM300           $GNVTG,217.19,T,,M,0.512,N,0.949,K,A*2D 
2.36120         IM300_RAW_NMEA       iM300           $GNRMC,171147.40,A,4221.52223,N,07105.16315,W,0.512,217.19,110723,,,A*6D 
2.46013         IM300_RAW_NMEA       iM300           $CPIMU,171149.143,-5.065922,15.869152,-0.793458,-0.677239,0.059281,-8.241837*49 
2.46046         IM300_RAW_NMEA       iM300           $CPRCM,171149.145,0,234.645365,3.11539,-0.767784,171149.143*79 
2.46078         IM300_RAW_NMEA       iM300           $CPNVR,171149.145,-0.107428,-0.240492,0,15.869152,-5.065922,-0.793458*71 
2.56052         IM300_RAW_NMEA       iM300           $GNGGA,171147.60,4221.52222,N,07105.16316,W,1,12,0.67,3.6,M,-33.2,M,,*7B 
2.56121         IM300_RAW_NMEA       iM300           $GNVTG,216.68,T,,M,0.340,N,0.630,K,A*2A 
2.56158         IM300_RAW_NMEA       iM300           $GNRMC,171147.60,A,4221.52222,N,07105.16316,W,0.340,216.68,110723,,,A*6B 
2.66054         IM300_RAW_NMEA       iM300           $CPIMU,171149.343,0.488282,6.958013,-1.708986,0.294608,0.156286,-8.672971*71 
2.66089         IM300_RAW_NMEA       iM300           $CPNVR,171149.345,0.015702,-0.174205,0,6.958013,0.488282,-1.708986*4D 
2.66121         IM300_RAW_NMEA       iM300           $CPNVG,171149.333,4221.52222,N,7105.16316,W,1,0,0,90,nan,nan,171149.295*60 
2.76195         IM300_RAW_NMEA       iM300           $GNVTG,218.19,T,,M,0.334,N,0.619,K,A*2A 
2.76231         IM300_RAW_NMEA       iM300           $GNRMC,171147.80,A,4221.52221,N,07105.16318,W,0.334,218.19,110723,,,A*63 
2.86214         IM300_RAW_NMEA       iM300           $CPIMU,171149.546,0.915528,-16.90675,-2.990725,0.068263,-0.048503,-9.025063*7E 
2.86248         IM300_RAW_NMEA       iM300           $CPRCM,171149.548,0,229.549986,0.287131,0.639076,171149.546*6A 
2.86279         IM300_RAW_NMEA       iM300           $CPNVR,171149.548,-0.169877,-0.025794,0,-16.90675,0.915528,-2.990725*46 
2.86311         IM300_RAW_NMEA       iM300           $CPNVG,171149.532,4221.52222,N,7105.16316,W,1,0,0,90,nan,nan,171149.495*61 
2.96335         IM300_RAW_NMEA       iM300           $GNGGA,171148.00,4221.52219,N,07105.16320,W,1,12,0.67,3.6,M,-33.2,M,,*7F 
2.96403         IM300_RAW_NMEA       iM300           $GNVTG,219.38,T,,M,0.423,N,0.783,K,A*2B 
2.96435         IM300_RAW_NMEA       iM300           $GNRMC,171148.00,A,4221.52219,N,07105.16320,W,0.423,219.38,110723,,,A*67 
2.96435         IM300_RAW_NMEA       iM300           $GNRMC,171148.00,A,4221.52219,N,07105.16320,W,0.423,219.38,110723,,,A*67 
3.06293         IM300_RAW_NMEA       iM300           $CPNVG,171149.780,4221.52219,N,7105.1632,W,1,0,0,210.45189,nan,nan,171149.749*70 
3.06302         IM300_RAW_NMEA       iM300           $CPIMU,171149.749,-1.342774,-5.554203,-0.976563,-0.725742,0.01976,-8.780754*6D 
3.06304         IM300_RAW_NMEA       iM300           $CPRCM,171149.751,0,231.718369,6.238415,-0.780186,171149.749*48 
3.06306         IM300_RAW_NMEA       iM300           $CPNVR,171149.751,-0.110288,0.187592,0,-5.554203,-1.342774,-0.976563*47 
3.16378         IM300_RAW_NMEA       iM300           $GNGSA,A,3,66,82,81,67,68,83,,,,,,,1.17,0.67,0.96*12 
3.16398         IM300_RAW_NMEA       iM300           $GNGSA,A,3,05,06,09,11,12,19,20,25,29,13,,,1.17,0.67,0.96*18 
3.16417         IM300_RAW_NMEA       iM300           $GNGGA,171148.20,4221.52217,N,07105.16322,W,1,12,0.67,3.6,M,-33.2,M,,*71 
3.16458         IM300_RAW_NMEA       iM300           $GNVTG,218.46,T,,M,0.403,N,0.746,K,A*28 
3.16477         IM300_RAW_NMEA       iM300           $GNRMC,171148.20,A,4221.52217,N,07105.16322,W,0.403,218.46,110723,,,A*63 
3.26336         IM300_RAW_NMEA       iM300           $CPNVG,171149.981,4221.52217,N,7105.16322,W,1,0,0,263.164008,nan,nan,171149.951*7A 
3.26345         IM300_RAW_NMEA       iM300           $CPIMU,171149.951,0.976563,10.864266,-0.854493,-0.334129,0.118562,-8.437644*64 
3.26347         IM300_RAW_NMEA       iM300           $CPRCM,171149.953,0,230.05712,2.794091,-0.604946,171149.951*77 
3.26348         IM300_RAW_NMEA       iM300           $CPNVR,171149.952,-0.205847,0.024677,0,10.864266,0.976563,-0.854493*7A 
3.36432         IM300_RAW_NMEA       iM300           $GNTXT,01,01,00,txbuf alloc*61 
3.36434         IM300_RAW_NMEA       iM300           $GNGGA,171148.40,4221.52216,N,07105.16323,W,1,12,0.67,3.6,M,-33.2,M,,*77 
3.36452         IM300_RAW_NMEA       iM300           $GNVTG,218.33,T,,M,0.302,N,0.559,K,A*20 
3.36454         IM300_RAW_NMEA       iM300           $GNRMC,171148.40,A,4221.52216,N,07105.16323,W,0.302,218.33,110723,,,A*61 
3.46467         IM300_RAW_NMEA       iM300           $CPNVR,171150.205,-0.155353,-0.001661,0,-1.892091,2.441408,-2.868654*43 
3.56561         IM300_RAW_NMEA       iM300           $GNVTG,215.86,T,,M,0.366,N,0.678,K,A*21 
3.56564         IM300_RAW_NMEA       iM300           $GNRMC,171148.60,A,4221.52214,N,07105.16325,W,0.366,215.86,110723,,,A*66 
3.56595         IM300_RAW_NMEA       iM300           $CPNVG,171150.230,4221.52216,N,7105.16323,W,1,0,0,90,nan,nan,171150.202*6D 
3.56602         IM300_RAW_NMEA       iM300           $CPIMU,171150.202,2.441408,-1.892091,-2.868654,0.039521,0.008982,-8.908298*55 
3.56604         IM300_RAW_NMEA       iM300           $CPRCM,171150.206,0,225.385983,-0.373813,0.463913,171150.202*46 
3.66595         IM300_RAW_NMEA       iM300           $CPNVR,171150.405,0.148641,-0.115576,0,-5.187992,0.671387,-1.831056*68 
3.76678         IM300_RAW_NMEA       iM300           $GNGGA,171148.80,4221.52212,N,07105.16326,W,1,12,0.67,3.6,M,-33.2,M,,*7A 
3.76687         IM300_RAW_NMEA       iM300           $GNVTG,214.81,T,,M,0.436,N,0.807,K,A*23 
3.76688         IM300_RAW_NMEA       iM300           $GNRMC,171148.80,A,4221.52212,N,07105.16326,W,0.436,214.81,110723,,,A*69 
3.76710         IM300_RAW_NMEA       iM300           $CPNVG,171150.431,4221.52216,N,7105.16323,W,1,0,0,90,nan,nan,171150.403*6D 
3.76716         IM300_RAW_NMEA       iM300           $CPIMU,171150.403,0.671387,-5.187992,-1.831056,-0.391613,0.01976,-8.840035*4D 
3.86708         IM300_RAW_NMEA       iM300           $CPNVR,171150.610,0.207532,0.085088,0,7.6294,0.610352,-0.488282*61 
3.96822         IM300_RAW_NMEA       iM300           $CPNVG,171150.681,4221.52212,N,7105.16326,W,1,0,0,90,nan,nan,171150.669*6B 
3.96833         IM300_RAW_NMEA       iM300           $GNRMC,171149.00,A,4221.52211,N,07105.16328,W,0.371,217.43,110723,,,A*64 
3.96869         IM300_RAW_NMEA       iM300           $CPIMU,171150.607,0.610352,7.6294,-0.488282,-0.441912,-0,-8.378363*54 
4.06837         IM300_RAW_NMEA       iM300           $CPNVR,171150.812,-0.116002,-0.15156,0,3.662112,-3.540042,-1.037598*79 
4.16963         IM300_RAW_NMEA       iM300           $CPNVG,171150.932,4221.52209,N,7105.1633,W,1,0,0,90,nan,nan,171150.908*59 
4.16973         IM300_RAW_NMEA       iM300           $GPGSV,3,1,10,05,56,242,50,06,31,089,45,09,19,044,40,11,71,044,46*78 
4.16975         IM300_RAW_NMEA       iM300           $GNGSA,A,3,66,82,81,67,68,83,,,,,,,1.17,0.67,0.96*12 
4.16977         IM300_RAW_NMEA       iM300           $GNGSA,A,3,05,06,09,11,12,19,20,25,29,13,,,1.17,0.67,0.96*18 
4.16978         IM300_RAW_NMEA       iM300           $GNGGA,171149.20,4221.52209,N,07105.16330,W,1,12,0.67,3.6,M,-33.2,M,,*7C 
4.16984         IM300_RAW_NMEA       iM300           $GNVTG,218.73,T,,M,0.353,N,0.654,K,A*2E 
4.16986         IM300_RAW_NMEA       iM300           $GNRMC,171149.20,A,4221.52209,N,07105.16330,W,0.353,218.73,110723,,,A*6A 
4.17006         IM300_RAW_NMEA       iM300           $CPIMU,171150.809,-3.540042,3.662112,-1.037598,0.048503,-0.118562,-8.477164*78 
4.17008         IM300_RAW_NMEA       iM300           $CPRCM,171150.812,0,227.604085,-0.439703,0.595562,171150.809*4C 
4.26976         IM300_RAW_NMEA       iM300           $CPNVR,171151.012,-0.16801,0.068926,0,-11.291512,-4.69971,-2.441408*7E 
4.37057         IM300_RAW_NMEA       iM300           $CPNVG,171151.131,4221.52207,N,7105.16332,W,1,0,0,0.566833,nan,nan,171151.111*74 
4.37068         IM300_RAW_NMEA       iM300           $CPRBS,171151.077,15.257095,15.257095,15.257095,0*76 
4.37074         IM300_RAW_NMEA       iM300           $GNGGA,171149.40,4221.52207,N,07105.16332,W,1,12,0.67,3.6,M,-33.2,M,,*76 
4.37080         IM300_RAW_NMEA       iM300           $GNVTG,216.76,T,,M,0.405,N,0.750,K,A*24 
4.37081         IM300_RAW_NMEA       iM300           $GNRMC,171149.40,A,4221.52207,N,07105.16332,W,0.405,216.76,110723,,,A*6F 
4.37101         IM300_RAW_NMEA       iM300           $CPIMU,171151.009,-4.69971,-11.291512,-2.441408,-0.048503,0.156286,-8.769976*5D 
4.37103         IM300_RAW_NMEA       iM300           $CPRCM,171151.012,0,225.243997,0.618184,-1.217764,171151.009*43 
4.47071         IM300_RAW_NMEA       iM300           $CPNVR,171151.213,0.002061,-0.20834,0,-3.784182,2.868654,-2.92969*6D 
4.57168         IM300_RAW_NMEA       iM300           $GNGGA,171149.60,4221.52205,N,07105.16333,W,1,12,0.67,3.6,M,-33.2,M,,*77 
4.57176         IM300_RAW_NMEA       iM300           $GNVTG,212.81,T,,M,0.390,N,0.723,K,A*27 
4.57178         IM300_RAW_NMEA       iM300           $GNRMC,171149.60,A,4221.52205,N,07105.16333,W,0.390,212.81,110723,,,A*69 
4.57219         IM300_RAW_NMEA       iM300           $CPALT,171151.266,1*65 
4.57235         IM300_RAW_NMEA       iM300           $CPIMU,171151.210,2.868654,-3.784182,-2.92969,-0.637718,0.235327,-8.662193*41 
4.57238         IM300_RAW_NMEA       iM300           $CPRCM,171151.213,0,229.673918,4.346206,-1.300286,171151.210*4B 
4.67244         IM300_RAW_NMEA       iM300           $CPIMU,171151.413,5.798344,13.73292,-1.52588,-0.431134,-0.008982,-8.789736*4F 
4.67261         IM300_RAW_NMEA       iM300           $CPRCM,171151.416,0,223.647455,2.106397,0.428827,171151.413*6D 
4.67264         IM300_RAW_NMEA       iM300           $CPNVR,171151.415,-0.146459,0.137125,0,13.73292,5.798344,-1.52588*73 
4.67266         IM300_RAW_NMEA       iM300           $CPNVG,171151.380,4221.52205,N,7105.16333,W,1,0,0,226.885162,nan,nan,171151.362*72 
4.77245         IM300_RAW_NMEA       iM300           $GNGGA,171149.80,4221.52204,N,07105.16335,W,1,12,0.67,3.6,M,-33.2,M,,*7E 
4.77253         IM300_RAW_NMEA       iM300           $GNVTG,214.55,T,,M,0.346,N,0.641,K,A*26 
4.77255         IM300_RAW_NMEA       iM300           $GNRMC,171149.80,A,4221.52204,N,07105.16335,W,0.346,214.55,110723,,,A*64 
4.87264         IM300_RAW_NMEA       iM300           $CPNVG,171151.581,4221.52204,N,7105.16335,W,1,0,0,90,nan,nan,171151.565*62 
4.97359         IM300_RAW_NMEA       iM300           $GNGGA,171150.00,4221.52203,N,07105.16336,W,1,12,0.67,3.6,M,-33.2,M,,*7A 
4.97367         IM300_RAW_NMEA       iM300           $GNVTG,215.28,T,,M,0.324,N,0.600,K,A*2C 
4.97368         IM300_RAW_NMEA       iM300           $GNRMC,171150.00,A,4221.52203,N,07105.16336,W,0.324,215.28,110723,,,A*6F 
4.97391         IM300_RAW_NMEA       iM300           $CPIMU,171151.615,2.868654,4.089358,-1.281739,0.186825,-0.059281,-8.947819*57 
4.97392         IM300_RAW_NMEA       iM300           $CPNVR,171151.618,0.141798,0.107594,0,4.089358,2.868654,-1.281739*66 
5.07461         IM300_RAW_NMEA       iM300           $CPNVR,171151.820,0.166135,-0.01347,0,-10.80323,-1.64795,-1.159669*4C 
5.17547         IM300_RAW_NMEA       iM300           $GNGGA,171150.20,4221.52201,N,07105.16337,W,1,12,0.67,3.6,M,-33.2,M,,*7B 
5.17586         IM300_RAW_NMEA       iM300           $GNVTG,212.39,T,,M,0.379,N,0.701,K,A*23 
5.17588         IM300_RAW_NMEA       iM300           $GNRMC,171150.20,A,4221.52201,N,07105.16337,W,0.379,212.39,110723,,,A*61 
5.17610         IM300_RAW_NMEA       iM300           $CPNVG,171151.830,4221.52203,N,7105.16336,W,1,0,0,90,nan,nan,171151.817*69 
5.17616         IM300_RAW_NMEA       iM300           $CPIMU,171151.817,-1.64795,-10.80323,-1.159669,-0.059281,-0.118562,-8.840035*46 
5.17618         IM300_RAW_NMEA       iM300           $CPRCM,171151.821,0,225.309463,0.834842,0.694793,171151.817*6D 
5.27591         IM300_RAW_NMEA       iM300           $CPNVR,171152.022,-0.184296,0.06364,0,-4.333499,-3.967288,-1.342774*79 
5.37678         IM300_RAW_NMEA       iM300           $CPNVG,171152.080,4221.52199,N,7105.16338,W,1,0,0,90,nan,nan,171152.072*6F 
5.37687         IM300_RAW_NMEA       iM300           $GNGGA,171150.40,4221.52199,N,07105.16338,W,1,12,0.67,3.6,M,-33.2,M,,*70 
5.37693         IM300_RAW_NMEA       iM300           $GNVTG,210.80,T,,M,0.369,N,0.684,K,A*2E 
5.37695         IM300_RAW_NMEA       iM300           $GNRMC,171150.40,A,4221.52199,N,07105.16338,W,0.369,210.80,110723,,,A*6B 
5.37716         IM300_RAW_NMEA       iM300           $CPIMU,171152.020,-3.967288,-4.333499,-1.342774,-0.558677,0.068263,-8.369381*5D 
5.57794         IM300_RAW_NMEA       iM300           $CPNVG,171152.282,4221.52199,N,7105.16338,W,1,0,0,90,nan,nan,171152.269*67 
5.57821         IM300_RAW_NMEA       iM300           $GNRMC,171150.60,A,4221.52198,N,07105.16340,W,0.329,212.06,110723,,,A*6F 
5.57842         IM300_RAW_NMEA       iM300           $CPIMU,171152.269,-0.366211,9.338386,-1.037598,-0.32335,0.156286,-8.407105*45 
5.57843         IM300_RAW_NMEA       iM300           $CPNVR,171152.272,-0.058504,-0.18059,0,9.338386,-0.366211,-1.037598*76 
5.77966         IM300_RAW_NMEA       iM300           $CPIMU,171152.470,0.366211,-1.098634,-1.40381,0.147304,-0.01976,-8.829257*7A 
5.77984         IM300_RAW_NMEA       iM300           $CPNVR,171152.473,-0.08984,-0.14344,0,-1.098634,0.366211,-1.40381*70 
5.77987         IM300_RAW_NMEA       iM300           $GNGSA,A,3,66,82,81,67,68,83,,,,,,,1.17,0.67,0.96*12 
5.77989         IM300_RAW_NMEA       iM300           $GNGSA,A,3,05,06,09,11,12,19,20,25,29,13,,,1.17,0.67,0.96*18 
5.77991         IM300_RAW_NMEA       iM300           $GNGGA,171150.80,4221.52197,N,07105.16341,W,1,12,0.67,3.6,M,-33.2,M,,*7C 
5.77998         IM300_RAW_NMEA       iM300           $GNVTG,214.89,T,,M,0.254,N,0.471,K,A*24 
5.77999         IM300_RAW_NMEA       iM300           $GNRMC,171150.80,A,4221.52197,N,07105.16341,W,0.254,214.89,110723,,,A*65 
5.88008         IM300_RAW_NMEA       iM300           $CPNVG,171152.531,4221.52197,N,7105.16341,W,1,0,0,90,nan,nan,171152.522*60 
5.98097         IM300_RAW_NMEA       iM300           $CPIMU,171152.673,2.075197,-12.390146,-2.319338,-0.206585,0.048503,-8.91728*7C 
5.98100         IM300_RAW_NMEA       iM300           $CPRCM,171152.676,0,224.2216,2.065886,-0.525816,171152.673*40 
5.98102         IM300_RAW_NMEA       iM300           $CPNVR,171152.676,-0.08373,-0.146498,0,-12.390146,2.075197,-2.319338*4E 
5.98104         IM300_RAW_NMEA       iM300           $GNGGA,171151.00,4221.52195,N,07105.16342,W,1,12,0.67,3.6,M,-33.2,M,,*74 
5.98111         IM300_RAW_NMEA       iM300           $GNVTG,209.75,T,,M,0.328,N,0.608,K,A*2D 
5.98112         IM300_RAW_NMEA       iM300           $GNRMC,171151.00,A,4221.52195,N,07105.16342,W,0.328,209.75,110723,,,A*68 
6.08115         IM300_RAW_NMEA       iM300           $CPNVG,171152.781,4221.52195,N,7105.16342,W,1,0,0,90,nan,nan,171152.775*68 
6.18209         IM300_RAW_NMEA       iM300           $CPIMU,171152.874,3.295901,0.976563,-1.098634,-0.705981,0.127544,-8.662193*59 
6.18229         IM300_RAW_NMEA       iM300           $CPRCM,171152.878,0,227.523047,4.590518,-0.616029,171152.874*4E 
6.18231         IM300_RAW_NMEA       iM300           $CPNVR,171152.877,-0.187998,0.089814,0,0.976563,3.295901,-1.098634*4A 
6.18233         IM300_RAW_NMEA       iM300           $GNGGA,171151.20,4221.52193,N,07105.16343,W,1,12,0.67,3.6,M,-33.2,M,,*71 
6.18255         IM300_RAW_NMEA       iM300           $GNVTG,206.22,T,,M,0.405,N,0.750,K,A*24 
6.18257         IM300_RAW_NMEA       iM300           $GNRMC,171151.20,A,4221.52193,N,07105.16343,W,0.405,206.22,110723,,,A*68 
6.28259         IM300_RAW_NMEA       iM300           $CPNVG,171153.032,4221.52193,N,7105.16343,W,1,0,0,244.464349,nan,nan,171152.977*70 
6.38353         IM300_RAW_NMEA       iM300           $CPIMU,171153.077,3.17383,15.014659,-2.624514,-0.34311,0.028742,-8.514889*67 
6.38357         IM300_RAW_NMEA       iM300           $CPRCM,171153.082,0,224.281325,2.312745,-0.405788,171153.077*4F 
6.38359         IM300_RAW_NMEA       iM300           $CPNVR,171153.081,0.118555,-0.147598,0,15.014659,3.17383,-2.624514*43 
6.38361         IM300_RAW_NMEA       iM300           $GNGGA,171151.40,4221.52191,N,07105.16345,W,1,12,0.67,3.6,M,-33.2,M,,*73 
6.38367         IM300_RAW_NMEA       iM300           $GNVTG,209.81,T,,M,0.368,N,0.681,K,A*23 
6.38369         IM300_RAW_NMEA       iM300           $GNRMC,171151.40,A,4221.52191,N,07105.16345,W,0.368,209.81,110723,,,A*60 
6.48382         IM300_RAW_NMEA       iM300           $CPNVG,171153.231,4221.52191,N,7105.16345,W,1,0,0,90,nan,nan,171153.178*6E 
6.48412         IM300_RAW_NMEA       iM300           $CPRBS,171153.177,15.279678,15.279678,15.279678,0*7C 
6.58473         IM300_RAW_NMEA       iM300           $CPIMU,171153.278,-2.075197,3.845218,-0.854493,0.147304,-0.30359,-8.800515*4C 
6.58477         IM300_RAW_NMEA       iM300           $CPNVR,171153.282,0.076029,0.145434,0,3.845218,-2.075197,-0.854493*4D 
6.58479         IM300_RAW_NMEA       iM300           $GNGGA,171151.60,4221.52190,N,07105.16346,W,1,12,0.67,3.6,M,-33.2,M,,*73 
6.58485         IM300_RAW_NMEA       iM300           $GNVTG,214.11,T,,M,0.319,N,0.591,K,A*22 
6.58487         IM300_RAW_NMEA       iM300           $GNRMC,171151.60,A,4221.52190,N,07105.16346,W,0.319,214.11,110723,,,A*63 
6.58509         IM300_RAW_NMEA       iM300           $CPALT,171153.266,1*67 
6.68481         IM300_RAW_NMEA       iM300           $CPNVG,171153.432,4221.5219,N,7105.16346,W,1,0,0,90,nan,nan,171153.380*5C 
6.78567         IM300_RAW_NMEA       iM300           $CPIMU,171153.482,-7.446294,-9.582526,1.40381,-0.147304,-0.068263,-8.721473*65 
6.78576         IM300_RAW_NMEA       iM300           $CPRCM,171153.484,0,218.045786,1.441468,0.022836,171153.482*63 
6.78578         IM300_RAW_NMEA       iM300           $CPNVR,171153.484,-0.103779,0.149024,0,-9.582526,-7.446294,1.40381*57 
6.78580         IM300_RAW_NMEA       iM300           $GNGGA,171151.80,4221.52188,N,07105.16347,W,1,12,0.67,3.6,M,-33.2,M,,*75 
6.78587         IM300_RAW_NMEA       iM300           $GNVTG,213.02,T,,M,0.353,N,0.654,K,A*23 
6.78589         IM300_RAW_NMEA       iM300           $GNRMC,171151.80,A,4221.52188,N,07105.16347,W,0.353,213.02,110723,,,A*6E 
6.98649         IM300_RAW_NMEA       iM300           $CPIMU,171153.685,-3.906253,-5.004886,-1.892091,-0.450894,0.391613,-8.369381*56 
6.98652         IM300_RAW_NMEA       iM300           $CPRCM,171153.687,0,224.316994,2.76075,-2.187123,171153.685*77 
6.98654         IM300_RAW_NMEA       iM300           $CPNVR,171153.687,0.13164,-0.098851,0,-5.004886,-3.906253,-1.892091*75 
6.98655         IM300_RAW_NMEA       iM300           $CPNVG,171153.682,4221.52187,N,7105.16348,W,1,0,0,90,nan,nan,171153.672*65 
6.98663         IM300_RAW_NMEA       iM300           $GNGGA,171152.00,4221.52187,N,07105.16348,W,1,12,0.67,3.6,M,-33.2,M,,*7E 
6.98669         IM300_RAW_NMEA       iM300           $GNVTG,209.56,T,,M,0.320,N,0.593,K,A*25 
6.98670         IM300_RAW_NMEA       iM300           $GNRMC,171152.00,A,4221.52187,N,07105.16348,W,0.320,209.56,110723,,,A*6B 
7.18723         IM300_RAW_NMEA       iM300           $CPIMU,171153.886,4.150394,0.366211,-3.845218,-0.226345,0.255087,-8.59393*61 
7.18726         IM300_RAW_NMEA       iM300           $CPRCM,171153.889,0,222.879102,0.471104,-1.112058,171153.886*4D 
7.18728         IM300_RAW_NMEA       iM300           $CPNVR,171153.888,0.080854,0.109763,0,0.366211,4.150394,-3.845218*65 
7.18730         IM300_RAW_NMEA       iM300           $CPNVG,171153.882,4221.52185,N,7105.16349,W,1,0,0,90,nan,nan,171153.873*67 
7.18737         IM300_RAW_NMEA       iM300           $GNGGA,171152.20,4221.52185,N,07105.16349,W,1,12,0.67,3.6,M,-33.2,M,,*7F 
7.18743         IM300_RAW_NMEA       iM300           $GNVTG,207.98,T,,M,0.265,N,0.490,K,A*2B 
7.18745         IM300_RAW_NMEA       iM300           $GNRMC,171152.20,A,4221.52185,N,07105.16349,W,0.265,207.98,110723,,,A*66 
7.38788         IM300_RAW_NMEA       iM300           $CPNVG,171154.130,4221.52185,N,7105.16349,W,1,0,0,90,nan,nan,171154.085*66 
7.38798         IM300_RAW_NMEA       iM300           $GNRMC,171152.40,A,4221.52184,N,07105.16350,W,0.297,208.30,110723,,,A*69 
7.48907         IM300_RAW_NMEA       iM300           $CPIMU,171154.138,9.15528,-1.52588,-0.915528,-0.30359,-0.068263,-9.025063*6D 
7.48910         IM300_RAW_NMEA       iM300           $CPRCM,171154.141,0,224.228864,2.372874,1.051709,171154.138*6D 
7.48912         IM300_RAW_NMEA       iM300           $CPNVR,171154.140,-0.072436,-0.134528,0,-1.52588,9.15528,-0.915528*49 
7.58990         IM300_RAW_NMEA       iM300           $GNGSA,A,3,66,82,81,67,68,83,,,,,,,1.17,0.67,0.96*12 
7.58993         IM300_RAW_NMEA       iM300           $GNGGA,171152.60,4221.52182,N,07105.16352,W,1,12,0.67,3.6,M,-33.2,M,,*76 
7.59000         IM300_RAW_NMEA       iM300           $GNVTG,207.47,T,,M,0.374,N,0.692,K,A*28 
7.59001         IM300_RAW_NMEA       iM300           $GNRMC,171152.60,A,4221.52182,N,07105.16352,W,0.374,207.47,110723,,,A*6C 
7.68992         IM300_RAW_NMEA       iM300           $CPIMU,171154.339,2.502443,6.896978,0.610352,-0.501193,-0.186825,-8.732252*55 
7.68995         IM300_RAW_NMEA       iM300           $CPNVR,171154.341,0.023966,0.190904,0,6.896978,2.502443,0.610352*4B 
7.68997         IM300_RAW_NMEA       iM300           $CPNVG,171154.332,4221.52182,N,7105.16352,W,1,0,0,90,nan,nan,171154.288*64 
7.79069         IM300_RAW_NMEA       iM300           $GNGGA,171152.80,4221.52181,N,07105.16353,W,1,12,0.67,3.6,M,-33.2,M,,*7A 
7.79077         IM300_RAW_NMEA       iM300           $GNVTG,208.73,T,,M,0.354,N,0.656,K,A*2A 
7.79078         IM300_RAW_NMEA       iM300           $GNRMC,171152.80,A,4221.52181,N,07105.16353,W,0.354,208.73,110723,,,A*6A 
7.89160         IM300_RAW_NMEA       iM300           $CPNVG,171154.581,4221.52181,N,7105.16353,W,1,0,0,90,nan,nan,171154.542*69 
7.89168         IM300_RAW_NMEA       iM300           $CPIMU,171154.542,-4.089358,11.047371,-0.549317,-0.107783,-0.136526,-8.496925*6B 
7.89170         IM300_RAW_NMEA       iM300           $CPRCM,171154.545,0,226.08515,-0.022937,0.653776,171154.542*7F 
7.89171         IM300_RAW_NMEA       iM300           $CPNVR,171154.544,0.178975,0.033662,0,11.047371,-4.089358,-0.549317*70 
7.99242         IM300_RAW_NMEA       iM300           $GLGSV,2,1,08,66,22,032,39,67,70,076,43,68,44,186,43,73,07,280,33*6A 
7.99246         IM300_RAW_NMEA       iM300           $GNGGA,171153.00,4221.52179,N,07105.16354,W,1,12,0.67,3.6,M,-33.2,M,,*73 
7.99252         IM300_RAW_NMEA       iM300           $GNVTG,211.31,T,,M,0.298,N,0.552,K,A*22 
7.99254         IM300_RAW_NMEA       iM300           $GNRMC,171153.00,A,4221.52179,N,07105.16354,W,0.298,211.31,110723,,,A*6C 
8.09345         IM300_RAW_NMEA       iM300           $CPNVG,171154.831,4221.52179,N,7105.16354,W,1,0,0,90,nan,nan,171154.792*60 
8.09354         IM300_RAW_NMEA       iM300           $CPIMU,171154.742,-8.422858,-5.371098,-0.488282,0.176046,-0.028742,-8.672971*52 
8.09356         IM300_RAW_NMEA       iM300           $CPNVR,171154.745,-0.112432,-0.104218,0,-5.371098,-8.422858,-0.488282*64 
8.19420         IM300_RAW_NMEA       iM300           $CPNVR,171154.946,-0.112432,-0.104218,0,-14.648448,-5.004886,-0.976563*55 
8.29484         IM300_RAW_NMEA       iM300           $CPIMU,171154.943,-5.004886,-14.648448,-0.976563,-0.334129,0.314368,-8.525667*64 
8.29486         IM300_RAW_NMEA       iM300           $CPRCM,171154.946,0,219.244538,2.381408,-2.01865,171154.943*73 
8.39566         IM300_RAW_NMEA       iM300           $CPNVG,171155.081,4221.52176,N,7105.16356,W,1,0,0,90,nan,nan,171155.073*66 
8.39579         IM300_RAW_NMEA       iM300           $GPGSV,3,1,10,05,56,242,51,06,31,089,45,09,19,044,40,11,71,044,47*78 
8.39581         IM300_RAW_NMEA       iM300           $GNGSA,A,3,66,82,81,67,68,83,,,,,,,1.17,0.67,0.96*12 
8.39582         IM300_RAW_NMEA       iM300           $GNGSA,A,3,05,06,09,11,12,19,20,25,29,13,,,1.17,0.67,0.96*18 
8.39584         IM300_RAW_NMEA       iM300           $GNGGA,171153.40,4221.52176,N,07105.16356,W,1,12,0.67,3.6,M,-33.2,M,,*7A 
8.39590         IM300_RAW_NMEA       iM300           $GNVTG,205.01,T,,M,0.314,N,0.581,K,A*2F 
8.39592         IM300_RAW_NMEA       iM300           $GNRMC,171153.40,A,4221.52176,N,07105.16356,W,0.314,205.01,110723,,,A*66 
8.49646         IM300_RAW_NMEA       iM300           $CPIMU,171155.145,3.540042,-0.183106,-1.52588,-0.628736,0.294608,-8.554409*42 
8.49650         IM300_RAW_NMEA       iM300           $CPRCM,171155.148,0,219.817015,4.880976,-1.40831,171155.145*72 
8.49651         IM300_RAW_NMEA       iM300           $CPNVR,171155.147,-0.116605,-0.11179,0,-0.183106,3.540042,-1.52588*41 
8.59696         IM300_RAW_NMEA       iM300           $CPRBS,171155.277,15.287808,15.287808,15.287808,0*71 
8.59706         IM300_RAW_NMEA       iM300           $GNGGA,171153.60,4221.52175,N,07105.16357,W,1,12,0.67,3.6,M,-33.2,M,,*7A 
8.59712         IM300_RAW_NMEA       iM300           $GNVTG,207.25,T,,M,0.287,N,0.532,K,A*28 
8.59714         IM300_RAW_NMEA       iM300           $GNRMC,171153.60,A,4221.52175,N,07105.16357,W,0.287,207.25,110723,,,A*69 
8.69702         IM300_RAW_NMEA       iM300           $CPIMU,171155.346,7.568365,9.948738,-0.793458,-0.264069,-0.01976,-8.809497*4A 
8.69704         IM300_RAW_NMEA       iM300           $CPNVR,171155.349,-0.014022,0.146978,0,9.948738,7.568365,-0.793458*45 
8.69706         IM300_RAW_NMEA       iM300           $CPNVG,171155.332,4221.52175,N,7105.16357,W,1,0,0,90,nan,nan,171155.298*68 
8.79777         IM300_RAW_NMEA       iM300           $CPNVR,171155.551,-0.068462,-0.118485,0,1.464845,5.371098,-0.366211*6E 
8.79780         IM300_RAW_NMEA       iM300           $GNRMC,171153.80,A,4221.52174,N,07105.16358,W,0.266,210.02,110723,,,A*65 
8.89780         IM300_RAW_NMEA       iM300           $CPNVG,171155.580,4221.52175,N,7105.16357,W,1,0,0,90,nan,nan,171155.548*6D 
8.89789         IM300_RAW_NMEA       iM300           $CPIMU,171155.548,5.371098,1.464845,-0.366211,-0.01976,-0.156286,-8.956801*4D 
8.99854         IM300_RAW_NMEA       iM300           $GNGGA,171154.00,4221.52172,N,07105.16359,W,1,12,0.67,3.6,M,-33.2,M,,*72 
8.99862         IM300_RAW_NMEA       iM300           $GNVTG,206.54,T,,M,0.334,N,0.619,K,A*2C 
8.99881         IM300_RAW_NMEA       iM300           $GNRMC,171154.00,A,4221.52172,N,07105.16359,W,0.334,206.54,110723,,,A*6F 
9.09875         IM300_RAW_NMEA       iM300           $CPNVG,171155.831,4221.52172,N,7105.16359,W,1,0,0,90,nan,nan,171155.802*60 
9.09968         IM300_RAW_NMEA       iM300           $CPIMU,171155.750,-1.098634,-3.112795,0.366211,-0.206585,-0.147304,-8.760994*57 
9.09970         IM300_RAW_NMEA       iM300           $CPRCM,171155.752,0,225.833682,1.492272,0.983587,171155.750*63 
9.09972         IM300_RAW_NMEA       iM300           $CPNVR,171155.752,-0.12387,0.119079,0,-3.112795,-1.098634,0.366211*5C 
9.19966         IM300_RAW_NMEA       iM300           $GNGSA,A,3,66,82,81,67,68,83,,,,,,,1.17,0.67,0.96*12 
9.19969         IM300_RAW_NMEA       iM300           $GNGSA,A,3,05,06,09,11,12,19,20,25,29,13,,,1.17,0.67,0.96*18 
9.19971         IM300_RAW_NMEA       iM300           $GNGGA,171154.20,4221.52170,N,07105.16361,W,1,12,0.67,3.6,M,-33.2,M,,*79 
9.19990         IM300_RAW_NMEA       iM300           $GNVTG,204.29,T,,M,0.368,N,0.681,K,A*2C 
9.19992         IM300_RAW_NMEA       iM300           $GNRMC,171154.20,A,4221.52170,N,07105.16361,W,0.368,204.29,110723,,,A*65 
9.30014         IM300_RAW_NMEA       iM300           $CPIMU,171155.954,-6.347661,0.488282,-0.671387,-0.362871,-0.048503,-8.437644*59 
9.30017         IM300_RAW_NMEA       iM300           $CPNVR,171155.957,-0.016351,-0.188608,0,0.488282,-6.347661,-0.671387*40 
9.40112         IM300_RAW_NMEA       iM300           $GNGGA,171154.40,4221.52168,N,07105.16361,W,1,12,0.67,3.6,M,-33.2,M,,*76 
9.40134         IM300_RAW_NMEA       iM300           $GNVTG,202.63,T,,M,0.322,N,0.597,K,A*2E 
9.40136         IM300_RAW_NMEA       iM300           $GNRMC,171154.40,A,4221.52168,N,07105.16361,W,0.322,202.63,110723,,,A*6C 
9.40158         IM300_RAW_NMEA       iM300           $CPNVG,171156.081,4221.5217,N,7105.16361,W,1,0,0,90,nan,nan,171156.054*51 
9.50194         IM300_RAW_NMEA       iM300           $CPALT,171156.264,1*60 
9.50197         IM300_RAW_NMEA       iM300           $CPIMU,171156.205,-5.065922,0.915528,-1.953126,-0.246105,0.226345,-8.496925*79 
9.50227         IM300_RAW_NMEA       iM300           $CPRCM,171156.209,0,215.762922,1.496669,-2.078696,171156.205*4B 
9.50229         IM300_RAW_NMEA       iM300           $CPNVR,171156.208,0.16565,0.000452,0,0.915528,-5.065922,-1.953126*7E 
9.60213         IM300_RAW_NMEA       iM300           $GNGGA,171154.60,4221.52167,N,07105.16362,W,1,12,0.67,3.6,M,-33.2,M,,*78 
9.60234         IM300_RAW_NMEA       iM300           $GNVTG,202.15,T,,M,0.306,N,0.567,K,A*26 
9.60236         IM300_RAW_NMEA       iM300           $GNRMC,171154.60,A,4221.52167,N,07105.16362,W,0.306,202.15,110723,,,A*65 
9.70290         IM300_RAW_NMEA       iM300           $CPIMU,171156.408,5.615238,-1.281739,0.610352,-0.28383,0.353889,-8.741234*6F 
9.70294         IM300_RAW_NMEA       iM300           $CPNVR,171156.411,0.139432,0.073074,0,-1.281739,5.615238,0.610352*6A 
9.70296         IM300_RAW_NMEA       iM300           $CPNVG,171156.330,4221.52167,N,7105.16362,W,1,0,0,90,nan,nan,171156.304*6B 
9.80366         IM300_RAW_NMEA       iM300           $GNGGA,171154.80,4221.52165,N,07105.16363,W,1,12,0.67,3.6,M,-33.2,M,,*75 
9.80374         IM300_RAW_NMEA       iM300           $GNVTG,202.19,T,,M,0.325,N,0.602,K,A*2B 
9.80376         IM300_RAW_NMEA       iM300           $GNRMC,171154.80,A,4221.52165,N,07105.16363,W,0.325,202.19,110723,,,A*65 
9.90435         IM300_RAW_NMEA       iM300           $CPIMU,171156.609,9.643562,3.356936,0.671387,-0.294608,0.048503,-8.741234*74 
9.90439         IM300_RAW_NMEA       iM300           $CPNVR,171156.612,0.151075,0.071627,0,3.356936,9.643562,0.671387*4D 
9.90440         IM300_RAW_NMEA       iM300           $CPNVG,171156.580,4221.52165,N,7105.16363,W,1,0,0,90,nan,nan,171156.558*6A 
10.00465        IM300_RAW_NMEA       iM300           $GNRMC,171155.00,A,4221.52164,N,07105.16365,W,0.290,206.34,110723,,,A*6F 
10.10473        IM300_RAW_NMEA       iM300           $CPNVG,171156.830,4221.52165,N,7105.16363,W,1,0,0,90,nan,nan,171156.811*6C 
10.10481        IM300_RAW_NMEA       iM300           $CPIMU,171156.811,0.305176,0.183106,-1.098634,0,-0.402391,-8.908298*73 
10.10483        IM300_RAW_NMEA       iM300           $CPNVR,171156.813,-0.066195,-0.1337,0,0.183106,0.305176,-1.098634*66 
10.20620        IM300_RAW_NMEA       iM300           $GNGSA,A,3,66,82,81,67,68,83,,,,,,,1.17,0.67,0.96*12 
10.20624        IM300_RAW_NMEA       iM300           $GNGSA,A,3,05,06,09,11,12,19,20,25,29,13,,,1.17,0.67,0.96*18 
10.20626        IM300_RAW_NMEA       iM300           $GNGGA,171155.20,4221.52163,N,07105.16366,W,1,12,0.67,3.6,M,-33.2,M,,*7D 
10.20633        IM300_RAW_NMEA       iM300           $GNVTG,209.50,T,,M,0.260,N,0.482,K,A*27 
10.20634        IM300_RAW_NMEA       iM300           $GNRMC,171155.20,A,4221.52163,N,07105.16366,W,0.260,209.50,110723,,,A*6B 
10.30627        IM300_RAW_NMEA       iM300           $CPNVR,171157.014,0.111581,-0.073758,0,-9.643562,-9.399421,-1.586915*44 
10.40708        IM300_RAW_NMEA       iM300           $GNTXT,01,01,00,txbuf alloc*61 
10.40711        IM300_RAW_NMEA       iM300           $GNGGA,171155.40,4221.52161,N,07105.16366,W,1,12,0.67,3.6,M,-33.2,M,,*79 
10.40718        IM300_RAW_NMEA       iM300           $GNVTG,202.17,T,,M,0.274,N,0.508,K,A*29 
10.40720        IM300_RAW_NMEA       iM300           $GNRMC,171155.40,A,4221.52161,N,07105.16366,W,0.274,202.17,110723,,,A*62 
10.40741        IM300_RAW_NMEA       iM300           $CPNVG,171157.031,4221.52163,N,7105.16366,W,1,0,0,90,nan,nan,171157.011*6E 
10.40747        IM300_RAW_NMEA       iM300           $CPIMU,171157.011,-9.399421,-9.643562,-1.586915,-0.088023,-0.136526,-8.849017*78 
10.50710        IM300_RAW_NMEA       iM300           $CPIMU,171157.214,-2.990725,-4.089358,-0.793458,-0.519157,0.362871,-8.446626*58 
10.50713        IM300_RAW_NMEA       iM300           $CPNVR,171157.217,0.126135,0.062922,0,-4.089358,-2.990725,-0.793458*6A 
10.60789        IM300_RAW_NMEA       iM300           $CPNVG,171157.281,4221.52159,N,7105.16367,W,1,0,0,90,nan,nan,171157.274*6E 
10.60797        IM300_RAW_NMEA       iM300           $GNGGA,171155.60,4221.52159,N,07105.16367,W,1,12,0.67,3.6,M,-33.2,M,,*71 
10.60803        IM300_RAW_NMEA       iM300           $GNVTG,198.93,T,,M,0.318,N,0.588,K,A*26 
10.60805        IM300_RAW_NMEA       iM300           $GNRMC,171155.60,A,4221.52159,N,07105.16367,W,0.318,198.93,110723,,,A*6D 
10.70793        IM300_RAW_NMEA       iM300           $CPIMU,171157.415,4.516605,10.742195,-0,-0.538917,0.235327,-8.29034*78 
10.70795        IM300_RAW_NMEA       iM300           $CPRCM,171157.418,0,221.332594,3.535946,-1.480712,171157.415*48 
10.70797        IM300_RAW_NMEA       iM300           $CPNVR,171157.417,-0.138507,-0.087056,0,10.742195,4.516605,-0*7C 
10.70799        IM300_RAW_NMEA       iM300           $CPRBS,171157.377,15.286905,15.286905,15.286905,0*7F 
10.80876        IM300_RAW_NMEA       iM300           $CPNVG,171157.480,4221.52159,N,7105.16367,W,1,0,0,90,nan,nan,171157.466*6C 
10.80885        IM300_RAW_NMEA       iM300           $GNGGA,171155.80,4221.52158,N,07105.16368,W,1,12,0.67,3.6,M,-33.2,M,,*71 
10.80891        IM300_RAW_NMEA       iM300           $GNVTG,204.34,T,,M,0.296,N,0.548,K,A*26 
10.80893        IM300_RAW_NMEA       iM300           $GNRMC,171155.80,A,4221.52158,N,07105.16368,W,0.296,204.34,110723,,,A*61 
10.80893        IM300_RAW_NMEA       iM300           $GNRMC,171155.80,A,4221.52158,N,07105.16368,W,0.296,204.34,110723,,,A*61 
10.90886        IM300_RAW_NMEA       iM300           $CPIMU,171157.616,3.540042,7.873541,0.915528,-0.039521,-0.147304,-8.780754*5D 
10.90888        IM300_RAW_NMEA       iM300           $CPRCM,171157.620,0,218.353507,0.115856,1.611932,171157.616*69 
10.90890        IM300_RAW_NMEA       iM300           $CPNVR,171157.619,-0.020718,-0.15086,0,7.873541,3.540042,0.915528*74 
11.00966        IM300_RAW_NMEA       iM300           $CPNVG,171157.730,4221.52156,N,7105.16369,W,1,0,0,90,nan,nan,171157.718*6F 
11.00975        IM300_RAW_NMEA       iM300           $GNGGA,171156.00,4221.52156,N,07105.16369,W,1,12,0.67,3.6,M,-33.2,M,,*75 
11.00980        IM300_RAW_NMEA       iM300           $GNVTG,207.43,T,,M,0.321,N,0.594,K,A*29 
11.00982        IM300_RAW_NMEA       iM300           $GNRMC,171156.00,A,4221.52156,N,07105.16369,W,0.321,207.43,110723,,,A*6B 
11.10968        IM300_RAW_NMEA       iM300           $CPIMU,171157.818,-0.061035,-4.45557,0.183106,-0.039521,-0.01976,-8.967579*58 
11.10971        IM300_RAW_NMEA       iM300           $CPRCM,171157.822,0,215.248216,-0.14754,0.08264,171157.818*43 
11.10972        IM300_RAW_NMEA       iM300           $CPNVR,171157.821,0.014001,0.164542,0,-4.45557,-0.061035,0.183106*70 
11.21054        IM300_RAW_NMEA       iM300           $CPNVG,171157.931,4221.52155,N,7105.1637,W,1,0,0,90,nan,nan,171157.919*54 
11.21062        IM300_RAW_NMEA       iM300           $GNGGA,171156.20,4221.52155,N,07105.16370,W,1,12,0.67,3.6,M,-33.2,M,,*7C 
11.21068        IM300_RAW_NMEA       iM300           $GNVTG,202.66,T,,M,0.333,N,0.617,K,A*20 
11.21070        IM300_RAW_NMEA       iM300           $GNRMC,171156.20,A,4221.52155,N,07105.16370,W,0.333,202.66,110723,,,A*63 
11.31138        IM300_RAW_NMEA       iM300           $CPIMU,171158.021,-1.586915,-5.859379,-1.953126,-0.353889,0.118562,-8.457404*5E 
11.31140        IM300_RAW_NMEA       iM300           $CPRCM,171158.024,0,220.674419,3.795803,-0.433014,171158.021*42 
11.31142        IM300_RAW_NMEA       iM300           $CPNVR,171158.024,0.171246,-0.004672,0,-5.859379,-1.586915,-1.953126*48 
11.41211        IM300_RAW_NMEA       iM300           $CPNVG,171158.131,4221.52153,N,7105.16371,W,1,0,0,90,nan,nan,171158.122*6B 
11.41219        IM300_RAW_NMEA       iM300           $GNGGA,171156.40,4221.52153,N,07105.16371,W,1,12,0.67,3.6,M,-33.2,M,,*7D 
11.41225        IM300_RAW_NMEA       iM300           $GNVTG,201.55,T,,M,0.341,N,0.632,K,A*21 
11.41227        IM300_RAW_NMEA       iM300           $GNRMC,171156.40,A,4221.52153,N,07105.16371,W,0.341,201.55,110723,,,A*64 
11.51334        IM300_RAW_NMEA       iM300           $CPALT,171158.266,1*6C 
11.51337        IM300_RAW_NMEA       iM300           $CPIMU,171158.222,1.52588,0.061035,-0.915528,-0.34311,0.068263,-8.29034*6D 
11.51338        IM300_RAW_NMEA       iM300           $CPNVR,171158.225,0.082261,0.154943,0,0.061035,1.52588,-0.915528*57 
11.61413        IM300_RAW_NMEA       iM300           $GNGGA,171156.60,4221.52151,N,07105.16372,W,1,12,0.67,3.7,M,-33.2,M,,*7F 
11.61419        IM300_RAW_NMEA       iM300           $GNVTG,202.98,T,,M,0.285,N,0.528,K,A*22 
11.61421        IM300_RAW_NMEA       iM300           $GNRMC,171156.60,A,4221.52151,N,07105.16372,W,0.285,202.98,110723,,,A*6C 
11.71512        IM300_RAW_NMEA       iM300           $CPIMU,171158.423,0.610352,2.502443,1.831056,-0.246105,-0.088023,-8.721473*57 
11.71515        IM300_RAW_NMEA       iM300           $CPRCM,171158.427,0,219.687513,1.32887,0.814439,171158.423*55 
11.71517        IM300_RAW_NMEA       iM300           $CPNVR,171158.426,0.137864,-0.049899,0,2.502443,0.610352,1.831056*64 
11.71518        IM300_RAW_NMEA       iM300           $CPNVG,171158.381,4221.52151,N,7105.16372,W,1,0,0,90,nan,nan,171158.373*65 
11.81597        IM300_RAW_NMEA       iM300           $GNRMC,171156.80,A,4221.52150,N,07105.16373,W,0.288,202.44,110723,,,A*6E 
11.91703        IM300_RAW_NMEA       iM300           $CPIMU,171158.626,-3.17383,1.464845,-0.488282,-0.167064,0.039521,-8.956801*43 
11.91705        IM300_RAW_NMEA       iM300           $CPNVG,171158.632,4221.52151,N,7105.16372,W,1,0,0,90,nan,nan,171158.576*6B 
11.91714        IM300_RAW_NMEA       iM300           $CPRCM,171158.630,0,218.309472,1.121634,-1.360341,171158.626*4B 
11.91715        IM300_RAW_NMEA       iM300           $CPNVR,171158.629,-0.056555,-0.136941,0,1.464845,-3.17383,-0.488282*72 
11.91715        IM300_RAW_NMEA       iM300           $CPNVR,171158.629,-0.056555,-0.136941,0,1.464845,-3.17383,-0.488282*72 
12.01766        IM300_RAW_NMEA       iM300           $GPGSV,3,1,10,05,56,242,50,06,31,089,45,09,19,044,42,11,71,044,46*7A 
12.01767        IM300_RAW_NMEA       iM300           $GNGSA,A,3,66,82,81,67,68,83,,,,,,,1.17,0.67,0.96*12 
12.01769        IM300_RAW_NMEA       iM300           $GNGSA,A,3,05,06,09,11,12,19,20,25,29,13,,,1.17,0.67,0.96*18 
12.01770        IM300_RAW_NMEA       iM300           $GNGGA,171157.00,4221.52149,N,07105.16373,W,1,12,0.67,3.6,M,-33.2,M,,*71 
12.01776        IM300_RAW_NMEA       iM300           $GNVTG,204.49,T,,M,0.248,N,0.459,K,A*2E 
12.01778        IM300_RAW_NMEA       iM300           $GNRMC,171157.00,A,4221.52149,N,07105.16373,W,0.248,204.49,110723,,,A*68 
12.11866        IM300_RAW_NMEA       iM300           $CPIMU,171158.830,-0.915528,0.183106,-3.05176,-0.195807,0.068263,-8.752012*49 
12.11869        IM300_RAW_NMEA       iM300           $CPRCM,171158.833,0,219.445621,1.525282,-1.004155,171158.830*4A 
12.11871        IM300_RAW_NMEA       iM300           $CPNVR,171158.833,-0.036052,-0.122383,0,0.183106,-0.915528,-3.05176*74 
12.21940        IM300_RAW_NMEA       iM300           $CPNVG,171158.881,4221.52149,N,7105.16373,W,1,0,0,90,nan,nan,171158.830*6A 
12.32011        IM300_RAW_NMEA       iM300           $GNRMC,171157.40,A,4221.52146,N,07105.16375,W,0.259,200.86,110723,,,A*62 
12.42128        IM300_RAW_NMEA       iM300           $CPNVG,171159.131,4221.52146,N,7105.16375,W,1,0,0,90,nan,nan,171159.081*63 
12.42135        IM300_RAW_NMEA       iM300           $CPIMU,171159.081,1.831056,-3.784182,0.793458,-0.176046,0.048503,-8.624468*5B 
12.42137        IM300_RAW_NMEA       iM300           $CPNVR,171159.083,-0.026723,0.130534,0,-3.784182,1.831056,0.793458*49 
12.42139        IM300_RAW_NMEA       iM300           $CPRCM,171159.083,0,213.769772,1.453617,0.689375,171159.081*6C 
12.42141        IM300_RAW_NMEA       iM300           $GNGSA,A,3,66,82,81,67,68,83,,,,,,,1.17,0.67,0.96*12 
12.42142        IM300_RAW_NMEA       iM300           $GNGSA,A,3,05,06,09,11,12,19,20,25,29,13,,,1.17,0.67,0.96*18 
12.42144        IM300_RAW_NMEA       iM300           $GNGGA,171157.40,4221.52146,N,07105.16375,W,1,12,0.67,3.7,M,-33.2,M,,*7D 
12.42150        IM300_RAW_NMEA       iM300           $GNVTG,200.86,T,,M,0.259,N,0.480,K,A*2D 
12.52186        IM300_RAW_NMEA       iM300           $GNRMC,171157.60,A,4221.52144,N,07105.16376,W,0.283,201.31,110723,,,A*6B 
12.62329        IM300_RAW_NMEA       iM300           $CPRBS,171159.377,15.278775,15.278775,15.278775,0*79 
12.62389        IM300_RAW_NMEA       iM300           $CPIMU,171159.281,3.662112,-1.708986,1.40381,-0.391613,0.127544,-8.752012*6C 
12.62420        IM300_RAW_NMEA       iM300           $CPRCM,171159.285,0,219.657949,2.619364,-0.647672,171159.281*49 
12.62451        IM300_RAW_NMEA       iM300           $CPNVR,171159.284,0.035747,0.141131,0,-1.708986,3.662112,1.40381*5C 
12.62481        IM300_RAW_NMEA       iM300           $GNGSA,A,3,05,06,09,11,12,19,20,25,29,13,,,1.17,0.67,0.96*18 
12.62512        IM300_RAW_NMEA       iM300           $GNGGA,171157.60,4221.52144,N,07105.16376,W,1,12,0.67,3.7,M,-33.2,M,,*7E 
12.62550        IM300_RAW_NMEA       iM300           $GNVTG,201.31,T,,M,0.283,N,0.525,K,A*29 
12.72355        IM300_RAW_NMEA       iM300           $GNRMC,171157.80,A,4221.52143,N,07105.16376,W,0.274,202.92,110723,,,A*60 
12.72378        IM300_RAW_NMEA       iM300           $CPNVG,171159.383,4221.52144,N,7105.16376,W,1,0,0,90,nan,nan,171159.332*62 
12.82487        IM300_RAW_NMEA       iM300           $CPIMU,171159.484,1.586915,6.347661,-1.831056,-0.334129,-0.068263,-8.879556*75 
12.82521        IM300_RAW_NMEA       iM300           $CPNVR,171159.486,0.135181,-0.039939,0,6.347661,1.586915,-1.831056*4B 
12.82552        IM300_RAW_NMEA       iM300           $GNGGA,171157.80,4221.52143,N,07105.16376,W,1,12,0.67,3.7,M,-33.2,M,,*77 
12.82623        IM300_RAW_NMEA       iM300           $GNVTG,202.92,T,,M,0.274,N,0.508,K,A*24 
12.92602        IM300_RAW_NMEA       iM300           $CPNVR,171159.688,-0.134032,0.014218,0,-0.427246,-2.990725,-1.64795*7B 
12.92639        IM300_RAW_NMEA       iM300           $GNGGA,171158.00,4221.52142,N,07105.16377,W,1,12,0.67,3.7,M,-33.2,M,,*70 
12.92704        IM300_RAW_NMEA       iM300           $GNVTG,205.88,T,,M,0.262,N,0.485,K,A*2B 
12.92735        IM300_RAW_NMEA       iM300           $GNRMC,171158.00,A,4221.52142,N,07105.16377,W,0.262,205.88,110723,,,A*6C 
12.93046        IM300_RAW_NMEA       iM300           $CPNVG,171159.630,4221.52143,N,7105.16376,W,1,0,0,90,nan,nan,171159.583*64 
13.02614        IM300_RAW_NMEA       iM300           $CPIMU,171159.686,-2.990725,-0.427246,-1.64795,0.048503,-0.136526,-8.565188*64 
13.12738        IM300_RAW_NMEA       iM300           $CPNVR,171159.890,0.100569,-0.111585,0,-7.263189,-4.089358,0.488282*66 
13.12772        IM300_RAW_NMEA       iM300           $GNGGA,171158.20,4221.52140,N,07105.16378,W,1,12,0.67,3.7,M,-33.2,M,,*7F 
13.12887        IM300_RAW_NMEA       iM300           $GNVTG,203.47,T,,M,0.292,N,0.541,K,A*28 
13.12941        IM300_RAW_NMEA       iM300           $GNRMC,171158.20,A,4221.52140,N,07105.16378,W,0.292,203.47,110723,,,A*69 
13.13615        IM300_RAW_NMEA       iM300           $CPNVG,171159.831,4221.52142,N,7105.16377,W,1,0,0,90,nan,nan,171159.786*6C 
13.22714        IM300_RAW_NMEA       iM300           $CPIMU,171159.887,-4.089358,-7.263189,0.488282,-0.206585,0.028742,-8.349621*7E 
13.22748        IM300_RAW_NMEA       iM300           $CPRCM,171159.890,0,219.317641,1.903933,-0.425554,171159.887*43 
13.32805        IM300_RAW_NMEA       iM300           $CPNVR,171200.090,-0.06043,-0.169612,0,2.197267,-0.610352,-0.610352*7D 
13.32839        IM300_RAW_NMEA       iM300           $CPNVG,171200.080,4221.5214,N,7105.16378,W,1,0,0,90,nan,nan,171200.039*50 
13.32910        IM300_RAW_NMEA       iM300           $GNRMC,171158.40,A,4221.52138,N,07105.16379,W,0.350,199.61,110723,,,A*6A 
13.42851        IM300_RAW_NMEA       iM300           $CPIMU,171200.088,-0.610352,2.197267,-0.610352,-0.578438,0.147304,-8.398123*71 
13.52965        IM300_RAW_NMEA       iM300           $CPRCM,171200.292,0,219.386649,1.886415,-1.803745,171200.290*49 
13.53001        IM300_RAW_NMEA       iM300           $CPNVR,171200.292,-0.09571,-0.118438,0,9.460456,3.05176,-0.793458*67 
13.53033        IM300_RAW_NMEA       iM300           $CPNVG,171200.282,4221.5214,N,7105.16378,W,1,0,0,90,nan,nan,171200.240*5C 
13.53101        IM300_RAW_NMEA       iM300           $GNGSA,A,3,66,82,81,67,68,83,,,,,,,1.17,0.67,0.96*12 
13.53133        IM300_RAW_NMEA       iM300           $GNGSA,A,3,05,06,09,11,12,19,20,25,29,13,,,1.17,0.67,0.96*18 
13.53164        IM300_RAW_NMEA       iM300           $GNGGA,171158.60,4221.52137,N,07105.16380,W,1,12,0.67,3.7,M,-33.2,M,,*7C 
13.53230        IM300_RAW_NMEA       iM300           $GNVTG,198.60,T,,M,0.296,N,0.548,K,A*21 
13.53261        IM300_RAW_NMEA       iM300           $GNRMC,171158.60,A,4221.52137,N,07105.16380,W,0.296,198.60,110723,,,A*6A 
13.62776        IM300_RAW_NMEA       iM300           $CPIMU,171200.290,3.05176,9.460456,-0.793458,-0.353889,0.167064,-8.565188*6C 
13.72843        IM300_RAW_NMEA       iM300           $GNRMC,171158.80,A,4221.52135,N,07105.16380,W,0.251,198.53,110723,,,A*6D 
13.82945        IM300_RAW_NMEA       iM300           $CPNVG,171200.531,4221.52135,N,7105.1638,W,1,0,0,90,nan,nan,171200.493*5E 
13.82954        IM300_RAW_NMEA       iM300           $CPIMU,171200.493,5.065922,2.807619,0.976563,0,0.136526,-8.976561*7B 
13.82956        IM300_RAW_NMEA       iM300           $CPNVR,171200.495,-0.073936,-0.105862,0,2.807619,5.065922,0.976563*4C 
13.82958        IM300_RAW_NMEA       iM300           $GNGGA,171158.80,4221.52135,N,07105.16380,W,1,12,0.67,3.7,M,-33.2,M,,*70 
13.82963        IM300_RAW_NMEA       iM300           $GNVTG,198.53,T,,M,0.251,N,0.464,K,A*25 
13.93032        IM300_RAW_NMEA       iM300           $GNRMC,171159.00,A,4221.52134,N,07105.16381,W,0.259,200.99,110723,,,A*68 
14.03108        IM300_RAW_NMEA       iM300           $CPNVG,171200.781,4221.52134,N,7105.16381,W,1,0,0,90,nan,nan,171200.742*68 
14.03117        IM300_RAW_NMEA       iM300           $CPIMU,171200.694,3.967288,-9.27735,-0.610352,0.059281,-0.127544,-9.251409*4D 
14.03119        IM300_RAW_NMEA       iM300           $CPNVR,171200.697,-0.009576,0.132897,0,-9.27735,3.967288,-0.610352*59 
14.03121        IM300_RAW_NMEA       iM300           $GNGGA,171159.00,4221.52134,N,07105.16381,W,1,12,0.67,3.7,M,-33.2,M,,*79 
14.03127        IM300_RAW_NMEA       iM300           $GNVTG,200.99,T,,M,0.259,N,0.479,K,A*25 
14.13189        IM300_RAW_NMEA       iM300           $GNRMC,171159.20,A,4221.52133,N,07105.16382,W,0.273,203.88,110723,,,A*65 
14.23285        IM300_RAW_NMEA       iM300           $CPNVR,171200.949,0.044648,-0.133157,0,-7.934576,-6.958013,-1.342774*41 
14.23289        IM300_RAW_NMEA       iM300           $GNGGA,171159.20,4221.52133,N,07105.16382,W,1,12,0.67,3.7,M,-33.2,M,,*7F 
14.23296        IM300_RAW_NMEA       iM300           $GNVTG,203.88,T,,M,0.273,N,0.506,K,A*27 
14.33366        IM300_RAW_NMEA       iM300           $GNGGA,171159.40,4221.52131,N,07105.16383,W,1,12,0.67,3.7,M,-33.2,M,,*7A 
14.33374        IM300_RAW_NMEA       iM300           $GNVTG,204.26,T,,M,0.275,N,0.509,K,A*2D 
14.33376        IM300_RAW_NMEA       iM300           $GNRMC,171159.40,A,4221.52131,N,07105.16383,W,0.275,204.26,110723,,,A*65 
14.33397        IM300_RAW_NMEA       iM300           $CPNVG,171201.032,4221.52133,N,7105.16382,W,1,0,0,90,nan,nan,171200.998*6B 
14.33404        IM300_RAW_NMEA       iM300           $CPIMU,171200.946,-6.958013,-7.934576,-1.342774,-0.501193,-0.136526,-8.369381*77 
14.43469        IM300_RAW_NMEA       iM300           $CPNVR,171201.150,-0.007986,-0.141247,0,6.10352,-5.004886,-0.610352*77 
14.53536        IM300_RAW_NMEA       iM300           $CPALT,171201.265,1*60 
14.53540        IM300_RAW_NMEA       iM300           $CPIMU,171201.147,-5.004886,6.10352,-0.610352,-0.617958,0.235327,-8.152018*40 
14.53542        IM300_RAW_NMEA       iM300           $CPRCM,171201.150,0,220.61779,4.190197,-2.068761,171201.147*7B 
14.63626        IM300_RAW_NMEA       iM300           $CPNVR,171201.352,-0.036171,-0.132509,0,11.596688,0.610352,-0.671387*55 
14.63629        IM300_RAW_NMEA       iM300           $CPNVG,171201.280,4221.5213,N,7105.16384,W,1,0,0,90,nan,nan,171201.272*5B 
14.63637        IM300_RAW_NMEA       iM300           $GNGGA,171159.60,4221.52130,N,07105.16384,W,1,12,0.67,3.7,M,-33.2,M,,*7E 
14.63643        IM300_RAW_NMEA       iM300           $GNVTG,204.47,T,,M,0.267,N,0.494,K,A*2C 
14.63645        IM300_RAW_NMEA       iM300           $GNRMC,171159.60,A,4221.52130,N,07105.16384,W,0.267,204.47,110723,,,A*65 
14.73632        IM300_RAW_NMEA       iM300           $GNRMC,171159.80,A,4221.52128,N,07105.16385,W,0.248,207.23,110723,,,A*6F 
14.73655        IM300_RAW_NMEA       iM300           $CPRBS,171201.377,15.238126,15.238126,15.238126,0*73 
14.73661        IM300_RAW_NMEA       iM300           $CPIMU,171201.349,0.610352,11.596688,-0.671387,-0.206585,0.118562,-8.545427*6C 
14.73663        IM300_RAW_NMEA       iM300           $CPRCM,171201.353,0,217.092506,0.233893,-0.259786,171201.349*4C 
14.83740        IM300_RAW_NMEA       iM300           $CPIMU,171201.552,1.64795,1.892091,-0.549317,0.059281,0.098801,-9.035842*47 
14.83744        IM300_RAW_NMEA       iM300           $CPNVR,171201.555,-0.014654,0.126738,0,1.892091,1.64795,-0.549317*70 
14.83745        IM300_RAW_NMEA       iM300           $CPNVG,171201.480,4221.52128,N,7105.16385,W,1,0,0,90,nan,nan,171201.471*60 
14.83753        IM300_RAW_NMEA       iM300           $GNGGA,171159.80,4221.52128,N,07105.16385,W,1,12,0.67,3.7,M,-33.2,M,,*78 
14.83758        IM300_RAW_NMEA       iM300           $GNVTG,207.23,T,,M,0.248,N,0.460,K,A*2B 
14.93822        IM300_RAW_NMEA       iM300           $GNRMC,171200.00,A,4221.52127,N,07105.16386,W,0.270,200.86,110723,,,A*67 
15.03913        IM300_RAW_NMEA       iM300           $CPIMU,171201.753,6.042485,-7.6294,-0.427246,-0.127544,0.167064,-8.956801*7B 
15.03915        IM300_RAW_NMEA       iM300           $CPNVR,171201.756,-0.04946,-0.129796,0,-7.6294,6.042485,-0.427246*7E 
15.03917        IM300_RAW_NMEA       iM300           $CPNVG,171201.682,4221.52128,N,7105.16385,W,1,0,0,90,nan,nan,171201.653*62 
15.13987        IM300_RAW_NMEA       iM300           $GNRMC,171200.20,A,4221.52126,N,07105.16386,W,0.254,200.47,110723,,,A*6F 
15.24090        IM300_RAW_NMEA       iM300           $CPIMU,171201.956,4.272464,-6.896978,-0.854493,-0.34311,-0.136526,-8.525667*6A 
15.24093        IM300_RAW_NMEA       iM300           $CPNVR,171201.958,-0.072908,0.108438,0,-6.896978,4.272464,-0.854493*6F 
15.24094        IM300_RAW_NMEA       iM300           $CPNVG,171201.931,4221.52126,N,7105.16386,W,1,0,0,90,nan,nan,171201.905*64 
15.24101        IM300_RAW_NMEA       iM300           $GNGGA,171200.20,4221.52126,N,07105.16386,W,1,12,0.67,3.7,M,-33.2,M,,*70 
15.24108        IM300_RAW_NMEA       iM300           $GNVTG,200.47,T,,M,0.254,N,0.470,K,A*22 
15.34169        IM300_RAW_NMEA       iM300           $GNRMC,171200.40,A,4221.52124,N,07105.16387,W,0.293,202.51,110723,,,A*64 
15.44280        IM300_RAW_NMEA       iM300           $CPIMU,171202.156,-3.784182,2.807619,-1.953126,-0.529935,-0.255087,-8.417884*51 
15.44284        IM300_RAW_NMEA       iM300           $CPRCM,171202.160,0,221.100475,2.799454,2.227292,171202.156*6E 
15.44285        IM300_RAW_NMEA       iM300           $CPNVR,171202.160,0.149599,0.018452,0,2.807619,-3.784182,-1.953126*4D 
15.44287        IM300_RAW_NMEA       iM300           $CPNVG,171202.130,4221.52124,N,7105.16387,W,1,0,0,90,nan,nan,171202.107*64 
15.44294        IM300_RAW_NMEA       iM300           $GNGSA,A,3,66,82,81,67,68,83,,,,,,,1.17,0.67,0.96*12 
15.44296        IM300_RAW_NMEA       iM300           $GNGSA,A,3,05,06,09,11,12,19,20,25,29,13,,,1.17,0.67,0.96*18 
15.44298        IM300_RAW_NMEA       iM300           $GNGGA,171200.40,4221.52124,N,07105.16387,W,1,12,0.67,3.7,M,-33.2,M,,*75 
15.44303        IM300_RAW_NMEA       iM300           $GNVTG,202.51,T,,M,0.293,N,0.543,K,A*2D 
15.54291        IM300_RAW_NMEA       iM300           $GNRMC,171200.60,A,4221.52123,N,07105.16388,W,0.240,199.53,110723,,,A*63 
15.64387        IM300_RAW_NMEA       iM300           $CPIMU,171202.359,-5.615238,7.141118,-0.366211,-0.226345,0.176046,-8.752012*71 
15.64391        IM300_RAW_NMEA       iM300           $CPRCM,171202.363,0,214.316553,1.110217,-2.007516,171202.359*47 
15.64392        IM300_RAW_NMEA       iM300           $CPNVR,171202.362,-0.123373,0.004798,0,7.141118,-5.615238,-0.366211*69 
15.64394        IM300_RAW_NMEA       iM300           $CPNVG,171202.331,4221.52123,N,7105.16388,W,1,0,0,90,nan,nan,171202.308*62 
15.64402        IM300_RAW_NMEA       iM300           $GNGGA,171200.60,4221.52123,N,07105.16388,W,1,12,0.67,3.7,M,-33.2,M,,*7F 
15.64408        IM300_RAW_NMEA       iM300           $GNVTG,199.53,T,,M,0.240,N,0.445,K,A*27 
15.74470        IM300_RAW_NMEA       iM300           $GNRMC,171200.80,A,4221.52122,N,07105.16388,W,0.218,,110723,,,A*78 
15.84583        IM300_RAW_NMEA       iM300           $CPNVR,171202.564,nan,nan,0,-1.40381,0.610352,-1.342774*79 
15.84586        IM300_RAW_NMEA       iM300           $GNGGA,171200.80,4221.52122,N,07105.16388,W,1,12,0.67,3.7,M,-33.2,M,,*70 
15.84593        IM300_RAW_NMEA       iM300           $GNVTG,,T,,M,0.218,N,0.404,K,A*36 
15.94672        IM300_RAW_NMEA       iM300           $GNRMC,171201.00,A,4221.52120,N,07105.16389,W,0.254,204.44,110723,,,A*62 
15.94696        IM300_RAW_NMEA       iM300           $CPNVG,171202.581,4221.52122,N,7105.16388,W,1,0,0,90,nan,nan,171202.561*67 
15.94702        IM300_RAW_NMEA       iM300           $CPIMU,171202.561,0.610352,-1.40381,-1.342774,-0.068263,0.226345,-8.829257*4F 
15.94704        IM300_RAW_NMEA       iM300           $CPRCM,171202.564,0,212.165623,0.598506,-1.064663,171202.561*4A 
16.04681        IM300_RAW_NMEA       iM300           $CPIMU,171202.763,1.892091,-3.601077,-2.563478,-0.246105,0.039521,-8.662193*7B 
16.04684        IM300_RAW_NMEA       iM300           $CPRCM,171202.766,0,214.333316,3.071364,0.164143,171202.763*65 
16.04702        IM300_RAW_NMEA       iM300           $CPNVR,171202.766,-0.030613,-0.127032,0,-3.601077,1.892091,-2.563478*40 
16.04705        IM300_RAW_NMEA       iM300           $GNGGA,171201.00,4221.52120,N,07105.16389,W,1,12,0.67,3.7,M,-33.2,M,,*7A 
16.04712        IM300_RAW_NMEA       iM300           $GNVTG,204.44,T,,M,0.254,N,0.471,K,A*24 
16.14782        IM300_RAW_NMEA       iM300           $GNGGA,171201.20,4221.52119,N,07105.16390,W,1,12,0.67,3.7,M,-33.2,M,,*7A 
16.14789        IM300_RAW_NMEA       iM300           $GNVTG,204.91,T,,M,0.252,N,0.467,K,A*2D 
16.14791        IM300_RAW_NMEA       iM300           $GNRMC,171201.20,A,4221.52119,N,07105.16390,W,0.252,204.91,110723,,,A*6C 
16.14812        IM300_RAW_NMEA       iM300           $CPNVG,171202.830,4221.5212,N,7105.16389,W,1,0,0,90,nan,nan,171202.811*59 
16.24879        IM300_RAW_NMEA       iM300           $CPIMU,171202.963,3.967288,-1.098634,-1.037598,-0.28383,0.01976,-8.534649*78 
16.24881        IM300_RAW_NMEA       iM300           $CPNVR,171202.966,-0.084157,-0.098611,0,-1.098634,3.967288,-1.037598*4A 
16.34949        IM300_RAW_NMEA       iM300           $GNGGA,171201.40,4221.52118,N,07105.16391,W,1,12,0.67,3.7,M,-33.2,M,,*7C 
16.34958        IM300_RAW_NMEA       iM300           $GNVTG,203.41,T,,M,0.273,N,0.505,K,A*21 
16.34960        IM300_RAW_NMEA       iM300           $GNRMC,171201.40,A,4221.52118,N,07105.16391,W,0.273,203.41,110723,,,A*63 
16.34985        IM300_RAW_NMEA       iM300           $CPNVG,171203.031,4221.52119,N,7105.1639,W,1,0,0,90,nan,nan,171203.014*5F 
16.45057        IM300_RAW_NMEA       iM300           $CPNVR,171203.169,0.100112,-0.098498,0,0.854493,2.319338,0.427246*60 
16.55145        IM300_RAW_NMEA       iM300           $GNGGA,171201.60,4221.52117,N,07105.16392,W,1,12,0.67,3.7,M,-33.2,M,,*72 
16.55167        IM300_RAW_NMEA       iM300           $GNVTG,204.51,T,,M,0.240,N,0.445,K,A*22 
16.55169        IM300_RAW_NMEA       iM300           $GNRMC,171201.60,A,4221.52117,N,07105.16392,W,0.240,204.51,110723,,,A*6B 
16.55190        IM300_RAW_NMEA       iM300           $CPALT,171203.265,1*62 
16.55192        IM300_RAW_NMEA       iM300           $CPNVG,171203.231,4221.52118,N,7105.16391,W,1,0,0,90,nan,nan,171203.215*6E 
16.55198        IM300_RAW_NMEA       iM300           $CPIMU,171203.166,2.319338,0.854493,0.427246,-0.362871,-0.088023,-8.701713*5E 
16.65166        IM300_RAW_NMEA       iM300           $CPNVR,171203.370,-0.03725,-0.117713,0,4.69971,-5.065922,0.183106*6D 
16.75262        IM300_RAW_NMEA       iM300           $GNRMC,171201.80,A,4221.52115,N,07105.16392,W,0.219,,110723,,,A*77 
16.75311        IM300_RAW_NMEA       iM300           $CPIMU,171203.367,-5.065922,4.69971,0.183106,-0.264069,-0.156286,-8.752012*48 
16.85303        IM300_RAW_NMEA       iM300           $CPNVR,171203.573,nan,nan,0,-0.061035,-4.516605,-0.671387*67 
16.85319        IM300_RAW_NMEA       iM300           $CPNVG,171203.481,4221.52115,N,7105.16392,W,1,0,0,90,nan,nan,171203.471*69 
16.85328        IM300_RAW_NMEA       iM300           $CPRBS,171203.477,15.291422,15.291422,15.291422,0*74 
16.85335        IM300_RAW_NMEA       iM300           $GNGGA,171201.80,4221.52115,N,07105.16392,W,1,12,0.67,3.8,M,-33.2,M,,*71 
16.85355        IM300_RAW_NMEA       iM300           $GNVTG,,T,,M,0.219,N,0.406,K,A*35 
16.95328        IM300_RAW_NMEA       iM300           $GNRMC,171202.00,A,4221.52114,N,07105.16392,W,0.243,199.95,110723,,,A*61 
