2.97712         GPS_NMEA_FROM_GPS    iGPS            $GPGGA,165849.000,4221.4945,N,07105.3109,W,2,09,1.05,1.8,M,-33.7,M,0000,0000*55 
3.87957         GPS_NMEA_FROM_GPS    iGPS            $GPGGA,165850.000,4221.4945,N,07105.3109,W,2,09,1.05,1.8,M,-33.7,M,0000,0000*5D 
4.98217         GPS_NMEA_FROM_GPS    iGPS            $GPGGA,165851.000,4221.4945,N,07105.3109,W,2,09,1.05,1.8,M,-33.7,M,0000,0000*5C 
5.98478         GPS_NMEA_FROM_GPS    iGPS            $GPGSA,A,3,11,19,17,06,05,12,04,09,20,,,,1.95,1.05,1.64*09 
6.98688         GPS_NMEA_FROM_GPS    iGPS            $GPGSA,A,3,11,19,17,06,05,12,04,09,20,,,,1.95,1.05,1.64*09 
7.98914         GPS_NMEA_FROM_GPS    iGPS            $GPGSA,A,3,11,19,17,06,05,12,04,09,20,,,,1.95,1.05,1.64*09 
7.98914         GPS_NMEA_FROM_GPS    iGPS            $GPGSA,A,3,11,19,17,06,05,12,04,09,20,,,,1.95,1.05,1.64*09 
8.99138         GPS_NMEA_FROM_GPS    iGPS            $GPGGA,165855.000,4221.4945,N,07105.3109,W,2,09,1.05,1.8,M,-33.7,M,0000,0000*58 
9.99450         GPS_NMEA_FROM_GPS    iGPS            $GPGSA,A,3,11,19,17,06,05,12,04,09,20,,,,1.95,1.05,1.64*09 
10.99700        GPS_NMEA_FROM_GPS    iGPS            $GPGGA,165857.000,4221.4945,N,07105.3109,W,2,09,1.05,1.8,M,-33.7,M,0000,0000*5A 
10.99700        GPS_NMEA_FROM_GPS    iGPS            $GPGGA,165857.000,4221.4945,N,07105.3109,W,2,09,1.05,1.8,M,-33.7,M,0000,0000*5A 
12.00071        GPS_NMEA_FROM_GPS    iGPS            $GPGGA,165858.000,4221.4945,N,07105.3109,W,2,09,1.05,1.8,M,-33.7,M,0000,0000*55 
12.90318        GPS_NMEA_FROM_GPS    iGPS            $GPGGA,165859.000,4221.4945,N,07105.3109,W,2,09,1.05,1.8,M,-33.7,M,0000,0000*54 
13.90591        GPS_NMEA_FROM_GPS    iGPS            $GPGGA,165900.000,4221.4945,N,07105.3109,W,2,09,1.05,1.8,M,-33.7,M,0000,0000*59 
15.00852        GPS_NMEA_FROM_GPS    iGPS            $GPGSA,A,3,11,19,17,06,05,12,04,09,20,,,,1.95,1.05,1.65*08 
15.91111        GPS_NMEA_FROM_GPS    iGPS            $GPGGA,165902.000,4221.4945,N,07105.3109,W,2,09,1.05,1.8,M,-33.7,M,0000,0000*5B 
17.01447        GPS_NMEA_FROM_GPS    iGPS            $GPGSA,A,3,11,19,17,06,05,12,04,09,20,,,,1.95,1.05,1.65*08 
18.01695        GPS_NMEA_FROM_GPS    iGPS            $GPGSA,A,3,11,19,17,06,05,12,04,09,20,,,,1.95,1.05,1.65*08 
19.01910        GPS_NMEA_FROM_GPS    iGPS            $GPGSA,A,3,11,19,17,06,05,12,04,09,20,,,,1.95,1.05,1.65*08 
20.02150        GPS_NMEA_FROM_GPS    iGPS            $GPGSA,A,3,11,19,17,06,05,12,04,09,20,,,,1.95,1.05,1.65*08 
20.92377        GPS_NMEA_FROM_GPS    iGPS            $GPGGA,165907.000,4221.4945,N,07105.3109,W,2,09,1.05,1.7,M,-33.7,M,0000,0000*51 
21.92638        GPS_NMEA_FROM_GPS    iGPS            $GPGGA,165908.000,4221.4945,N,07105.3109,W,2,09,1.05,1.7,M,-33.7,M,0000,0000*5E 
23.02946        GPS_NMEA_FROM_GPS    iGPS            $GPGSA,A,3,11,19,17,06,05,12,04,09,20,,,,1.95,1.05,1.65*08 
24.03170        GPS_NMEA_FROM_GPS    iGPS            $GPGSA,A,3,11,19,17,06,05,12,04,09,20,,,,1.95,1.05,1.65*08 
24.93426        GPS_NMEA_FROM_GPS    iGPS            $GPGGA,165911.000,4221.4945,N,07105.3109,W,2,09,1.05,1.7,M,-33.7,M,0000,0000*56 
25.93714        GPS_NMEA_FROM_GPS    iGPS            $GPGGA,165912.000,4221.4945,N,07105.3109,W,2,09,1.05,1.7,M,-33.7,M,0000,0000*55 
26.94032        GPS_NMEA_FROM_GPS    iGPS            $GPGGA,165913.000,4221.4945,N,07105.3109,W,2,09,1.05,1.7,M,-33.7,M,0000,0000*54 
27.94335        GPS_NMEA_FROM_GPS    iGPS            $GPGSA,A,3,11,19,17,06,05,12,04,09,20,,,,1.95,1.05,1.65*08 
28.94558        GPS_NMEA_FROM_GPS    iGPS            $GPGGA,165915.000,4221.4944,N,07105.3109,W,2,09,1.05,1.7,M,-33.7,M,0000,0000*53 
29.94808        GPS_NMEA_FROM_GPS    iGPS            $GPGGA,165916.000,4221.4944,N,07105.3109,W,2,09,1.05,1.7,M,-33.7,M,0000,0000*50 
30.95047        GPS_NMEA_FROM_GPS    iGPS            $GPGGA,165917.000,4221.4944,N,07105.3109,W,2,09,1.05,1.7,M,-33.7,M,0000,0000*51 
32.05348        GPS_NMEA_FROM_GPS    iGPS            $GPGSA,A,3,11,19,17,06,05,12,04,09,20,,,,1.95,1.05,1.65*08 
32.95600        GPS_NMEA_FROM_GPS    iGPS            $GPGGA,165919.000,4221.4944,N,07105.3109,W,2,09,1.05,1.7,M,-33.7,M,0000,0000*5F 
33.95920        GPS_NMEA_FROM_GPS    iGPS            $GPGSA,A,3,11,19,17,06,05,12,04,09,20,,,,1.95,1.05,1.65*08 
34.96251        GPS_NMEA_FROM_GPS    iGPS            $GPGSA,A,3,11,19,17,06,05,12,04,09,20,,,,1.95,1.05,1.65*08 
35.96461        GPS_NMEA_FROM_GPS    iGPS            $GPGGA,165922.000,4221.4944,N,07105.3109,W,2,09,1.05,1.7,M,-33.7,M,0000,0000*57 
36.96773        GPS_NMEA_FROM_GPS    iGPS            $GPGSA,A,3,11,19,17,06,05,12,04,09,20,,,,1.95,1.05,1.65*08 
37.97053        GPS_NMEA_FROM_GPS    iGPS            $GPGGA,165924.000,4221.4944,N,07105.3109,W,2,09,1.05,1.8,M,-33.7,M,0000,0000*5E 
38.97389        GPS_NMEA_FROM_GPS    iGPS            $GPGGA,165925.000,4221.4944,N,07105.3109,W,2,09,1.05,1.8,M,-33.7,M,0000,0000*5F 
39.97589        GPS_NMEA_FROM_GPS    iGPS            $GPGGA,165926.000,4221.4944,N,07105.3110,W,2,09,1.05,1.8,M,-33.7,M,0000,0000*54 
40.97875        GPS_NMEA_FROM_GPS    iGPS            $GPGGA,165927.000,4221.4944,N,07105.3110,W,2,09,1.05,1.8,M,-33.7,M,0000,0000*55 
41.98206        GPS_NMEA_FROM_GPS    iGPS            $GPGSA,A,3,11,19,17,06,05,12,04,09,20,,,,1.96,1.05,1.65*0B 
42.88468        GPS_NMEA_FROM_GPS    iGPS            $GPGGA,165929.000,4221.4944,N,07105.3110,W,2,09,1.05,1.8,M,-33.7,M,0000,0000*5B 
43.98740        GPS_NMEA_FROM_GPS    iGPS            $GPGGA,165930.000,4221.4944,N,07105.3110,W,2,09,1.05,1.7,M,-33.7,M,0000,0000*5C 
44.98981        GPS_NMEA_FROM_GPS    iGPS            $GPGGA,165931.000,4221.4944,N,07105.3110,W,2,09,1.05,1.7,M,-33.7,M,0000,0000*5D 
45.99260        GPS_NMEA_FROM_GPS    iGPS            $GPGSA,A,3,11,19,17,06,05,12,04,09,20,,,,1.96,1.05,1.65*0B 
46.99560        GPS_NMEA_FROM_GPS    iGPS            $GPGGA,165933.000,4221.4944,N,07105.3110,W,2,09,1.05,1.8,M,-33.7,M,0000,0000*50 
47.89854        GPS_NMEA_FROM_GPS    iGPS            $GPGGA,165934.000,4221.4944,N,07105.3110,W,2,09,1.05,1.8,M,-33.7,M,0000,0000*57 
49.00161        GPS_NMEA_FROM_GPS    iGPS            $GPGSA,A,3,11,19,17,06,05,12,04,09,20,,,,1.96,1.05,1.65*0B 
49.90470        GPS_NMEA_FROM_GPS    iGPS            $GPGGA,165936.000,4221.4944,N,07105.3110,W,2,09,1.05,1.8,M,-33.7,M,0000,0000*55 
50.90804        GPS_NMEA_FROM_GPS    iGPS            $GPGGA,165937.000,4221.4944,N,07105.3110,W,2,09,1.05,1.8,M,-33.7,M,0000,0000*54 
52.01184        GPS_NMEA_FROM_GPS    iGPS            $GPGSA,A,3,11,19,17,06,05,12,04,09,20,,,,1.96,1.05,1.65*0B 
53.01537        GPS_NMEA_FROM_GPS    iGPS            $GPGSA,A,3,11,19,17,06,05,12,04,09,20,,,,1.96,1.05,1.65*0B 
54.01894        GPS_NMEA_FROM_GPS    iGPS            $GPGSA,A,3,11,19,17,06,05,12,04,09,20,,,,1.96,1.05,1.65*0B 
54.92192        GPS_NMEA_FROM_GPS    iGPS            $GPGGA,165941.000,4221.4944,N,07105.3110,W,2,09,1.05,1.8,M,-33.7,M,0000,0000*55 
55.92507        GPS_NMEA_FROM_GPS    iGPS            $GPGGA,165942.000,4221.4944,N,07105.3110,W,2,09,1.05,1.8,M,-33.7,M,0000,0000*56 
57.02759        GPS_NMEA_FROM_GPS    iGPS            $GPGSA,A,3,11,19,17,06,05,12,04,09,20,,,,1.96,1.05,1.65*0B 
57.92984        GPS_NMEA_FROM_GPS    iGPS            $GPGGA,165944.000,4221.4944,N,07105.3110,W,2,09,1.05,1.8,M,-33.7,M,0000,0000*50 
58.93227        GPS_NMEA_FROM_GPS    iGPS            $GPGGA,165945.000,4221.4944,N,07105.3110,W,2,09,1.05,1.8,M,-33.7,M,0000,0000*51 
59.93517        GPS_NMEA_FROM_GPS    iGPS            $GPGGA,165946.000,4221.4944,N,07105.3110,W,2,09,1.05,1.8,M,-33.7,M,0000,0000*52 
60.93798        GPS_NMEA_FROM_GPS    iGPS            $GPGGA,165947.000,4221.4944,N,07105.3110,W,2,09,1.05,1.8,M,-33.7,M,0000,0000*53 
61.94109        GPS_NMEA_FROM_GPS    iGPS            $GPGGA,165948.000,4221.4944,N,07105.3110,W,2,09,1.05,1.8,M,-33.7,M,0000,0000*5C 
62.94373        GPS_NMEA_FROM_GPS    iGPS            $GPGGA,165949.000,4221.4944,N,07105.3110,W,2,09,1.05,1.8,M,-33.7,M,0000,0000*5D 
63.94666        GPS_NMEA_FROM_GPS    iGPS            $GPGGA,165950.000,4221.4944,N,07105.3110,W,2,09,1.05,1.8,M,-33.7,M,0000,0000*55 
64.94952        GPS_NMEA_FROM_GPS    iGPS            $GPGGA,165951.000,4221.4944,N,07105.3110,W,2,09,1.05,1.7,M,-33.7,M,0000,0000*5B 
65.95233        GPS_NMEA_FROM_GPS    iGPS            $GPGGA,165952.000,4221.4944,N,07105.3110,W,2,09,1.05,1.7,M,-33.7,M,0000,0000*58 
66.95546        GPS_NMEA_FROM_GPS    iGPS            $GPGSA,A,3,11,19,17,06,05,12,04,09,20,,,,1.96,1.05,1.65*0B 
67.95838        GPS_NMEA_FROM_GPS    iGPS            $GPGGA,165954.000,4221.4943,N,07105.3110,W,2,09,1.05,1.8,M,-33.7,M,0000,0000*56 
68.96102        GPS_NMEA_FROM_GPS    iGPS            $GPGGA,165955.000,4221.4943,N,07105.3110,W,2,09,1.05,1.8,M,-33.7,M,0000,0000*57 
69.96341        GPS_NMEA_FROM_GPS    iGPS            $GPGGA,165956.000,4221.4943,N,07105.3110,W,2,10,0.84,1.8,M,-33.7,M,0000,0000*54 
70.96586        GPS_NMEA_FROM_GPS    iGPS            $GPGSA,A,3,11,19,17,06,05,12,04,09,20,,,,1.96,1.05,1.65*0B 
71.96897        GPS_NMEA_FROM_GPS    iGPS            $GPGSA,A,3,11,19,17,06,05,12,04,09,20,,,,1.96,1.05,1.65*0B 
72.97186        GPS_NMEA_FROM_GPS    iGPS            $GPGGA,165959.000,4221.4943,N,07105.3110,W,2,09,1.05,1.7,M,-33.7,M,0000,0000*54 
73.97503        GPS_NMEA_FROM_GPS    iGPS            $GPGGA,170000.000,4221.4943,N,07105.3110,W,2,09,1.05,1.7,M,-33.7,M,0000,0000*55 
74.97781        GPS_NMEA_FROM_GPS    iGPS            $GPGGA,170001.000,4221.4943,N,07105.3110,W,2,09,1.05,1.7,M,-33.7,M,0000,0000*54 
75.98102        GPS_NMEA_FROM_GPS    iGPS            $GPGSA,A,3,11,19,17,06,05,12,04,09,20,,,,1.96,1.05,1.65*0B 
76.88397        GPS_NMEA_FROM_GPS    iGPS            $GPGGA,170003.000,4221.4943,N,07105.3110,W,2,09,1.05,1.7,M,-33.7,M,0000,0000*56 
77.98724        GPS_NMEA_FROM_GPS    iGPS            $GPGGA,170004.000,4221.4943,N,07105.3110,W,2,09,1.05,1.7,M,-33.7,M,0000,0000*51 
78.89019        GPS_NMEA_FROM_GPS    iGPS            $GPGGA,170005.000,4221.4943,N,07105.3110,W,2,09,1.05,1.7,M,-33.7,M,0000,0000*50 
79.89331        GPS_NMEA_FROM_GPS    iGPS            $GPGGA,170006.000,4221.4943,N,07105.3110,W,2,09,1.05,1.7,M,-33.7,M,0000,0000*53 
80.99619        GPS_NMEA_FROM_GPS    iGPS            $GPGGA,170007.000,4221.4943,N,07105.3111,W,2,09,1.05,1.7,M,-33.7,M,0000,0000*53 
81.89906        GPS_NMEA_FROM_GPS    iGPS            $GPGGA,170008.000,4221.4943,N,07105.3111,W,2,09,1.05,1.7,M,-33.7,M,0000,0000*5C 
83.00129        GPS_NMEA_FROM_GPS    iGPS            $GPGGA,170009.000,4221.4943,N,07105.3111,W,2,10,0.84,1.7,M,-33.7,M,0000,0000*5D 
84.00398        GPS_NMEA_FROM_GPS    iGPS            $GPGGA,170010.000,4221.4943,N,07105.3111,W,2,10,0.84,1.7,M,-33.7,M,0000,0000*55 
