3.26423         GPS_NMEA_FROM_GPS    iGPS            $GPGSA,A,3,13,12,29,11,25,15,06,20,09,05,,,1.11,0.84,0.73*0A 
4.16630         GPS_NMEA_FROM_GPS    iGPS            $GPGGA,174404.000,4221.5122,N,07105.2337,W,2,10,0.84,3.0,M,-33.7,M,0000,0000*5C 
4.16630         GPS_NMEA_FROM_GPS    iGPS            $GPGGA,174404.000,4221.5122,N,07105.2337,W,2,10,0.84,3.0,M,-33.7,M,0000,0000*5C 
5.26827         GPS_NMEA_FROM_GPS    iGPS            $GPGSA,A,3,13,12,29,11,25,15,06,20,09,05,,,1.11,0.84,0.73*0A 
6.27087         GPS_NMEA_FROM_GPS    iGPS            $GPGSA,A,3,13,12,29,11,25,15,06,20,09,05,,,1.11,0.84,0.73*0A 
6.27087         GPS_NMEA_FROM_GPS    iGPS            $GPGSA,A,3,13,12,29,11,25,15,06,20,09,05,,,1.11,0.84,0.73*0A 
7.17304         GPS_NMEA_FROM_GPS    iGPS            $GPGGA,174407.000,4221.5125,N,07105.2334,W,2,10,0.84,3.0,M,-33.7,M,0000,0000*5B 
8.27507         GPS_NMEA_FROM_GPS    iGPS            $GPGGA,174408.000,4221.5126,N,07105.2333,W,2,10,0.84,3.0,M,-33.7,M,0000,0000*50 
8.27507         GPS_NMEA_FROM_GPS    iGPS            $GPGGA,174408.000,4221.5126,N,07105.2333,W,2,10,0.84,3.0,M,-33.7,M,0000,0000*50 
9.28291         GPS_NMEA_FROM_GPS    iGPS            $GPGSA,A,3,13,12,29,11,25,15,06,20,09,05,,,1.11,0.84,0.73*0A 
10.28588        GPS_NMEA_FROM_GPS    iGPS            $GPGSA,A,3,13,12,29,11,25,15,06,20,09,05,,,1.11,0.84,0.73*0A 
11.28769        GPS_NMEA_FROM_GPS    iGPS            $GPGSA,A,3,13,12,29,11,25,15,06,20,09,05,,,1.11,0.84,0.73*0A 
11.28769        GPS_NMEA_FROM_GPS    iGPS            $GPGSA,A,3,13,12,29,11,25,15,06,20,09,05,,,1.11,0.84,0.73*0A 
12.28947        GPS_NMEA_FROM_GPS    iGPS            $GPGSA,A,3,13,12,29,11,25,15,06,20,09,05,,,1.38,0.86,1.08*0E 
13.29140        GPS_NMEA_FROM_GPS    iGPS            $GPGSA,A,3,13,12,29,11,25,15,06,20,09,05,,,1.11,0.84,0.73*0A 
13.29140        GPS_NMEA_FROM_GPS    iGPS            $GPGSA,A,3,13,12,29,11,25,15,06,20,09,05,,,1.11,0.84,0.73*0A 
14.29371        GPS_NMEA_FROM_GPS    iGPS            $GPGSA,A,3,13,12,29,11,25,15,06,20,09,05,,,1.11,0.84,0.73*0A 
15.19554        GPS_NMEA_FROM_GPS    iGPS            $GPGGA,174415.000,4221.5123,N,07105.2328,W,2,10,0.85,3.2,M,-33.7,M,0000,0000*50 
15.19554        GPS_NMEA_FROM_GPS    iGPS            $GPGGA,174415.000,4221.5123,N,07105.2328,W,2,10,0.85,3.2,M,-33.7,M,0000,0000*50 
16.19739        GPS_NMEA_FROM_GPS    iGPS            $GPGGA,174416.000,4221.5123,N,07105.2328,W,2,10,0.84,3.2,M,-33.7,M,0000,0000*52 
17.19949        GPS_NMEA_FROM_GPS    iGPS            $GPGGA,174417.000,4221.5123,N,07105.2328,W,2,10,0.84,3.2,M,-33.7,M,0000,0000*53 
18.20196        GPS_NMEA_FROM_GPS    iGPS            $GPGGA,174418.000,4221.5123,N,07105.2328,W,2,10,0.84,3.2,M,-33.7,M,0000,0000*5C 
19.20481        GPS_NMEA_FROM_GPS    iGPS            $GPGGA,174419.000,4221.5123,N,07105.2327,W,2,10,0.84,3.2,M,-33.7,M,0000,0000*52 
20.20768        GPS_NMEA_FROM_GPS    iGPS            $GPGGA,174420.000,4221.5123,N,07105.2327,W,2,10,0.84,3.2,M,-33.7,M,0000,0000*58 
21.21045        GPS_NMEA_FROM_GPS    iGPS            $GPGGA,174421.000,4221.5123,N,07105.2326,W,2,10,0.84,3.2,M,-33.7,M,0000,0000*58 
22.21328        GPS_NMEA_FROM_GPS    iGPS            $GPGGA,174422.000,4221.5123,N,07105.2325,W,2,10,0.84,3.2,M,-33.7,M,0000,0000*58 
23.21636        GPS_NMEA_FROM_GPS    iGPS            $GPGGA,174423.000,4221.5123,N,07105.2324,W,2,10,0.84,3.2,M,-33.7,M,0000,0000*58 
23.21636        GPS_NMEA_FROM_GPS    iGPS            $GPGGA,174423.000,4221.5123,N,07105.2324,W,2,10,0.84,3.2,M,-33.7,M,0000,0000*58 
24.21925        GPS_NMEA_FROM_GPS    iGPS            $GPGGA,174424.000,4221.5124,N,07105.2322,W,2,10,0.84,3.2,M,-33.7,M,0000,0000*5E 
25.22223        GPS_NMEA_FROM_GPS    iGPS            $GPGGA,174425.000,4221.5124,N,07105.2321,W,2,10,0.84,3.2,M,-33.7,M,0000,0000*5C 
26.22422        GPS_NMEA_FROM_GPS    iGPS            $GPGGA,174426.000,4221.5124,N,07105.2319,W,2,10,0.84,3.2,M,-33.7,M,0000,0000*54 
27.22604        GPS_NMEA_FROM_GPS    iGPS            $GPGGA,174427.000,4221.5123,N,07105.2318,W,2,10,0.84,3.2,M,-33.7,M,0000,0000*53 
28.22812        GPS_NMEA_FROM_GPS    iGPS            $GPGGA,174428.000,4221.5123,N,07105.2317,W,2,10,0.84,3.2,M,-33.7,M,0000,0000*53 
29.23024        GPS_NMEA_FROM_GPS    iGPS            $GPGGA,174429.000,4221.5123,N,07105.2316,W,2,10,0.84,3.2,M,-33.7,M,0000,0000*53 
30.23212        GPS_NMEA_FROM_GPS    iGPS            $GPGGA,174430.000,4221.5123,N,07105.2316,W,2,10,0.84,3.2,M,-33.7,M,0000,0000*5B 
31.23392        GPS_NMEA_FROM_GPS    iGPS            $GPGGA,174431.000,4221.5121,N,07105.2316,W,2,10,0.84,3.2,M,-33.7,M,0000,0000*58 
32.23578        GPS_NMEA_FROM_GPS    iGPS            $GPGGA,174432.000,4221.5120,N,07105.2317,W,2,10,0.84,3.2,M,-33.7,M,0000,0000*5B 
33.23764        GPS_NMEA_FROM_GPS    iGPS            $GPGGA,174433.000,4221.5119,N,07105.2318,W,2,10,0.84,3.2,M,-33.7,M,0000,0000*5F 
34.14104        GPS_NMEA_FROM_GPS    iGPS            $GPGGA,174434.000,4221.5118,N,07105.2319,W,2,11,0.80,3.2,M,-33.7,M,0000,0000*5D 
35.14300        GPS_NMEA_FROM_GPS    iGPS            $GPGGA,174435.000,4221.5117,N,07105.2320,W,2,11,0.80,3.2,M,-33.7,M,0000,0000*59 
36.24519        GPS_NMEA_FROM_GPS    iGPS            $GPGGA,174436.000,4221.5115,N,07105.2321,W,2,11,0.80,3.2,M,-33.7,M,0000,0000*59 
37.24711        GPS_NMEA_FROM_GPS    iGPS            $GPGSA,A,3,13,12,29,07,11,25,15,06,20,09,05,,1.06,0.80,0.70*0C 
38.24903        GPS_NMEA_FROM_GPS    iGPS            $GPGGA,174438.000,4221.5108,N,07105.2327,W,2,11,0.80,3.1,M,-33.7,M,0000,0000*5E 
39.25105        GPS_NMEA_FROM_GPS    iGPS            $GPGGA,174439.000,4221.5104,N,07105.2329,W,2,11,0.80,3.1,M,-33.7,M,0000,0000*5D 
40.15282        GPS_NMEA_FROM_GPS    iGPS            $GPGGA,174440.000,4221.5103,N,07105.2332,W,2,11,0.80,3.0,M,-33.7,M,0000,0000*5F 
41.25490        GPS_NMEA_FROM_GPS    iGPS            $GPGSA,A,3,13,12,29,07,11,25,15,06,20,09,05,,1.06,0.80,0.70*0C 
42.25764        GPS_NMEA_FROM_GPS    iGPS            $GPGSA,A,3,13,12,29,07,11,25,15,06,20,09,05,,1.06,0.80,0.70*0C 
43.15929        GPS_NMEA_FROM_GPS    iGPS            $GPGGA,174443.000,4221.5090,N,07105.2336,W,2,11,0.80,2.7,M,-33.7,M,0000,0000*55 
43.15929        GPS_NMEA_FROM_GPS    iGPS            $GPGGA,174443.000,4221.5090,N,07105.2336,W,2,11,0.80,2.7,M,-33.7,M,0000,0000*55 
44.16130        GPS_NMEA_FROM_GPS    iGPS            $GPGGA,174444.000,4221.5089,N,07105.2338,W,2,11,0.80,2.6,M,-33.7,M,0000,0000*55 
45.26336        GPS_NMEA_FROM_GPS    iGPS            $GPGSA,A,3,13,12,29,07,11,25,15,06,20,09,05,,1.06,0.80,0.70*0C 
46.16590        GPS_NMEA_FROM_GPS    iGPS            $GPGGA,174446.000,4221.5085,N,07105.2344,W,2,11,0.80,2.3,M,-33.7,M,0000,0000*55 
47.17142        GPS_NMEA_FROM_GPS    iGPS            $GPGGA,174447.000,4221.5085,N,07105.2347,W,2,11,0.80,2.2,M,-33.7,M,0000,0000*56 
48.27418        GPS_NMEA_FROM_GPS    iGPS            $GPGSA,A,3,13,12,29,07,11,25,15,06,20,09,05,,1.06,0.80,0.70*0C 
49.27631        GPS_NMEA_FROM_GPS    iGPS            $GPGSA,A,3,13,12,29,07,11,25,15,06,20,09,05,,1.06,0.80,0.70*0C 
50.27835        GPS_NMEA_FROM_GPS    iGPS            $GPGSA,A,3,13,12,29,07,11,25,15,06,20,09,05,,1.06,0.80,0.70*0C 
51.28073        GPS_NMEA_FROM_GPS    iGPS            $GPGSA,A,3,13,12,29,07,11,25,15,06,20,09,05,,1.06,0.80,0.70*0C 
52.28254        GPS_NMEA_FROM_GPS    iGPS            $GPGSA,A,3,13,12,29,07,11,25,15,06,20,09,05,,1.06,0.80,0.70*0C 
53.28455        GPS_NMEA_FROM_GPS    iGPS            $GPGSA,A,3,13,12,29,07,11,25,15,06,20,09,05,,1.06,0.80,0.70*0C 
54.18636        GPS_NMEA_FROM_GPS    iGPS            $GPGSA,A,3,13,12,29,07,11,25,15,06,20,09,05,,1.06,0.80,0.70*0C 
55.18913        GPS_NMEA_FROM_GPS    iGPS            $GPGGA,174455.000,4221.5074,N,07105.2365,W,2,11,0.80,0.9,M,-33.7,M,0000,0000*52 
56.19096        GPS_NMEA_FROM_GPS    iGPS            $GPGGA,174456.000,4221.5072,N,07105.2367,W,2,11,0.80,0.6,M,-33.7,M,0000,0000*5A 
57.19289        GPS_NMEA_FROM_GPS    iGPS            $GPGGA,174457.000,4221.5071,N,07105.2369,W,2,11,0.80,0.5,M,-33.7,M,0000,0000*55 
58.19500        GPS_NMEA_FROM_GPS    iGPS            $GPGSA,A,3,13,12,29,07,11,25,15,06,20,05,,,1.16,0.89,0.75*08 
59.19705        GPS_NMEA_FROM_GPS    iGPS            $GPGGA,174459.000,4221.5068,N,07105.2372,W,2,11,0.80,0.3,M,-33.7,M,0000,0000*5F 
60.29948        GPS_NMEA_FROM_GPS    iGPS            $GPGSA,A,3,13,12,29,07,11,25,15,06,20,05,,,1.16,0.89,0.75*08 
61.20115        GPS_NMEA_FROM_GPS    iGPS            $GPGGA,174501.000,4221.5065,N,07105.2376,W,2,10,0.89,0.0,M,-33.7,M,0000,0000*51 
62.20302        GPS_NMEA_FROM_GPS    iGPS            $GPGSA,A,3,13,12,29,07,11,25,15,06,20,05,,,1.16,0.89,0.75*08 
63.20483        GPS_NMEA_FROM_GPS    iGPS            $GPGGA,174503.000,4221.5063,N,07105.2379,W,2,10,0.89,-0.2,M,-33.7,M,0000,0000*75 
64.20702        GPS_NMEA_FROM_GPS    iGPS            $GPGSA,A,3,13,12,29,07,11,25,15,06,20,05,,,1.16,0.89,0.75*08 
65.20914        GPS_NMEA_FROM_GPS    iGPS            $GPGSA,A,3,13,12,29,07,11,25,15,06,20,05,,,1.16,0.89,0.75*08 
66.11081        GPS_NMEA_FROM_GPS    iGPS            $GPGGA,174506.000,4221.5057,N,07105.2381,W,2,10,0.89,-0.4,M,-33.7,M,0000,0000*76 
67.21278        GPS_NMEA_FROM_GPS    iGPS            $GPGGA,174507.000,4221.5057,N,07105.2382,W,2,10,0.89,-0.4,M,-33.7,M,0000,0000*74 
68.21463        GPS_NMEA_FROM_GPS    iGPS            $GPGSA,A,3,13,12,29,07,11,25,15,06,20,05,,,1.16,0.89,0.75*08 
69.21676        GPS_NMEA_FROM_GPS    iGPS            $GPGGA,174509.000,4221.5056,N,07105.2384,W,2,10,0.89,-0.4,M,-33.7,M,0000,0000*7D 
70.21855        GPS_NMEA_FROM_GPS    iGPS            $GPGGA,174510.000,4221.5056,N,07105.2384,W,2,11,0.80,-0.5,M,-33.7,M,0000,0000*7C 
71.22210        GPS_NMEA_FROM_GPS    iGPS            $GPGGA,174511.000,4221.5055,N,07105.2385,W,2,11,0.80,-0.5,M,-33.7,M,0000,0000*7F 
72.22289        GPS_NMEA_FROM_GPS    iGPS            $GPGGA,174512.000,4221.5055,N,07105.2385,W,2,10,0.89,-0.5,M,-33.7,M,0000,0000*74 
73.22496        GPS_NMEA_FROM_GPS    iGPS            $GPGGA,174513.000,4221.5055,N,07105.2385,W,2,10,0.89,-0.5,M,-33.7,M,0000,0000*75 
74.22693        GPS_NMEA_FROM_GPS    iGPS            $GPGSA,A,3,13,12,29,07,11,25,15,06,20,05,,,1.46,0.94,1.12*01 
75.22876        GPS_NMEA_FROM_GPS    iGPS            $GPGSA,A,3,13,12,29,07,11,25,15,06,20,05,,,1.16,0.89,0.75*08 
76.23056        GPS_NMEA_FROM_GPS    iGPS            $GPGSA,A,3,13,12,29,07,11,25,15,06,20,05,,,1.16,0.89,0.75*08 
77.13223        GPS_NMEA_FROM_GPS    iGPS            $GPGGA,174517.000,4221.5056,N,07105.2387,W,2,10,0.89,-0.5,M,-33.7,M,0000,0000*70 
78.23419        GPS_NMEA_FROM_GPS    iGPS            $GPGGA,174518.000,4221.5055,N,07105.2389,W,2,10,0.89,-0.5,M,-33.7,M,0000,0000*72 
79.23622        GPS_NMEA_FROM_GPS    iGPS            $GPGSA,A,3,13,12,29,07,11,25,15,06,20,05,,,1.16,0.89,0.75*08 
80.13804        GPS_NMEA_FROM_GPS    iGPS            $GPGGA,174520.000,4221.5053,N,07105.2397,W,2,11,0.80,-0.6,M,-33.7,M,0000,0000*7B 
81.24018        GPS_NMEA_FROM_GPS    iGPS            $GPGGA,174521.000,4221.5053,N,07105.2400,W,2,10,0.89,-0.6,M,-33.7,M,0000,0000*7B 
82.24251        GPS_NMEA_FROM_GPS    iGPS            $GPGSA,A,3,13,12,29,07,11,25,15,06,20,05,,,1.16,0.89,0.75*08 
83.14432        GPS_NMEA_FROM_GPS    iGPS            $GPGGA,174523.000,4221.5050,N,07105.2408,W,2,10,0.89,-0.7,M,-33.7,M,0000,0000*73 
84.24646        GPS_NMEA_FROM_GPS    iGPS            $GPGGA,174524.000,4221.5048,N,07105.2413,W,2,10,0.89,-0.7,M,-33.7,M,0000,0000*77 
85.14825        GPS_NMEA_FROM_GPS    iGPS            $GPGGA,174525.000,4221.5049,N,07105.2419,W,2,10,0.89,-0.7,M,-33.7,M,0000,0000*7D 
86.15326        GPS_NMEA_FROM_GPS    iGPS            $GPGGA,174526.000,4221.5048,N,07105.2426,W,2,10,0.89,-0.7,M,-33.7,M,0000,0000*73 
87.15519        GPS_NMEA_FROM_GPS    iGPS            $GPGGA,174527.000,4221.5050,N,07105.2432,W,2,10,0.89,-0.7,M,-33.7,M,0000,0000*7E 
88.15702        GPS_NMEA_FROM_GPS    iGPS            $GPGGA,174528.000,4221.5049,N,07105.2434,W,2,10,0.89,-0.7,M,-33.7,M,0000,0000*7F 
89.16104        GPS_NMEA_FROM_GPS    iGPS            $GPGGA,174529.000,4221.5048,N,07105.2438,W,2,10,0.89,-0.8,M,-33.7,M,0000,0000*7C 
90.26345        GPS_NMEA_FROM_GPS    iGPS            $GPGSA,A,3,13,12,29,07,11,25,15,06,20,05,,,1.16,0.89,0.75*08 
91.16518        GPS_NMEA_FROM_GPS    iGPS            $GPGGA,174531.000,4221.5047,N,07105.2446,W,2,10,0.89,-0.8,M,-33.7,M,0000,0000*73 
92.26715        GPS_NMEA_FROM_GPS    iGPS            $GPGSA,A,3,13,12,29,07,11,25,15,06,20,05,,,1.16,0.89,0.75*08 
93.16899        GPS_NMEA_FROM_GPS    iGPS            $GPGGA,174533.000,4221.5041,N,07105.2454,W,2,10,0.89,-1.0,M,-33.7,M,0000,0000*7D 
94.27113        GPS_NMEA_FROM_GPS    iGPS            $GPGSA,A,3,13,12,29,07,11,25,15,06,20,05,,,1.16,0.89,0.75*08 
95.27314        GPS_NMEA_FROM_GPS    iGPS            $GPGSA,A,3,13,12,29,07,11,25,15,06,20,05,,,1.16,0.89,0.75*08 
96.17493        GPS_NMEA_FROM_GPS    iGPS            $GPGGA,174536.000,4221.5037,N,07105.2469,W,2,10,0.89,-1.1,M,-33.7,M,0000,0000*76 
97.27717        GPS_NMEA_FROM_GPS    iGPS            $GPGSA,A,3,13,12,29,07,11,25,15,06,20,05,,,1.16,0.89,0.75*08 
98.27897        GPS_NMEA_FROM_GPS    iGPS            $GPGSA,A,3,13,12,29,07,11,25,15,06,20,05,,,1.16,0.89,0.75*08 
99.28108        GPS_NMEA_FROM_GPS    iGPS            $GPGSA,A,3,13,12,29,07,11,25,15,06,20,05,,,1.16,0.89,0.75*08 
100.18278       GPS_NMEA_FROM_GPS    iGPS            $GPGGA,174540.000,4221.5033,N,07105.2487,W,2,10,0.89,-1.2,M,-33.7,M,0000,0000*70 
101.18461       GPS_NMEA_FROM_GPS    iGPS            $GPGGA,174541.000,4221.5033,N,07105.2491,W,2,10,0.89,-1.2,M,-33.7,M,0000,0000*76 
102.18649       GPS_NMEA_FROM_GPS    iGPS            $GPGGA,174542.000,4221.5033,N,07105.2495,W,2,10,0.89,-1.2,M,-33.7,M,0000,0000*71 
103.18849       GPS_NMEA_FROM_GPS    iGPS            $GPGSA,A,3,13,12,29,07,11,25,15,06,20,05,,,1.16,0.89,0.75*08 
104.19121       GPS_NMEA_FROM_GPS    iGPS            $GPGGA,174544.000,4221.5031,N,07105.2496,W,2,10,0.89,-1.2,M,-33.7,M,0000,0000*76 
105.19318       GPS_NMEA_FROM_GPS    iGPS            $GPGGA,174545.000,4221.5031,N,07105.2499,W,2,10,0.89,-1.1,M,-33.7,M,0000,0000*7B 
106.19518       GPS_NMEA_FROM_GPS    iGPS            $GPGGA,174546.000,4221.5030,N,07105.2502,W,2,10,0.89,-1.1,M,-33.7,M,0000,0000*7A 
107.19740       GPS_NMEA_FROM_GPS    iGPS            $GPGSA,A,3,13,12,29,07,11,25,15,06,20,05,,,1.16,0.89,0.75*08 
108.19921       GPS_NMEA_FROM_GPS    iGPS            $GPGGA,174548.000,4221.5028,N,07105.2508,W,2,10,0.89,-1.1,M,-33.7,M,0000,0000*77 
109.20127       GPS_NMEA_FROM_GPS    iGPS            $GPGGA,174549.000,4221.5028,N,07105.2507,W,2,10,0.89,-1.0,M,-33.7,M,0000,0000*78 
110.20311       GPS_NMEA_FROM_GPS    iGPS            $GPGGA,174550.000,4221.5029,N,07105.2506,W,2,10,0.89,-0.9,M,-33.7,M,0000,0000*78 
111.20500       GPS_NMEA_FROM_GPS    iGPS            $GPGGA,174551.000,4221.5029,N,07105.2506,W,2,10,0.89,-0.9,M,-33.7,M,0000,0000*79 
112.20690       GPS_NMEA_FROM_GPS    iGPS            $GPGSA,A,3,13,12,29,07,11,25,15,06,20,05,,,1.16,0.89,0.75*08 
113.20881       GPS_NMEA_FROM_GPS    iGPS            $GPGGA,174553.000,4221.5029,N,07105.2509,W,2,10,0.89,-0.9,M,-33.7,M,0000,0000*74 
114.21084       GPS_NMEA_FROM_GPS    iGPS            $GPGSA,A,3,13,12,29,07,11,25,15,06,20,05,,,1.16,0.89,0.75*08 
115.21273       GPS_NMEA_FROM_GPS    iGPS            $GPGGA,174555.000,4221.5028,N,07105.2509,W,2,10,0.89,-0.9,M,-33.7,M,0000,0000*73 
116.21673       GPS_NMEA_FROM_GPS    iGPS            $GPGGA,174556.000,4221.5027,N,07105.2508,W,2,10,0.89,-0.9,M,-33.7,M,0000,0000*7E 
117.21846       GPS_NMEA_FROM_GPS    iGPS            $GPGGA,174557.000,4221.5026,N,07105.2508,W,2,10,0.89,-0.9,M,-33.7,M,0000,0000*7E 
118.22032       GPS_NMEA_FROM_GPS    iGPS            $GPGGA,174558.000,4221.5026,N,07105.2507,W,2,10,0.89,-0.9,M,-33.7,M,0000,0000*7E 
119.22232       GPS_NMEA_FROM_GPS    iGPS            $GPGGA,174559.000,4221.5025,N,07105.2507,W,2,10,0.89,-0.9,M,-33.7,M,0000,0000*7C 
120.22426       GPS_NMEA_FROM_GPS    iGPS            $GPGSA,A,3,13,12,29,07,11,25,15,06,20,05,,,1.16,0.89,0.75*08 
121.22615       GPS_NMEA_FROM_GPS    iGPS            $GPGGA,174601.000,4221.5024,N,07105.2507,W,2,10,0.89,-0.9,M,-33.7,M,0000,0000*73 
122.22806       GPS_NMEA_FROM_GPS    iGPS            $GPGGA,174602.000,4221.5023,N,07105.2507,W,2,10,0.89,-0.9,M,-33.7,M,0000,0000*77 
123.22993       GPS_NMEA_FROM_GPS    iGPS            $GPGGA,174603.000,4221.5023,N,07105.2508,W,2,10,0.89,-0.9,M,-33.7,M,0000,0000*79 
124.13202       GPS_NMEA_FROM_GPS    iGPS            $GPGGA,174604.000,4221.5023,N,07105.2508,W,2,10,0.89,-0.9,M,-33.7,M,0000,0000*7E 
125.23397       GPS_NMEA_FROM_GPS    iGPS            $GPGSA,A,3,13,12,29,07,11,25,15,06,20,05,,,1.16,0.89,0.75*08 
126.23615       GPS_NMEA_FROM_GPS    iGPS            $GPGSA,A,3,13,12,29,07,11,25,15,06,20,05,,,1.16,0.89,0.75*08 
127.24208       GPS_NMEA_FROM_GPS    iGPS            $GPGSA,A,3,13,12,29,07,11,25,15,06,20,05,,,1.16,0.89,0.75*08 
128.14369       GPS_NMEA_FROM_GPS    iGPS            $GPGGA,174608.000,4221.5021,N,07105.2505,W,2,10,0.89,-0.9,M,-33.7,M,0000,0000*7D 
128.14369       GPS_NMEA_FROM_GPS    iGPS            $GPGGA,174608.000,4221.5021,N,07105.2505,W,2,10,0.89,-0.9,M,-33.7,M,0000,0000*7D 
129.24592       GPS_NMEA_FROM_GPS    iGPS            $GPGGA,174609.000,4221.5020,N,07105.2504,W,2,10,0.89,-0.9,M,-33.7,M,0000,0000*7C 
129.24592       GPS_NMEA_FROM_GPS    iGPS            $GPGGA,174609.000,4221.5020,N,07105.2504,W,2,10,0.89,-0.9,M,-33.7,M,0000,0000*7C 
130.25269       GPS_NMEA_FROM_GPS    iGPS            $GPGGA,174610.000,4221.5020,N,07105.2503,W,2,10,0.89,-0.9,M,-33.7,M,0000,0000*73 
131.15511       GPS_NMEA_FROM_GPS    iGPS            $GPGGA,174611.000,4221.5019,N,07105.2502,W,2,10,0.89,-0.9,M,-33.7,M,0000,0000*79 
132.25782       GPS_NMEA_FROM_GPS    iGPS            $GPGSA,A,3,13,12,29,07,11,25,15,06,20,05,,,1.16,0.89,0.75*08 
133.15959       GPS_NMEA_FROM_GPS    iGPS            $GPGGA,174613.000,4221.5017,N,07105.2501,W,2,10,0.89,-0.9,M,-33.7,M,0000,0000*76 
134.16173       GPS_NMEA_FROM_GPS    iGPS            $GPGGA,174614.000,4221.5016,N,07105.2500,W,2,10,0.89,-0.9,M,-33.7,M,0000,0000*71 
135.16365       GPS_NMEA_FROM_GPS    iGPS            $GPGGA,174615.000,4221.5015,N,07105.2499,W,2,10,0.89,-0.9,M,-33.7,M,0000,0000*72 
136.16566       GPS_NMEA_FROM_GPS    iGPS            $GPGGA,174616.000,4221.5014,N,07105.2498,W,2,10,0.89,-0.9,M,-33.7,M,0000,0000*71 
137.16761       GPS_NMEA_FROM_GPS    iGPS            $GPGGA,174617.000,4221.5014,N,07105.2496,W,2,10,0.89,-0.9,M,-33.7,M,0000,0000*7E 
138.16941       GPS_NMEA_FROM_GPS    iGPS            $GPGGA,174618.000,4221.5014,N,07105.2495,W,2,10,0.89,-0.9,M,-33.7,M,0000,0000*72 
139.27164       GPS_NMEA_FROM_GPS    iGPS            $GPGSA,A,3,13,12,29,07,11,25,15,06,20,05,,,1.16,0.89,0.75*08 
140.17339       GPS_NMEA_FROM_GPS    iGPS            $GPGGA,174620.000,4221.5014,N,07105.2493,W,2,10,0.89,-0.9,M,-33.7,M,0000,0000*7F 
141.17543       GPS_NMEA_FROM_GPS    iGPS            $GPGGA,174621.000,4221.5014,N,07105.2492,W,2,10,0.89,-0.9,M,-33.7,M,0000,0000*7F 
142.17725       GPS_NMEA_FROM_GPS    iGPS            $GPGGA,174622.000,4221.5015,N,07105.2490,W,2,10,0.89,-0.9,M,-33.7,M,0000,0000*7F 
143.17938       GPS_NMEA_FROM_GPS    iGPS            $GPGGA,174623.000,4221.5015,N,07105.2489,W,2,10,0.89,-0.9,M,-33.7,M,0000,0000*76 
144.18156       GPS_NMEA_FROM_GPS    iGPS            $GPGGA,174624.000,4221.5015,N,07105.2488,W,2,10,0.89,-0.9,M,-33.7,M,0000,0000*70 
145.18351       GPS_NMEA_FROM_GPS    iGPS            $GPGSA,A,3,13,12,29,07,11,25,15,06,20,05,,,1.16,0.89,0.75*08 
146.18533       GPS_NMEA_FROM_GPS    iGPS            $GPGGA,174626.000,4221.5015,N,07105.2486,W,2,10,0.89,-0.9,M,-33.7,M,0000,0000*7C 
147.18751       GPS_NMEA_FROM_GPS    iGPS            $GPGGA,174627.000,4221.5016,N,07105.2484,W,2,10,0.89,-0.9,M,-33.7,M,0000,0000*7C 
148.18950       GPS_NMEA_FROM_GPS    iGPS            $GPGGA,174628.000,4221.5015,N,07105.2483,W,2,10,0.89,-0.9,M,-33.7,M,0000,0000*77 
149.19155       GPS_NMEA_FROM_GPS    iGPS            $GPGSA,A,3,13,12,29,07,11,25,15,06,20,05,,,1.16,0.89,0.75*08 
150.19329       GPS_NMEA_FROM_GPS    iGPS            $GPGGA,174630.000,4221.5014,N,07105.2480,W,2,10,0.89,-0.9,M,-33.7,M,0000,0000*7C 
151.29537       GPS_NMEA_FROM_GPS    iGPS            $GPGSA,A,3,13,12,29,07,11,25,15,06,20,05,,,1.16,0.89,0.75*08 
152.19703       GPS_NMEA_FROM_GPS    iGPS            $GPGSA,A,3,13,12,29,07,11,25,15,06,20,05,,,1.16,0.89,0.75*08 
153.19898       GPS_NMEA_FROM_GPS    iGPS            $GPGGA,174633.000,4221.5011,N,07105.2477,W,2,10,0.89,-0.9,M,-33.7,M,0000,0000*72 
154.20095       GPS_NMEA_FROM_GPS    iGPS            $GPGGA,174634.000,4221.5010,N,07105.2475,W,2,10,0.89,-0.9,M,-33.7,M,0000,0000*76 
155.20281       GPS_NMEA_FROM_GPS    iGPS            $GPGGA,174635.000,4221.5010,N,07105.2474,W,2,10,0.89,-0.9,M,-33.7,M,0000,0000*76 
156.20479       GPS_NMEA_FROM_GPS    iGPS            $GPGSA,A,3,13,12,29,07,11,25,15,06,20,05,,,1.16,0.89,0.75*08 
157.20660       GPS_NMEA_FROM_GPS    iGPS            $GPGGA,174637.000,4221.5010,N,07105.2473,W,2,10,0.89,-0.9,M,-33.7,M,0000,0000*73 
158.20902       GPS_NMEA_FROM_GPS    iGPS            $GPGGA,174638.000,4221.5010,N,07105.2473,W,2,10,0.89,-0.9,M,-33.7,M,0000,0000*7C 
159.21119       GPS_NMEA_FROM_GPS    iGPS            $GPGGA,174639.000,4221.5010,N,07105.2473,W,2,10,0.89,-0.9,M,-33.7,M,0000,0000*7D 
160.21306       GPS_NMEA_FROM_GPS    iGPS            $GPGGA,174640.000,4221.5010,N,07105.2473,W,2,10,0.89,-0.9,M,-33.7,M,0000,0000*73 
161.21500       GPS_NMEA_FROM_GPS    iGPS            $GPGSA,A,3,13,12,29,07,11,25,15,06,20,05,,,1.16,0.89,0.75*08 
162.11661       GPS_NMEA_FROM_GPS    iGPS            $GPGGA,174642.000,4221.5008,N,07105.2473,W,2,10,0.89,-0.9,M,-33.7,M,0000,0000*78 
163.21859       GPS_NMEA_FROM_GPS    iGPS            $GPGSA,A,3,13,12,29,07,11,25,15,06,20,05,,,1.16,0.89,0.75*08 
164.22053       GPS_NMEA_FROM_GPS    iGPS            $GPGGA,174644.000,4221.5003,N,07105.2480,W,2,10,0.89,-1.0,M,-33.7,M,0000,0000*71 
165.22263       GPS_NMEA_FROM_GPS    iGPS            $GPGSA,A,3,13,12,29,07,11,25,15,06,20,05,,,1.16,0.89,0.75*08 
166.12451       GPS_NMEA_FROM_GPS    iGPS            $GPGGA,174646.000,4221.5001,N,07105.2491,W,2,10,0.89,-1.0,M,-33.7,M,0000,0000*71 
167.22662       GPS_NMEA_FROM_GPS    iGPS            $GPGGA,174647.000,4221.5001,N,07105.2493,W,2,10,0.89,-1.1,M,-33.7,M,0000,0000*73 
168.22854       GPS_NMEA_FROM_GPS    iGPS            $GPGSA,A,3,13,12,29,07,11,25,15,06,20,05,,,1.16,0.89,0.75*08 
169.13052       GPS_NMEA_FROM_GPS    iGPS            $GPGGA,174649.000,4221.5000,N,07105.2496,W,2,10,0.89,-1.2,M,-33.7,M,0000,0000*7A 
170.13240       GPS_NMEA_FROM_GPS    iGPS            $GPGGA,174650.000,4221.5000,N,07105.2497,W,2,10,0.89,-1.2,M,-33.7,M,0000,0000*73 
171.13462       GPS_NMEA_FROM_GPS    iGPS            $GPGGA,174651.000,4221.4998,N,07105.2496,W,2,10,0.89,-1.2,M,-33.7,M,0000,0000*7A 
172.23751       GPS_NMEA_FROM_GPS    iGPS            $GPGSA,A,3,13,12,29,07,11,25,15,06,20,05,,,1.16,0.89,0.75*08 
173.23965       GPS_NMEA_FROM_GPS    iGPS            $GPGSA,A,3,13,12,29,07,11,25,15,06,20,05,,,1.16,0.89,0.75*08 
174.14164       GPS_NMEA_FROM_GPS    iGPS            $GPGGA,174654.000,4221.4997,N,07105.2497,W,2,10,0.89,-1.3,M,-33.7,M,0000,0000*70 
175.24370       GPS_NMEA_FROM_GPS    iGPS            $GPGGA,174655.000,4221.4996,N,07105.2497,W,2,10,0.89,-1.3,M,-33.7,M,0000,0000*70 
176.14550       GPS_NMEA_FROM_GPS    iGPS            $GPGGA,174656.000,4221.4996,N,07105.2496,W,2,10,0.89,-1.3,M,-33.7,M,0000,0000*72 
177.14742       GPS_NMEA_FROM_GPS    iGPS            $GPGGA,174657.000,4221.4996,N,07105.2495,W,2,10,0.89,-1.3,M,-33.7,M,0000,0000*70 
178.24976       GPS_NMEA_FROM_GPS    iGPS            $GPGSA,A,3,13,12,29,07,11,25,15,06,20,05,,,1.16,0.89,0.75*08 
179.25248       GPS_NMEA_FROM_GPS    iGPS            $GPGSA,A,3,13,12,29,07,11,25,15,06,20,05,,,1.16,0.89,0.75*08 
180.25436       GPS_NMEA_FROM_GPS    iGPS            $GPGSA,A,3,13,12,29,07,11,25,15,06,20,05,,,1.16,0.89,0.75*08 
181.25622       GPS_NMEA_FROM_GPS    iGPS            $GPGSA,A,3,13,12,29,07,11,25,15,06,20,05,,,1.16,0.89,0.75*08 
182.15792       GPS_NMEA_FROM_GPS    iGPS            $GPGGA,174702.000,4221.4998,N,07105.2486,W,2,10,0.89,-1.3,M,-33.7,M,0000,0000*7D 
183.16011       GPS_NMEA_FROM_GPS    iGPS            $GPGGA,174703.000,4221.5000,N,07105.2483,W,2,10,0.89,-1.3,M,-33.7,M,0000,0000*70 
184.26429       GPS_NMEA_FROM_GPS    iGPS            $GPGGA,174704.000,4221.5001,N,07105.2481,W,2,10,0.89,-1.3,M,-33.7,M,0000,0000*74 
185.26753       GPS_NMEA_FROM_GPS    iGPS            $GPGSA,A,3,13,12,29,07,11,25,15,06,20,05,,,1.16,0.89,0.75*08 
186.16958       GPS_NMEA_FROM_GPS    iGPS            $GPGGA,174706.000,4221.5004,N,07105.2476,W,2,11,0.80,-1.3,M,-33.7,M,0000,0000*73 
186.16958       GPS_NMEA_FROM_GPS    iGPS            $GPGGA,174706.000,4221.5004,N,07105.2476,W,2,11,0.80,-1.3,M,-33.7,M,0000,0000*73 
187.27278       GPS_NMEA_FROM_GPS    iGPS            $GPGSA,A,3,13,12,29,07,11,25,15,06,20,09,05,,1.06,0.80,0.70*0C 
188.27472       GPS_NMEA_FROM_GPS    iGPS            $GPGSA,A,3,13,12,29,07,11,25,15,06,20,09,05,,1.06,0.80,0.70*0C 
189.27684       GPS_NMEA_FROM_GPS    iGPS            $GPGSA,A,3,13,12,29,07,11,25,15,06,20,09,05,,1.06,0.80,0.70*0C 
190.17854       GPS_NMEA_FROM_GPS    iGPS            $GPGGA,174710.000,4221.5006,N,07105.2463,W,2,11,0.80,-1.4,M,-33.7,M,0000,0000*75 
191.18058       GPS_NMEA_FROM_GPS    iGPS            $GPGSA,A,3,13,12,29,07,11,25,15,06,20,09,05,,1.06,0.80,0.70*0C 
192.18249       GPS_NMEA_FROM_GPS    iGPS            $GPGGA,174712.000,4221.5007,N,07105.2460,W,2,11,0.80,-1.5,M,-33.7,M,0000,0000*74 
193.28466       GPS_NMEA_FROM_GPS    iGPS            $GPGSA,A,3,13,12,29,07,11,25,15,06,20,09,05,,1.06,0.80,0.70*0C 
194.18651       GPS_NMEA_FROM_GPS    iGPS            $GPGSA,A,3,13,12,29,07,11,25,15,06,20,09,05,,1.06,0.80,0.70*0C 
195.18843       GPS_NMEA_FROM_GPS    iGPS            $GPGGA,174715.000,4221.5010,N,07105.2455,W,2,11,0.80,-1.7,M,-33.7,M,0000,0000*71 
196.29045       GPS_NMEA_FROM_GPS    iGPS            $GPGSA,A,3,13,12,29,07,11,25,15,06,20,09,05,,1.06,0.80,0.70*0C 
197.19219       GPS_NMEA_FROM_GPS    iGPS            $GPGGA,174717.000,4221.5011,N,07105.2452,W,2,11,0.80,-1.7,M,-33.7,M,0000,0000*75 
198.29425       GPS_NMEA_FROM_GPS    iGPS            $GPGSA,A,3,13,12,29,07,11,25,15,06,20,09,05,,1.06,0.80,0.70*0C 
199.29635       GPS_NMEA_FROM_GPS    iGPS            $GPGSA,A,3,13,12,29,07,11,25,15,06,20,09,05,,1.06,0.80,0.70*0C 
200.19804       GPS_NMEA_FROM_GPS    iGPS            $GPGGA,174720.000,4221.5013,N,07105.2447,W,2,11,0.80,-1.7,M,-33.7,M,0000,0000*77 
201.19993       GPS_NMEA_FROM_GPS    iGPS            $GPGGA,174721.000,4221.5013,N,07105.2445,W,2,11,0.80,-1.7,M,-33.7,M,0000,0000*74 
202.20176       GPS_NMEA_FROM_GPS    iGPS            $GPGGA,174722.000,4221.5013,N,07105.2443,W,2,11,0.80,-1.7,M,-33.7,M,0000,0000*71 
203.20368       GPS_NMEA_FROM_GPS    iGPS            $GPGGA,174723.000,4221.5012,N,07105.2440,W,2,11,0.80,-1.8,M,-33.7,M,0000,0000*7D 
204.20572       GPS_NMEA_FROM_GPS    iGPS            $GPGGA,174724.000,4221.5011,N,07105.2437,W,2,11,0.80,-1.9,M,-33.7,M,0000,0000*78 
205.20769       GPS_NMEA_FROM_GPS    iGPS            $GPGGA,174725.000,4221.5010,N,07105.2434,W,2,11,0.80,-1.9,M,-33.7,M,0000,0000*7B 
206.20951       GPS_NMEA_FROM_GPS    iGPS            $GPGGA,174726.000,4221.5011,N,07105.2429,W,2,11,0.80,-2.0,M,-33.7,M,0000,0000*7F 
207.21146       GPS_NMEA_FROM_GPS    iGPS            $GPGGA,174727.000,4221.5011,N,07105.2424,W,2,11,0.80,-2.1,M,-33.7,M,0000,0000*72 
208.21333       GPS_NMEA_FROM_GPS    iGPS            $GPGGA,174728.000,4221.5011,N,07105.2419,W,2,11,0.80,-2.1,M,-33.7,M,0000,0000*73 
209.21541       GPS_NMEA_FROM_GPS    iGPS            $GPGGA,174729.000,4221.5011,N,07105.2415,W,2,11,0.80,-2.2,M,-33.7,M,0000,0000*7D 
210.21732       GPS_NMEA_FROM_GPS    iGPS            $GPGSA,A,3,13,12,29,07,11,25,15,06,20,09,05,,1.06,0.80,0.70*0C 
211.21929       GPS_NMEA_FROM_GPS    iGPS            $GPGGA,174731.000,4221.5010,N,07105.2407,W,2,11,0.80,-2.3,M,-33.7,M,0000,0000*77 
212.22116       GPS_NMEA_FROM_GPS    iGPS            $GPGGA,174732.000,4221.5011,N,07105.2404,W,2,11,0.80,-2.3,M,-33.7,M,0000,0000*76 
213.22315       GPS_NMEA_FROM_GPS    iGPS            $GPGSA,A,3,13,12,29,07,11,25,15,06,20,09,05,,1.06,0.80,0.70*0C 
214.12507       GPS_NMEA_FROM_GPS    iGPS            $GPGGA,174734.000,4221.5007,N,07105.2396,W,2,11,0.80,-2.4,M,-33.7,M,0000,0000*7C 
215.22709       GPS_NMEA_FROM_GPS    iGPS            $GPGGA,174735.000,4221.5005,N,07105.2392,W,2,11,0.80,-2.5,M,-33.7,M,0000,0000*7A 
216.12884       GPS_NMEA_FROM_GPS    iGPS            $GPGGA,174736.000,4221.5002,N,07105.2389,W,2,11,0.80,-2.5,M,-33.7,M,0000,0000*74 
217.23201       GPS_NMEA_FROM_GPS    iGPS            $GPGSA,A,3,13,12,29,07,11,25,15,06,20,09,05,,1.06,0.80,0.70*0C 
218.23412       GPS_NMEA_FROM_GPS    iGPS            $GPGGA,174738.000,4221.4999,N,07105.2382,W,2,11,0.80,-2.6,M,-33.7,M,0000,0000*78 
219.13593       GPS_NMEA_FROM_GPS    iGPS            $GPGGA,174739.000,4221.4996,N,07105.2379,W,2,11,0.80,-2.6,M,-33.7,M,0000,0000*72 
220.23790       GPS_NMEA_FROM_GPS    iGPS            $GPGSA,A,3,13,12,29,07,11,25,15,06,20,09,05,,1.06,0.80,0.70*0C 
221.24011       GPS_NMEA_FROM_GPS    iGPS            $GPGGA,174741.000,4221.4990,N,07105.2374,W,2,11,0.80,-2.7,M,-33.7,M,0000,0000*77 
222.24208       GPS_NMEA_FROM_GPS    iGPS            $GPGSA,A,3,13,12,29,07,11,25,15,06,20,09,05,,1.06,0.80,0.70*0C 
223.24392       GPS_NMEA_FROM_GPS    iGPS            $GPGSA,A,3,13,12,29,07,11,25,15,06,20,09,05,,1.06,0.80,0.70*0C 
224.24598       GPS_NMEA_FROM_GPS    iGPS            $GPGSA,A,3,13,12,29,07,11,25,15,06,20,09,05,,1.06,0.80,0.70*0C 
225.24783       GPS_NMEA_FROM_GPS    iGPS            $GPGSA,A,3,13,12,29,07,11,25,15,06,20,09,05,,1.06,0.80,0.70*0C 
226.14951       GPS_NMEA_FROM_GPS    iGPS            $GPGGA,174746.000,4221.4976,N,07105.2361,W,2,11,0.80,-2.8,M,-33.7,M,0000,0000*73 
227.25167       GPS_NMEA_FROM_GPS    iGPS            $GPGSA,A,3,13,12,29,07,11,25,15,06,20,09,05,,1.06,0.80,0.70*0C 
228.25356       GPS_NMEA_FROM_GPS    iGPS            $GPGGA,174748.000,4221.4973,N,07105.2357,W,2,11,0.80,-2.9,M,-33.7,M,0000,0000*7C 
229.25600       GPS_NMEA_FROM_GPS    iGPS            $GPGSA,A,3,13,12,29,07,11,25,15,06,20,09,05,,1.06,0.80,0.70*0C 
230.25787       GPS_NMEA_FROM_GPS    iGPS            $GPGSA,A,3,13,12,29,07,11,25,15,06,20,09,05,,1.06,0.80,0.70*0C 
231.15962       GPS_NMEA_FROM_GPS    iGPS            $GPGGA,174751.000,4221.4967,N,07105.2350,W,2,11,0.80,-3.1,M,-33.7,M,0000,0000*7F 
232.26164       GPS_NMEA_FROM_GPS    iGPS            $GPGSA,A,3,13,12,29,07,11,25,15,06,20,09,05,,1.06,0.80,0.70*0C 
233.16348       GPS_NMEA_FROM_GPS    iGPS            $GPGGA,174753.000,4221.4963,N,07105.2344,W,2,11,0.80,-3.2,M,-33.7,M,0000,0000*7F 
234.16600       GPS_NMEA_FROM_GPS    iGPS            $GPGGA,174754.000,4221.4962,N,07105.2340,W,2,11,0.80,-3.2,M,-33.7,M,0000,0000*7D 
235.26809       GPS_NMEA_FROM_GPS    iGPS            $GPGSA,A,3,13,12,29,07,11,25,15,06,20,09,05,,1.06,0.80,0.70*0C 
236.27071       GPS_NMEA_FROM_GPS    iGPS            $GPGSA,A,3,13,12,29,07,11,25,15,06,20,09,05,,1.06,0.80,0.70*0C 
237.17253       GPS_NMEA_FROM_GPS    iGPS            $GPGGA,174757.000,4221.4956,N,07105.2330,W,2,11,0.80,-3.2,M,-33.7,M,0000,0000*7E 
238.27480       GPS_NMEA_FROM_GPS    iGPS            $GPGSA,A,3,13,12,29,07,11,25,15,06,20,09,05,,1.06,0.80,0.70*0C 
239.17680       GPS_NMEA_FROM_GPS    iGPS            $GPGGA,174759.000,4221.4951,N,07105.2325,W,2,11,0.80,-3.3,M,-33.7,M,0000,0000*72 
240.17879       GPS_NMEA_FROM_GPS    iGPS            $GPGGA,174800.000,4221.4950,N,07105.2323,W,2,11,0.80,-3.3,M,-33.7,M,0000,0000*76 
241.28101       GPS_NMEA_FROM_GPS    iGPS            $GPGSA,A,3,13,12,29,07,11,25,15,06,20,09,05,,1.06,0.80,0.70*0C 
242.18333       GPS_NMEA_FROM_GPS    iGPS            $GPGGA,174802.000,4221.4946,N,07105.2316,W,2,11,0.80,-3.4,M,-33.7,M,0000,0000*72 
243.18518       GPS_NMEA_FROM_GPS    iGPS            $GPGGA,174803.000,4221.4946,N,07105.2313,W,2,11,0.80,-3.5,M,-33.7,M,0000,0000*77 
244.18730       GPS_NMEA_FROM_GPS    iGPS            $GPGGA,174804.000,4221.4947,N,07105.2310,W,2,11,0.80,-3.6,M,-33.7,M,0000,0000*71 
245.18927       GPS_NMEA_FROM_GPS    iGPS            $GPGGA,174805.000,4221.4948,N,07105.2306,W,2,11,0.80,-3.6,M,-33.7,M,0000,0000*78 
246.19109       GPS_NMEA_FROM_GPS    iGPS            $GPGGA,174806.000,4221.4949,N,07105.2304,W,2,11,0.80,-3.7,M,-33.7,M,0000,0000*79 
247.19296       GPS_NMEA_FROM_GPS    iGPS            $GPGGA,174807.000,4221.4949,N,07105.2303,W,2,11,0.80,-3.7,M,-33.7,M,0000,0000*7F 
248.29499       GPS_NMEA_FROM_GPS    iGPS            $GPGSA,A,3,13,12,29,07,11,25,15,06,20,09,05,,1.06,0.80,0.70*0C 
249.19684       GPS_NMEA_FROM_GPS    iGPS            $GPGGA,174809.000,4221.4950,N,07105.2299,W,2,11,0.80,-3.8,M,-33.7,M,0000,0000*74 
250.19882       GPS_NMEA_FROM_GPS    iGPS            $GPGGA,174810.000,4221.4949,N,07105.2296,W,2,11,0.80,-3.8,M,-33.7,M,0000,0000*7B 
251.20081       GPS_NMEA_FROM_GPS    iGPS            $GPGGA,174811.000,4221.4949,N,07105.2293,W,2,11,0.80,-3.8,M,-33.7,M,0000,0000*7F 
252.20264       GPS_NMEA_FROM_GPS    iGPS            $GPGSA,A,3,13,12,29,07,11,25,15,06,20,09,05,,1.06,0.80,0.70*0C 
253.20447       GPS_NMEA_FROM_GPS    iGPS            $GPGGA,174813.000,4221.4951,N,07105.2284,W,2,11,0.80,-3.9,M,-33.7,M,0000,0000*73 
254.20671       GPS_NMEA_FROM_GPS    iGPS            $GPGGA,174814.000,4221.4951,N,07105.2281,W,2,11,0.80,-3.9,M,-33.7,M,0000,0000*71 
255.20857       GPS_NMEA_FROM_GPS    iGPS            $GPGGA,174815.000,4221.4951,N,07105.2277,W,2,11,0.80,-3.9,M,-33.7,M,0000,0000*79 
256.21044       GPS_NMEA_FROM_GPS    iGPS            $GPGSA,A,3,13,12,29,07,11,25,15,06,20,09,05,,1.06,0.80,0.70*0C 
257.21228       GPS_NMEA_FROM_GPS    iGPS            $GPGGA,174817.000,4221.4952,N,07105.2269,W,2,11,0.80,-3.9,M,-33.7,M,0000,0000*77 
258.21416       GPS_NMEA_FROM_GPS    iGPS            $GPGSA,A,3,13,12,29,07,11,25,15,06,20,09,05,,1.06,0.80,0.70*0C 
259.21613       GPS_NMEA_FROM_GPS    iGPS            $GPGSA,A,3,13,12,29,07,11,25,15,06,20,09,05,,1.06,0.80,0.70*0C 
260.21797       GPS_NMEA_FROM_GPS    iGPS            $GPGGA,174820.000,4221.4954,N,07105.2260,W,2,11,0.80,-3.9,M,-33.7,M,0000,0000*7C 
261.11969       GPS_NMEA_FROM_GPS    iGPS            $GPGGA,174821.000,4221.4954,N,07105.2257,W,2,11,0.80,-3.9,M,-33.7,M,0000,0000*79 
262.22163       GPS_NMEA_FROM_GPS    iGPS            $GPGGA,174822.000,4221.4954,N,07105.2254,W,2,11,0.80,-3.9,M,-33.7,M,0000,0000*79 
263.12334       GPS_NMEA_FROM_GPS    iGPS            $GPGGA,174823.000,4221.4954,N,07105.2249,W,2,11,0.80,-4.0,M,-33.7,M,0000,0000*7A 
264.22557       GPS_NMEA_FROM_GPS    iGPS            $GPGSA,A,3,13,12,29,07,11,25,15,06,20,09,05,,1.06,0.80,0.69*04 
265.12749       GPS_NMEA_FROM_GPS    iGPS            $GPGGA,174825.000,4221.4957,N,07105.2238,W,2,11,0.80,-4.0,M,-33.7,M,0000,0000*79 
266.22944       GPS_NMEA_FROM_GPS    iGPS            $GPGGA,174826.000,4221.4959,N,07105.2233,W,2,11,0.80,-4.0,M,-33.7,M,0000,0000*7F 
267.23125       GPS_NMEA_FROM_GPS    iGPS            $GPGSA,A,3,13,12,29,07,11,25,15,06,20,09,05,,1.06,0.80,0.69*04 
268.23303       GPS_NMEA_FROM_GPS    iGPS            $GPGSA,A,3,13,12,29,07,11,25,15,06,20,09,05,,1.06,0.80,0.69*04 
269.23535       GPS_NMEA_FROM_GPS    iGPS            $GPGGA,174829.000,4221.4962,N,07105.2222,W,2,11,0.80,-4.0,M,-33.7,M,0000,0000*78 
270.23726       GPS_NMEA_FROM_GPS    iGPS            $GPGGA,174830.000,4221.4963,N,07105.2221,W,2,11,0.80,-4.0,M,-33.7,M,0000,0000*72 
271.23919       GPS_NMEA_FROM_GPS    iGPS            $GPGSA,A,3,13,12,29,07,11,25,15,06,20,09,05,,1.06,0.80,0.69*04 
272.24098       GPS_NMEA_FROM_GPS    iGPS            $GPGGA,174832.000,4221.4963,N,07105.2219,W,2,11,0.80,-4.0,M,-33.7,M,0000,0000*7B 
273.24369       GPS_NMEA_FROM_GPS    iGPS            $GPGGA,174833.000,4221.4962,N,07105.2217,W,2,11,0.80,-4.0,M,-33.7,M,0000,0000*75 
274.24681       GPS_NMEA_FROM_GPS    iGPS            $GPGSA,A,3,13,12,29,07,11,25,15,06,20,09,05,,1.06,0.80,0.69*04 
275.14767       GPS_NMEA_FROM_GPS    iGPS            $GPGGA,174835.000,4221.4961,N,07105.2210,W,2,11,0.80,-4.1,M,-33.7,M,0000,0000*76 
276.14949       GPS_NMEA_FROM_GPS    iGPS            $GPGGA,174836.000,4221.4961,N,07105.2206,W,2,11,0.80,-4.1,M,-33.7,M,0000,0000*72 
277.15136       GPS_NMEA_FROM_GPS    iGPS            $GPGGA,174837.000,4221.4961,N,07105.2206,W,2,11,0.80,-4.1,M,-33.7,M,0000,0000*73 
278.25436       GPS_NMEA_FROM_GPS    iGPS            $GPGGA,174838.000,4221.4963,N,07105.2204,W,2,11,0.80,-4.1,M,-33.7,M,0000,0000*7C 
279.15626       GPS_NMEA_FROM_GPS    iGPS            $GPGGA,174839.000,4221.4966,N,07105.2204,W,2,11,0.80,-4.1,M,-33.7,M,0000,0000*78 
280.15892       GPS_NMEA_FROM_GPS    iGPS            $GPGGA,174840.000,4221.4968,N,07105.2204,W,2,11,0.80,-4.1,M,-33.7,M,0000,0000*78 
281.26095       GPS_NMEA_FROM_GPS    iGPS            $GPGGA,174841.000,4221.4971,N,07105.2203,W,2,11,0.80,-4.1,M,-33.7,M,0000,0000*76 
282.16276       GPS_NMEA_FROM_GPS    iGPS            $GPGGA,174842.000,4221.4972,N,07105.2202,W,2,11,0.80,-4.1,M,-33.7,M,0000,0000*77 
283.27200       GPS_NMEA_FROM_GPS    iGPS            $GPGSA,A,3,13,12,29,07,11,25,15,06,20,09,05,,1.06,0.80,0.69*04 
284.17390       GPS_NMEA_FROM_GPS    iGPS            $GPGGA,174844.000,4221.4975,N,07105.2198,W,2,10,0.89,-4.1,M,-33.7,M,0000,0000*7E 
285.17585       GPS_NMEA_FROM_GPS    iGPS            $GPGGA,174845.000,4221.4975,N,07105.2195,W,2,10,0.89,-4.0,M,-33.7,M,0000,0000*73 
286.17772       GPS_NMEA_FROM_GPS    iGPS            $GPGGA,174846.000,4221.4976,N,07105.2191,W,2,10,0.90,-4.0,M,-33.7,M,0000,0000*7F 
287.27976       GPS_NMEA_FROM_GPS    iGPS            $GPGSA,A,3,13,12,29,07,11,25,15,06,20,05,,,1.17,0.90,0.75*01 
288.18143       GPS_NMEA_FROM_GPS    iGPS            $GPGGA,174848.000,4221.4980,N,07105.2184,W,2,10,0.90,-4.0,M,-33.7,M,0000,0000*7C 
289.18379       GPS_NMEA_FROM_GPS    iGPS            $GPGGA,174849.000,4221.4982,N,07105.2180,W,2,11,0.80,-4.1,M,-33.7,M,0000,0000*7A 
290.18590       GPS_NMEA_FROM_GPS    iGPS            $GPGGA,174850.000,4221.4985,N,07105.2178,W,2,11,0.80,-4.1,M,-33.7,M,0000,0000*72 
291.18780       GPS_NMEA_FROM_GPS    iGPS            $GPGGA,174851.000,4221.4987,N,07105.2173,W,2,11,0.80,-4.1,M,-33.7,M,0000,0000*7A 
292.18982       GPS_NMEA_FROM_GPS    iGPS            $GPGGA,174852.000,4221.4991,N,07105.2167,W,2,11,0.80,-4.1,M,-33.7,M,0000,0000*7B 
293.19235       GPS_NMEA_FROM_GPS    iGPS            $GPGGA,174853.000,4221.4994,N,07105.2164,W,2,11,0.80,-4.1,M,-33.7,M,0000,0000*7C 
294.19441       GPS_NMEA_FROM_GPS    iGPS            $GPGGA,174854.000,4221.4997,N,07105.2161,W,2,11,0.80,-4.0,M,-33.7,M,0000,0000*7C 
295.19633       GPS_NMEA_FROM_GPS    iGPS            $GPGGA,174855.000,4221.5000,N,07105.2157,W,2,11,0.80,-4.0,M,-33.7,M,0000,0000*7E 
296.19835       GPS_NMEA_FROM_GPS    iGPS            $GPGGA,174856.000,4221.5003,N,07105.2154,W,2,11,0.80,-3.9,M,-33.7,M,0000,0000*73 
297.20036       GPS_NMEA_FROM_GPS    iGPS            $GPGSA,A,3,13,12,29,07,11,25,15,06,20,09,05,,1.06,0.80,0.69*04 
298.20247       GPS_NMEA_FROM_GPS    iGPS            $GPGSA,A,3,13,12,29,07,11,25,15,06,20,09,05,,1.06,0.80,0.69*04 
299.20455       GPS_NMEA_FROM_GPS    iGPS            $GPGGA,174859.000,4221.5010,N,07105.2144,W,2,11,0.80,-3.9,M,-33.7,M,0000,0000*7F 
300.20670       GPS_NMEA_FROM_GPS    iGPS            $GPGSA,A,3,13,12,29,07,11,25,15,06,20,09,05,,1.06,0.80,0.69*04 
301.20854       GPS_NMEA_FROM_GPS    iGPS            $GPGSA,A,3,13,12,29,07,11,25,15,06,20,09,05,,1.06,0.80,0.69*04 
302.21038       GPS_NMEA_FROM_GPS    iGPS            $GPGGA,174902.000,4221.5020,N,07105.2131,W,2,11,0.80,-3.8,M,-33.7,M,0000,0000*70 
303.21226       GPS_NMEA_FROM_GPS    iGPS            $GPGSA,A,3,13,12,29,07,11,25,15,06,20,09,05,,1.06,0.80,0.69*04 
304.21443       GPS_NMEA_FROM_GPS    iGPS            $GPGGA,174904.000,4221.5024,N,07105.2123,W,2,11,0.80,-3.8,M,-33.7,M,0000,0000*71 
305.21638       GPS_NMEA_FROM_GPS    iGPS            $GPGGA,174905.000,4221.5026,N,07105.2119,W,2,11,0.80,-3.8,M,-33.7,M,0000,0000*7B 
306.21821       GPS_NMEA_FROM_GPS    iGPS            $GPGSA,A,3,13,12,29,07,11,25,15,06,20,09,05,,1.06,0.80,0.69*04 
307.22001       GPS_NMEA_FROM_GPS    iGPS            $GPGGA,174907.000,4221.5032,N,07105.2112,W,2,11,0.80,-3.8,M,-33.7,M,0000,0000*77 
308.22182       GPS_NMEA_FROM_GPS    iGPS            $GPGGA,174908.000,4221.5034,N,07105.2110,W,2,11,0.80,-3.9,M,-33.7,M,0000,0000*7D 
309.22388       GPS_NMEA_FROM_GPS    iGPS            $GPGSA,A,3,13,12,29,07,11,25,15,06,20,09,05,,1.06,0.80,0.69*04 
310.22570       GPS_NMEA_FROM_GPS    iGPS            $GPGGA,174910.000,4221.5037,N,07105.2104,W,2,11,0.80,-3.9,M,-33.7,M,0000,0000*72 
311.22758       GPS_NMEA_FROM_GPS    iGPS            $GPGGA,174911.000,4221.5039,N,07105.2100,W,2,11,0.80,-4.0,M,-33.7,M,0000,0000*77 
312.22952       GPS_NMEA_FROM_GPS    iGPS            $GPGSA,A,3,13,12,29,07,11,25,15,06,20,09,05,,1.06,0.80,0.69*04 
313.13126       GPS_NMEA_FROM_GPS    iGPS            $GPGGA,174913.000,4221.5044,N,07105.2091,W,2,10,0.90,-4.1,M,-33.7,M,0000,0000*77 
314.23375       GPS_NMEA_FROM_GPS    iGPS            $GPGGA,174914.000,4221.5046,N,07105.2088,W,2,10,0.90,-4.1,M,-33.7,M,0000,0000*7A 
315.23681       GPS_NMEA_FROM_GPS    iGPS            $GPGGA,174915.000,4221.5048,N,07105.2085,W,2,10,0.90,-4.2,M,-33.7,M,0000,0000*7B 
316.23865       GPS_NMEA_FROM_GPS    iGPS            $GPGSA,A,3,13,12,29,07,11,25,15,06,20,05,,,1.17,0.90,0.75*01 
317.14098       GPS_NMEA_FROM_GPS    iGPS            $GPGGA,174917.000,4221.5052,N,07105.2078,W,2,10,0.90,-4.2,M,-33.7,M,0000,0000*70 
318.24295       GPS_NMEA_FROM_GPS    iGPS            $GPGGA,174918.000,4221.5053,N,07105.2074,W,2,11,0.80,-4.2,M,-33.7,M,0000,0000*72 
319.14491       GPS_NMEA_FROM_GPS    iGPS            $GPGGA,174919.000,4221.5056,N,07105.2069,W,2,11,0.80,-4.2,M,-33.7,M,0000,0000*7A 
320.24698       GPS_NMEA_FROM_GPS    iGPS            $GPGSA,A,3,13,12,29,07,11,25,15,06,20,05,09,,1.06,0.80,0.69*04 
321.14876       GPS_NMEA_FROM_GPS    iGPS            $GPGGA,174921.000,4221.5059,N,07105.2060,W,2,11,0.80,-4.2,M,-33.7,M,0000,0000*77 
322.15073       GPS_NMEA_FROM_GPS    iGPS            $GPGGA,174922.000,4221.5060,N,07105.2056,W,2,11,0.80,-4.2,M,-33.7,M,0000,0000*7B 
323.25280       GPS_NMEA_FROM_GPS    iGPS            $GPGSA,A,3,13,12,29,07,11,25,15,06,20,05,09,,1.06,0.80,0.69*04 
324.15560       GPS_NMEA_FROM_GPS    iGPS            $GPGGA,174924.000,4221.5060,N,07105.2048,W,2,11,0.80,-4.2,M,-33.7,M,0000,0000*72 
325.15770       GPS_NMEA_FROM_GPS    iGPS            $GPGGA,174925.000,4221.5062,N,07105.2045,W,2,11,0.80,-4.2,M,-33.7,M,0000,0000*7C 
326.15972       GPS_NMEA_FROM_GPS    iGPS            $GPGGA,174926.000,4221.5063,N,07105.2043,W,2,11,0.80,-4.2,M,-33.7,M,0000,0000*78 
327.16195       GPS_NMEA_FROM_GPS    iGPS            $GPGGA,174927.000,4221.5067,N,07105.2041,W,2,11,0.80,-4.3,M,-33.7,M,0000,0000*7E 
328.26573       GPS_NMEA_FROM_GPS    iGPS            $GPGSA,A,3,13,12,29,07,11,25,15,06,20,05,09,,1.06,0.80,0.69*04 
329.16780       GPS_NMEA_FROM_GPS    iGPS            $GPGGA,174929.000,4221.5073,N,07105.2038,W,2,11,0.80,-4.4,M,-33.7,M,0000,0000*7C 
330.16971       GPS_NMEA_FROM_GPS    iGPS            $GPGGA,174930.000,4221.5076,N,07105.2036,W,2,11,0.80,-4.4,M,-33.7,M,0000,0000*7F 
331.27176       GPS_NMEA_FROM_GPS    iGPS            $GPGSA,A,3,13,12,29,07,11,25,15,06,20,05,09,,1.06,0.80,0.69*04 
332.17353       GPS_NMEA_FROM_GPS    iGPS            $GPGGA,174932.000,4221.5080,N,07105.2029,W,2,11,0.80,-4.5,M,-33.7,M,0000,0000*7B 
333.27569       GPS_NMEA_FROM_GPS    iGPS            $GPGSA,A,3,13,12,29,07,11,25,15,06,20,05,09,,1.06,0.80,0.69*04 
334.27782       GPS_NMEA_FROM_GPS    iGPS            $GPGSA,A,3,13,12,29,07,11,25,15,06,20,05,09,,1.06,0.80,0.69*04 
335.17965       GPS_NMEA_FROM_GPS    iGPS            $GPGGA,174935.000,4221.5083,N,07105.2015,W,2,10,0.90,-4.5,M,-33.7,M,0000,0000*70 
336.28165       GPS_NMEA_FROM_GPS    iGPS            $GPGSA,A,3,13,12,29,07,11,25,15,06,20,05,,,1.17,0.90,0.75*01 
337.18332       GPS_NMEA_FROM_GPS    iGPS            $GPGGA,174937.000,4221.5084,N,07105.2005,W,2,10,0.90,-4.6,M,-33.7,M,0000,0000*77 
338.18533       GPS_NMEA_FROM_GPS    iGPS            $GPGGA,174938.000,4221.5085,N,07105.2000,W,2,10,0.90,-4.7,M,-33.7,M,0000,0000*7D 
339.18760       GPS_NMEA_FROM_GPS    iGPS            $GPGSA,A,3,13,12,29,07,11,25,15,06,20,05,,,1.17,0.90,0.75*01 
340.19104       GPS_NMEA_FROM_GPS    iGPS            $GPGGA,174940.000,4221.5087,N,07105.1998,W,2,10,0.90,-4.7,M,-33.7,M,0000,0000*7B 
341.19732       GPS_NMEA_FROM_GPS    iGPS            $GPGGA,174941.000,4221.5090,N,07105.1999,W,2,10,0.90,-4.6,M,-33.7,M,0000,0000*7C 
342.30052       GPS_NMEA_FROM_GPS    iGPS            $GPGSA,A,3,13,12,29,07,11,25,15,06,20,05,,,1.17,0.90,0.75*01 
343.20221       GPS_NMEA_FROM_GPS    iGPS            $GPGGA,174943.000,4221.5095,N,07105.1994,W,2,10,0.90,-4.6,M,-33.7,M,0000,0000*76 
344.20440       GPS_NMEA_FROM_GPS    iGPS            $GPGGA,174944.000,4221.5096,N,07105.1992,W,2,10,0.90,-4.7,M,-33.7,M,0000,0000*75 
345.20625       GPS_NMEA_FROM_GPS    iGPS            $GPGGA,174945.000,4221.5099,N,07105.1992,W,2,10,0.90,-4.7,M,-33.7,M,0000,0000*7B 
346.20821       GPS_NMEA_FROM_GPS    iGPS            $GPGGA,174946.000,4221.5102,N,07105.1990,W,2,10,0.90,-4.7,M,-33.7,M,0000,0000*79 
347.21009       GPS_NMEA_FROM_GPS    iGPS            $GPGGA,174947.000,4221.5104,N,07105.1989,W,2,10,0.90,-4.6,M,-33.7,M,0000,0000*77 
348.21246       GPS_NMEA_FROM_GPS    iGPS            $GPGSA,A,3,13,12,29,07,11,25,15,06,20,05,,,1.17,0.90,0.75*01 
349.21937       GPS_NMEA_FROM_GPS    iGPS            $GPGGA,174949.000,4221.5107,N,07105.1989,W,2,10,0.90,-4.5,M,-33.7,M,0000,0000*79 
350.22158       GPS_NMEA_FROM_GPS    iGPS            $GPGGA,174950.000,4221.5109,N,07105.1989,W,2,10,0.90,-4.5,M,-33.7,M,0000,0000*7F 
351.22366       GPS_NMEA_FROM_GPS    iGPS            $GPGSA,A,3,13,12,29,07,11,25,15,06,20,05,,,1.17,0.90,0.75*01 
352.22551       GPS_NMEA_FROM_GPS    iGPS            $GPGSA,A,3,13,12,29,07,11,25,15,06,20,05,,,1.46,0.94,1.12*01 
353.22730       GPS_NMEA_FROM_GPS    iGPS            $GPGGA,174953.000,4221.5111,N,07105.1984,W,2,10,0.94,-4.5,M,-33.7,M,0000,0000*7C 
354.22944       GPS_NMEA_FROM_GPS    iGPS            $GPGGA,174954.000,4221.5111,N,07105.1982,W,2,10,0.90,-4.6,M,-33.7,M,0000,0000*7A 
355.23132       GPS_NMEA_FROM_GPS    iGPS            $GPGGA,174955.000,4221.5111,N,07105.1980,W,2,10,0.90,-4.6,M,-33.7,M,0000,0000*79 
356.13299       GPS_NMEA_FROM_GPS    iGPS            $GPGGA,174956.000,4221.5112,N,07105.1978,W,2,10,0.90,-4.6,M,-33.7,M,0000,0000*7E 
357.23502       GPS_NMEA_FROM_GPS    iGPS            $GPGGA,174957.000,4221.5111,N,07105.1976,W,2,10,0.90,-4.6,M,-33.7,M,0000,0000*72 
358.23682       GPS_NMEA_FROM_GPS    iGPS            $GPGGA,174958.000,4221.5109,N,07105.1975,W,2,10,0.90,-4.5,M,-33.7,M,0000,0000*74 
359.23888       GPS_NMEA_FROM_GPS    iGPS            $GPGGA,174959.000,4221.5108,N,07105.1974,W,2,10,0.90,-4.5,M,-33.7,M,0000,0000*75 
360.14055       GPS_NMEA_FROM_GPS    iGPS            $GPGGA,175000.000,4221.5108,N,07105.1976,W,2,10,0.90,-4.5,M,-33.7,M,0000,0000*73 
361.14238       GPS_NMEA_FROM_GPS    iGPS            $GPGGA,175001.000,4221.5107,N,07105.1976,W,2,10,0.90,-4.5,M,-33.7,M,0000,0000*7D 
362.14421       GPS_NMEA_FROM_GPS    iGPS            $GPGGA,175002.000,4221.5107,N,07105.1975,W,2,10,0.90,-4.5,M,-33.7,M,0000,0000*7D 
363.24625       GPS_NMEA_FROM_GPS    iGPS            $GPGGA,175003.000,4221.5107,N,07105.1975,W,2,10,0.90,-4.5,M,-33.7,M,0000,0000*7C 
364.14811       GPS_NMEA_FROM_GPS    iGPS            $GPGGA,175004.000,4221.5106,N,07105.1975,W,2,10,0.90,-4.5,M,-33.7,M,0000,0000*7A 
365.15052       GPS_NMEA_FROM_GPS    iGPS            $GPGGA,175005.000,4221.5105,N,07105.1977,W,2,10,0.90,-4.5,M,-33.7,M,0000,0000*7A 
366.25242       GPS_NMEA_FROM_GPS    iGPS            $GPGGA,175006.000,4221.5106,N,07105.1983,W,2,10,0.90,-4.5,M,-33.7,M,0000,0000*71 
367.15425       GPS_NMEA_FROM_GPS    iGPS            $GPGGA,175007.000,4221.5102,N,07105.1987,W,2,10,0.90,-4.5,M,-33.7,M,0000,0000*70 
368.15608       GPS_NMEA_FROM_GPS    iGPS            $GPGGA,175008.000,4221.5100,N,07105.1992,W,2,10,0.90,-4.5,M,-33.7,M,0000,0000*79 
369.15837       GPS_NMEA_FROM_GPS    iGPS            $GPGGA,175009.000,4221.5098,N,07105.1996,W,2,10,0.90,-4.5,M,-33.7,M,0000,0000*7C 
370.26047       GPS_NMEA_FROM_GPS    iGPS            $GPGSA,A,3,13,12,29,07,11,25,15,06,20,05,,,1.17,0.90,0.75*01 
371.16223       GPS_NMEA_FROM_GPS    iGPS            $GPGGA,175011.000,4221.5093,N,07105.2004,W,2,10,0.90,-4.6,M,-33.7,M,0000,0000*7C 
372.26443       GPS_NMEA_FROM_GPS    iGPS            $GPGSA,A,3,13,12,29,07,11,25,15,06,20,05,,,1.17,0.90,0.75*01 
373.16646       GPS_NMEA_FROM_GPS    iGPS            $GPGGA,175013.000,4221.5092,N,07105.2013,W,2,10,0.90,-4.7,M,-33.7,M,0000,0000*78 
374.26869       GPS_NMEA_FROM_GPS    iGPS            $GPGSA,A,3,13,12,29,07,11,25,15,06,20,05,,,1.17,0.90,0.75*01 
375.17048       GPS_NMEA_FROM_GPS    iGPS            $GPGGA,175015.000,4221.5095,N,07105.2025,W,2,10,0.90,-4.7,M,-33.7,M,0000,0000*7C 
376.27247       GPS_NMEA_FROM_GPS    iGPS            $GPGSA,A,3,13,12,29,07,11,25,15,06,20,05,,,1.17,0.90,0.75*01 
377.17440       GPS_NMEA_FROM_GPS    iGPS            $GPGGA,175017.000,4221.5093,N,07105.2031,W,2,10,0.90,-4.8,M,-33.7,M,0000,0000*72 
378.27645       GPS_NMEA_FROM_GPS    iGPS            $GPGSA,A,3,13,12,29,07,11,25,15,06,20,05,,,1.17,0.90,0.75*01 
379.27855       GPS_NMEA_FROM_GPS    iGPS            $GPGSA,A,3,13,12,29,07,11,25,15,06,20,05,,,1.17,0.90,0.75*01 
380.28056       GPS_NMEA_FROM_GPS    iGPS            $GPGSA,A,3,13,12,29,07,11,25,15,06,20,05,,,1.17,0.90,0.75*01 
381.18460       GPS_NMEA_FROM_GPS    iGPS            $GPGGA,175021.000,4221.5085,N,07105.2034,W,2,10,0.90,-4.8,M,-33.7,M,0000,0000*75 
382.18647       GPS_NMEA_FROM_GPS    iGPS            $GPGSA,A,3,13,12,29,07,11,25,15,06,20,05,,,1.17,0.90,0.75*01 
383.18831       GPS_NMEA_FROM_GPS    iGPS            $GPGGA,175023.000,4221.5083,N,07105.2033,W,2,10,0.90,-4.8,M,-33.7,M,0000,0000*76 
384.19028       GPS_NMEA_FROM_GPS    iGPS            $GPGGA,175024.000,4221.5083,N,07105.2033,W,2,10,0.90,-4.8,M,-33.7,M,0000,0000*71 
385.19264       GPS_NMEA_FROM_GPS    iGPS            $GPGGA,175025.000,4221.5083,N,07105.2032,W,2,10,0.90,-4.8,M,-33.7,M,0000,0000*71 
386.19455       GPS_NMEA_FROM_GPS    iGPS            $GPGSA,A,3,13,12,29,07,11,25,15,06,20,05,,,1.17,0.90,0.75*01 
387.29655       GPS_NMEA_FROM_GPS    iGPS            $GPGSA,A,3,13,12,29,07,11,25,15,06,20,05,,,1.17,0.90,0.75*01 
388.19822       GPS_NMEA_FROM_GPS    iGPS            $GPGGA,175028.000,4221.5084,N,07105.2029,W,2,10,0.90,-4.8,M,-33.7,M,0000,0000*71 
389.20071       GPS_NMEA_FROM_GPS    iGPS            $GPGSA,A,3,13,12,29,07,11,25,15,06,20,05,,,1.17,0.90,0.75*01 
390.20270       GPS_NMEA_FROM_GPS    iGPS            $GPGSA,A,3,13,12,29,07,11,25,15,06,20,05,,,1.17,0.90,0.75*01 
391.20455       GPS_NMEA_FROM_GPS    iGPS            $GPGGA,175031.000,4221.5092,N,07105.2029,W,2,10,0.90,-4.8,M,-33.7,M,0000,0000*7E 
392.20636       GPS_NMEA_FROM_GPS    iGPS            $GPGGA,175032.000,4221.5096,N,07105.2029,W,2,10,0.90,-4.8,M,-33.7,M,0000,0000*79 
393.20818       GPS_NMEA_FROM_GPS    iGPS            $GPGSA,A,3,13,12,29,07,11,25,15,06,20,05,,,1.46,0.94,1.12*01 
394.21011       GPS_NMEA_FROM_GPS    iGPS            $GPGGA,175034.000,4221.5106,N,07105.2032,W,2,10,0.94,-4.8,M,-33.7,M,0000,0000*79 
395.21199       GPS_NMEA_FROM_GPS    iGPS            $GPGSA,A,3,13,12,29,07,11,25,15,06,20,05,,,1.46,0.94,1.12*01 
396.21377       GPS_NMEA_FROM_GPS    iGPS            $GPGGA,175036.000,4221.5112,N,07105.2034,W,2,10,0.94,-4.7,M,-33.7,M,0000,0000*77 
397.21596       GPS_NMEA_FROM_GPS    iGPS            $GPGGA,175037.000,4221.5117,N,07105.2033,W,2,10,0.94,-4.6,M,-33.7,M,0000,0000*75 
398.21776       GPS_NMEA_FROM_GPS    iGPS            $GPGGA,175038.000,4221.5120,N,07105.2034,W,2,10,0.94,-4.5,M,-33.7,M,0000,0000*7A 
399.22457       GPS_NMEA_FROM_GPS    iGPS            $GPGGA,175039.000,4221.5123,N,07105.2036,W,2,10,0.94,-4.4,M,-33.7,M,0000,0000*7B 
400.22660       GPS_NMEA_FROM_GPS    iGPS            $GPGGA,175040.000,4221.5127,N,07105.2036,W,2,10,0.94,-4.3,M,-33.7,M,0000,0000*76 
401.22856       GPS_NMEA_FROM_GPS    iGPS            $GPGGA,175041.000,4221.5131,N,07105.2036,W,2,10,0.94,-4.2,M,-33.7,M,0000,0000*71 
402.23043       GPS_NMEA_FROM_GPS    iGPS            $GPGGA,175042.000,4221.5136,N,07105.2038,W,2,10,0.94,-4.1,M,-33.7,M,0000,0000*78 
