1.75486         IM300_RAW_NMEA       iM300           $CPNVG,174354.030,4221.49259,N,7105.20694,W,1,0,0,253.236822,nan,nan,174354.004*7A 
1.95546         IM300_RAW_NMEA       iM300           $CPIMU,174354.306,-6.042485,-2.990725,21.301285,-0.226345,0.853285,-8.780754*44 
1.95549         IM300_RAW_NMEA       iM300           $CPNVR,174354.308,0.584533,-1.170956,0,-2.990725,-6.042485,21.301285*57 
1.95551         IM300_RAW_NMEA       iM300           $GNGGA,174352.60,4221.49261,N,07105.20655,W,1,12,0.72,3.6,M,-33.2,M,,*76 
1.95557         IM300_RAW_NMEA       iM300           $GNVTG,84.36,T,,M,2.544,N,4.712,K,A*1D 
1.95559         IM300_RAW_NMEA       iM300           $GNRMC,174352.60,A,4221.49261,N,07105.20655,W,2.544,84.36,110723,,,A*50 
1.95616         IM300_RAW_NMEA       iM300           $CPALT,174354.270,1*60 
1.95618         IM300_RAW_NMEA       iM300           $CPNVG,174354.231,4221.4926,N,7105.20675,W,1,0,0,313.006938,nan,nan,174354.207*43 
2.15636         IM300_RAW_NMEA       iM300           $CPNVG,174354.481,4221.49261,N,7105.20655,W,1,0,0,26.52804,nan,nan,174354.459*7A 
2.25738         IM300_RAW_NMEA       iM300           $CPIMU,174354.507,15.625011,-2.868654,24.353045,-0.107783,0.833525,-8.908298*51 
2.25741         IM300_RAW_NMEA       iM300           $CPNVR,174354.510,1.233445,0.322043,0,-2.868654,15.625011,24.353045*6A 
2.25743         IM300_RAW_NMEA       iM300           $GNGGA,174352.80,4221.49260,N,07105.20637,W,1,12,0.72,3.5,M,-33.2,M,,*7E 
2.25749         IM300_RAW_NMEA       iM300           $GNVTG,89.28,T,,M,2.478,N,4.589,K,A*11 
2.25751         IM300_RAW_NMEA       iM300           $GNRMC,174352.80,A,4221.49260,N,07105.20637,W,2.478,89.28,110723,,,A*57 
2.35734         IM300_RAW_NMEA       iM300           $CPNVG,174354.681,4221.4926,N,7105.20637,W,1,0,0,104.632805,nan,nan,174354.659*4F 
2.45822         IM300_RAW_NMEA       iM300           $CPIMU,174354.711,-1.831056,-1.892091,27.404805,-0.274848,-0.147304,-8.514889*61 
2.45847         IM300_RAW_NMEA       iM300           $CPRCM,174354.714,0,104.796166,1.591509,-0.274468,174354.711*4E 
2.45849         IM300_RAW_NMEA       iM300           $CPNVR,174354.713,1.269309,0.268655,0,-1.892091,-1.831056,27.404805*76 
2.45851         IM300_RAW_NMEA       iM300           $GNGGA,174353.00,4221.49258,N,07105.20618,W,1,12,0.72,3.5,M,-33.2,M,,*71 
2.45858         IM300_RAW_NMEA       iM300           $GNVTG,95.61,T,,M,2.522,N,4.672,K,A*18 
2.45859         IM300_RAW_NMEA       iM300           $GNRMC,174353.00,A,4221.49258,N,07105.20618,W,2.522,95.61,110723,,,A*56 
2.55845         IM300_RAW_NMEA       iM300           $GNRMC,174353.20,A,4221.49254,N,07105.20600,W,2.553,100.31,110723,,,A*6F 
2.65876         IM300_RAW_NMEA       iM300           $CPNVG,174354.930,4221.49254,N,7105.206,W,1,0,0,192.660357,nan,nan,174354.912*7D 
2.65922         IM300_RAW_NMEA       iM300           $CPIMU,174354.912,-18.859877,10.620125,25.207538,-0.30359,0.765262,-9.016081*54 
2.65925         IM300_RAW_NMEA       iM300           $CPNVR,174354.914,-0.287854,1.281444,0,10.620125,-18.859877,25.207538*79 
2.65927         IM300_RAW_NMEA       iM300           $GNGGA,174353.20,4221.49254,N,07105.20600,W,1,12,0.72,3.5,M,-33.2,M,,*76 
2.65946         IM300_RAW_NMEA       iM300           $GNVTG,100.31,T,,M,2.553,N,4.728,K,A*28 
2.75911         IM300_RAW_NMEA       iM300           $GNRMC,174353.40,A,4221.49250,N,07105.20582,W,2.472,103.32,110723,,,A*66 
2.86016         IM300_RAW_NMEA       iM300           $CPNVG,174355.181,4221.4925,N,7105.20582,W,1,0,0,20.200061,nan,nan,174355.165*76 
2.86026         IM300_RAW_NMEA       iM300           $CPIMU,174355.114,1.586915,-3.112795,23.803728,0.28383,1.207174,-8.505907*7D 
2.86028         IM300_RAW_NMEA       iM300           $CPNVR,174355.117,0.439119,-1.193487,0,-3.112795,1.586915,23.803728*7F 
2.86030         IM300_RAW_NMEA       iM300           $GNTXT,01,01,00,txbuf alloc*61 
2.86031         IM300_RAW_NMEA       iM300           $GNGGA,174353.40,4221.49250,N,07105.20582,W,1,12,0.72,3.5,M,-33.2,M,,*7D 
2.86037         IM300_RAW_NMEA       iM300           $GNVTG,103.32,T,,M,2.472,N,4.577,K,A*22 
2.96005         IM300_RAW_NMEA       iM300           $GNRMC,174353.60,A,4221.49243,N,07105.20565,W,2.558,109.25,110723,,,A*6A 
2.96005         IM300_RAW_NMEA       iM300           $GNRMC,174353.60,A,4221.49243,N,07105.20565,W,2.558,109.25,110723,,,A*6A 
3.06100         IM300_RAW_NMEA       iM300           $CPIMU,174355.316,2.075197,-18.371595,25.390643,-0.186825,0.501193,-7.604119*5D 
3.06103         IM300_RAW_NMEA       iM300           $CPNVR,174355.319,0.853524,-1.001608,0,-18.371595,2.075197,25.390643*4A 
3.06105         IM300_RAW_NMEA       iM300           $GNVTG,109.25,T,,M,2.558,N,4.738,K,A*2E 
3.16183         IM300_RAW_NMEA       iM300           $GNRMC,174353.80,A,4221.49235,N,07105.20547,W,2.707,114.93,110723,,,A*6C 
3.16207         IM300_RAW_NMEA       iM300           $CPNVG,174355.432,4221.4925,N,7105.20582,W,1,0,0,40.436088,nan,nan,174355.416*78 
3.26284         IM300_RAW_NMEA       iM300           $CPIMU,174355.518,-2.197267,11.047371,24.29201,-0.873046,0.813765,-8.780754*67 
3.26287         IM300_RAW_NMEA       iM300           $CPRCM,174355.521,0,122.414601,5.316578,-5.888134,174355.518*41 
3.26289         IM300_RAW_NMEA       iM300           $CPNVR,174355.520,1.345125,-0.360524,0,11.047371,-2.197267,24.29201*76 
3.26291         IM300_RAW_NMEA       iM300           $GNGGA,174353.80,4221.49235,N,07105.20547,W,1,12,0.73,3.5,M,-33.2,M,,*7A 
3.26297         IM300_RAW_NMEA       iM300           $GNVTG,114.93,T,,M,2.707,N,5.013,K,A*28 
3.36379         IM300_RAW_NMEA       iM300           $GNRMC,174354.00,A,4221.49227,N,07105.20531,W,2.584,118.72,110723,,,A*6B 
3.36430         IM300_RAW_NMEA       iM300           $CPNVG,174355.632,4221.49235,N,7105.20547,W,1,0,0,74.996061,nan,nan,174355.619*4A 
3.46445         IM300_RAW_NMEA       iM300           $CPIMU,174355.769,7.446294,5.98145,22.705094,0.314368,0.637718,-8.947819*54 
3.46448         IM300_RAW_NMEA       iM300           $CPRCM,174355.771,0,129.352887,-0.677961,-4.662681,174355.769*60 
3.46450         IM300_RAW_NMEA       iM300           $CPNVR,174355.771,-0.815578,1.049731,0,5.98145,7.446294,22.705094*62 
3.46452         IM300_RAW_NMEA       iM300           $GNGSA,A,3,05,06,09,11,12,20,25,29,13,15,,,1.14,0.73,0.87*12 
3.46453         IM300_RAW_NMEA       iM300           $GNGGA,174354.00,4221.49227,N,07105.20531,W,1,12,0.73,3.5,M,-33.2,M,,*77 
3.46460         IM300_RAW_NMEA       iM300           $GNVTG,118.72,T,,M,2.584,N,4.786,K,A*28 
3.56434         IM300_RAW_NMEA       iM300           $GNRMC,174354.20,A,4221.49218,N,07105.20517,W,2.526,122.98,110723,,,A*64 
3.56459         IM300_RAW_NMEA       iM300           $CPNVG,174355.832,4221.49227,N,7105.20531,W,1,0,0,217.845056,nan,nan,174355.820*7E 
3.66584         IM300_RAW_NMEA       iM300           $CPIMU,174355.973,0.976563,-17.883314,24.108904,0.32335,0.608976,-7.839446*44 
3.66589         IM300_RAW_NMEA       iM300           $CPRCM,174355.976,0,134.091732,-0.502297,-3.886077,174355.973*62 
3.66591         IM300_RAW_NMEA       iM300           $CPNVR,174355.975,-0.574442,-1.165625,0,-17.883314,0.976563,24.108904*6D 
3.66593         IM300_RAW_NMEA       iM300           $CPRBS,174355.895,13.693447,13.693447,13.693447,0*70 
3.66601         IM300_RAW_NMEA       iM300           $GNGGA,174354.20,4221.49218,N,07105.20517,W,1,12,0.73,3.6,M,-33.2,M,,*7E 
3.66608         IM300_RAW_NMEA       iM300           $GNVTG,122.98,T,,M,2.526,N,4.679,K,A*2C 
3.76577         IM300_RAW_NMEA       iM300           $GNGGA,174354.40,4221.49208,N,07105.20502,W,1,12,0.73,3.6,M,-33.2,M,,*7D 
3.76585         IM300_RAW_NMEA       iM300           $GNVTG,127.38,T,,M,2.589,N,4.796,K,A*26 
3.76586         IM300_RAW_NMEA       iM300           $GNRMC,174354.40,A,4221.49208,N,07105.20502,W,2.589,127.38,110723,,,A*6D 
3.76608         IM300_RAW_NMEA       iM300           $CPNVG,174356.081,4221.49218,N,7105.20517,W,1,0,0,333.765035,nan,nan,174356.072*76 
3.86688         IM300_RAW_NMEA       iM300           $CPIMU,174356.173,-0.12207,2.075197,22.338883,-0.598198,0.75628,-8.369381*6C 
3.86692         IM300_RAW_NMEA       iM300           $CPRCM,174356.177,0,138.647899,2.641947,-4.525804,174356.173*4E 
3.86694         IM300_RAW_NMEA       iM300           $CPNVR,174356.176,1.317824,-0.193105,0,2.075197,-0.12207,22.338883*40 
3.96821         IM300_RAW_NMEA       iM300           $GNGGA,174354.60,4221.49197,N,07105.20489,W,1,12,0.73,3.6,M,-33.2,M,,*78 
3.96923         IM300_RAW_NMEA       iM300           $GNVTG,132.51,T,,M,2.576,N,4.771,K,A*24 
3.96976         IM300_RAW_NMEA       iM300           $GNRMC,174354.60,A,4221.49197,N,07105.20489,W,2.576,132.51,110723,,,A*63 
4.06956         IM300_RAW_NMEA       iM300           $CPIMU,174356.375,1.464845,9.948738,22.033707,-0.068263,0.490414,-9.271169*4B 
4.06976         IM300_RAW_NMEA       iM300           $CPNVR,174356.378,0.70742,1.120596,0,9.948738,1.464845,22.033707*4B 
4.07006         IM300_RAW_NMEA       iM300           $CPNVG,174356.332,4221.49197,N,7105.20489,W,1,0,0,147.736257,nan,nan,174356.324*7E 
4.17029         IM300_RAW_NMEA       iM300           $GNGSA,A,3,05,06,09,11,12,20,25,29,13,15,,,1.14,0.73,0.87*12 
4.17049         IM300_RAW_NMEA       iM300           $GNGGA,174354.80,4221.49185,N,07105.20479,W,1,12,0.73,3.6,M,-33.2,M,,*7A 
4.17113         IM300_RAW_NMEA       iM300           $GNVTG,137.58,T,,M,2.478,N,4.589,K,A*22 
4.17143         IM300_RAW_NMEA       iM300           $GNRMC,174354.80,A,4221.49185,N,07105.20479,W,2.478,137.58,110723,,,A*62 
4.27135         IM300_RAW_NMEA       iM300           $CPIMU,174356.578,-8.178717,-11.657723,22.216813,0.048503,0.176046,-8.250819*58 
4.27156         IM300_RAW_NMEA       iM300           $CPRCM,174356.581,0,148.327271,0.04814,-4.147754,174356.578*7C 
4.27186         IM300_RAW_NMEA       iM300           $CPNVR,174356.581,-0.771565,1.014783,0,-11.657723,-8.178717,22.216813*63 
4.27217         IM300_RAW_NMEA       iM300           $CPNVG,174356.531,4221.49185,N,7105.20479,W,1,0,0,217.246655,nan,nan,174356.494*79 
4.37181         IM300_RAW_NMEA       iM300           $GNGGA,174355.00,4221.49173,N,07105.20469,W,1,12,0.72,3.6,M,-33.2,M,,*7A 
4.37246         IM300_RAW_NMEA       iM300           $GNVTG,142.56,T,,M,2.483,N,4.598,K,A*2A 
4.37276         IM300_RAW_NMEA       iM300           $GNRMC,174355.00,A,4221.49173,N,07105.20469,W,2.483,142.56,110723,,,A*6B 
4.47212         IM300_RAW_NMEA       iM300           $CPNVG,174356.782,4221.49173,N,7105.20469,W,1,0,0,291.913673,nan,nan,174356.727*71 
4.57275         IM300_RAW_NMEA       iM300           $GNGGA,174355.20,4221.49161,N,07105.20459,W,1,12,0.72,3.6,M,-33.2,M,,*78 
4.57330         IM300_RAW_NMEA       iM300           $GNVTG,146.13,T,,M,2.610,N,4.834,K,A*2C 
4.57360         IM300_RAW_NMEA       iM300           $GNRMC,174355.20,A,4221.49161,N,07105.20459,W,2.610,146.13,110723,,,A*64 
4.57714         IM300_RAW_NMEA       iM300           $CPIMU,174356.778,-15.075694,-7.446294,20.324722,-0.705981,0.804783,-7.907709*7C 
4.57755         IM300_RAW_NMEA       iM300           $CPNVR,174356.784,-1.185072,-0.476725,0,-7.446294,-15.075694,20.324722*42 
4.67217         IM300_RAW_NMEA       iM300           $CPIMU,174356.980,3.906253,9.643562,19.287123,-0.422152,1.570045,-8.91728*7A 
4.67220         IM300_RAW_NMEA       iM300           $CPNVR,174356.982,1.341283,-0.061664,0,9.643562,3.906253,19.287123*50 
4.77373         IM300_RAW_NMEA       iM300           $GNGGA,174355.40,4221.49148,N,07105.20450,W,1,12,0.72,3.6,M,-33.2,M,,*7C 
4.77422         IM300_RAW_NMEA       iM300           $GNVTG,149.96,T,,M,2.556,N,4.733,K,A*27 
4.77442         IM300_RAW_NMEA       iM300           $GNRMC,174355.40,A,4221.49148,N,07105.20450,W,2.556,149.96,110723,,,A*63 
4.77735         IM300_RAW_NMEA       iM300           $CPNVG,174357.030,4221.49161,N,7105.20459,W,1,0,0,87.36774,nan,nan,174356.980*70 
4.87459         IM300_RAW_NMEA       iM300           $CPNVG,174357.231,4221.49148,N,7105.2045,W,1,0,0,227.924904,nan,nan,174357.182*41 
4.87505         IM300_RAW_NMEA       iM300           $CPIMU,174357.182,21.606461,2.197267,21.36232,0.195807,0.578438,-8.505907*6F 
4.87523         IM300_RAW_NMEA       iM300           $CPRCM,174357.186,0,161.511623,-0.067168,-6.058037,174357.182*60 
4.87542         IM300_RAW_NMEA       iM300           $CPNVR,174357.185,-0.976022,0.881133,0,2.197267,21.606461,21.36232*54 
4.97535         IM300_RAW_NMEA       iM300           $GNGGA,174355.60,4221.49134,N,07105.20445,W,1,12,0.72,3.6,M,-33.2,M,,*71 
4.97578         IM300_RAW_NMEA       iM300           $GNVTG,156.10,T,,M,2.522,N,4.672,K,A*20 
4.97597         IM300_RAW_NMEA       iM300           $GNRMC,174355.60,A,4221.49134,N,07105.20445,W,2.522,156.10,110723,,,A*6D 
4.97845         IM300_RAW_NMEA       iM300           $CPALT,174357.271,1*62 
5.07534         IM300_RAW_NMEA       iM300           $CPIMU,174357.383,-5.187992,-8.361822,24.53615,0.186825,-0.441912,-8.32986*41 
5.07555         IM300_RAW_NMEA       iM300           $CPRCM,174357.386,0,165.322451,0.023129,-2.751659,174357.383*48 
5.07574         IM300_RAW_NMEA       iM300           $CPNVR,174357.385,-1.077246,0.723093,0,-8.361822,-5.187992,24.53615*67 
5.17554         IM300_RAW_NMEA       iM300           $GNGGA,174355.80,4221.49119,N,07105.20439,W,1,12,0.72,3.6,M,-33.2,M,,*7B 
5.17596         IM300_RAW_NMEA       iM300           $GNVTG,160.49,T,,M,2.681,N,4.965,K,A*2A 
5.17615         IM300_RAW_NMEA       iM300           $GNRMC,174355.80,A,4221.49119,N,07105.20439,W,2.681,160.49,110723,,,A*64 
5.17776         IM300_RAW_NMEA       iM300           $CPNVG,174357.481,4221.49134,N,7105.20445,W,1,0,0,236.128818,nan,nan,174357.434*73 
5.27568         IM300_RAW_NMEA       iM300           $CPNVR,174357.591,-0.366254,-1.329707,0,2.502443,-10.131843,23.559587*66 
5.37780         IM300_RAW_NMEA       iM300           $CPNVG,174357.731,4221.49104,N,7105.20434,W,1,0,0,231.72766,nan,nan,174357.701*44 
5.37851         IM300_RAW_NMEA       iM300           $GNGGA,174356.00,4221.49104,N,07105.20434,W,1,12,0.72,3.6,M,-33.2,M,,*71 
5.37918         IM300_RAW_NMEA       iM300           $GNVTG,162.46,T,,M,2.755,N,5.103,K,A*26 
5.37957         IM300_RAW_NMEA       iM300           $GNRMC,174356.00,A,4221.49104,N,07105.20434,W,2.755,162.46,110723,,,A*6B 
5.38138         IM300_RAW_NMEA       iM300           $CPIMU,174357.588,-10.131843,2.502443,23.559587,-0.696999,1.02035,-8.554409*66 
5.57872         IM300_RAW_NMEA       iM300           $GNGGA,174356.20,4221.49090,N,07105.20432,W,1,12,0.72,3.6,M,-33.2,M,,*79 
5.57952         IM300_RAW_NMEA       iM300           $GNVTG,167.52,T,,M,2.700,N,5.000,K,A*24 
5.57985         IM300_RAW_NMEA       iM300           $GNRMC,174356.20,A,4221.49090,N,07105.20432,W,2.700,167.52,110723,,,A*63 
5.58265         IM300_RAW_NMEA       iM300           $CPIMU,174357.838,15.441906,4.089358,15.625011,-0.107783,0.501193,-8.721473*7D 
5.58267         IM300_RAW_NMEA       iM300           $CPRCM,174357.841,0,175.084406,-0.20769,-5.32237,174357.838*6A 
5.58268         IM300_RAW_NMEA       iM300           $CPNVR,174357.841,-1.112683,0.877872,0,4.089358,15.441906,15.625011*69 
5.67866         IM300_RAW_NMEA       iM300           $CPRBS,174357.994,14.225503,14.225503,14.225503,0*7D 
5.67935         IM300_RAW_NMEA       iM300           $CPNVG,174357.981,4221.4909,N,7105.20432,W,1,0,0,301.811016,nan,nan,174357.938*40 
5.77986         IM300_RAW_NMEA       iM300           $GNGGA,174356.40,4221.49074,N,07105.20431,W,1,12,0.73,3.6,M,-33.2,M,,*77 
5.78057         IM300_RAW_NMEA       iM300           $GNVTG,172.23,T,,M,2.663,N,4.932,K,A*2B 
5.78088         IM300_RAW_NMEA       iM300           $GNRMC,174356.40,A,4221.49074,N,07105.20431,W,2.663,172.23,110723,,,A*6A 
5.78303         IM300_RAW_NMEA       iM300           $CPIMU,174358.041,-17.272962,-0.427246,16.723645,-0.008982,-0.598198,-8.672971*54 
5.78305         IM300_RAW_NMEA       iM300           $CPRCM,174358.044,0,180.408282,-0.050677,-3.264463,174358.041*68 
5.78307         IM300_RAW_NMEA       iM300           $CPNVR,174358.043,-1.18036,-0.732169,0,-0.427246,-17.272962,16.723645*70 
5.88008         IM300_RAW_NMEA       iM300           $CPNVG,174358.231,4221.49074,N,7105.20431,W,1,0,0,31.947894,nan,nan,174358.190*43 
5.98126         IM300_RAW_NMEA       iM300           $GNVTG,173.26,T,,M,2.670,N,4.946,K,A*2E 
5.98174         IM300_RAW_NMEA       iM300           $GNRMC,174356.60,A,4221.49059,N,07105.20429,W,2.670,173.26,110723,,,A*68 
5.98345         IM300_RAW_NMEA       iM300           $CPIMU,174358.242,-17.822278,0.610352,15.502941,0.008982,1.451483,-8.279562*77 
5.98347         IM300_RAW_NMEA       iM300           $CPRCM,174358.245,0,184.893868,-0.149226,-9.517633,174358.242*69 
5.98349         IM300_RAW_NMEA       iM300           $CPNVR,174358.245,0.724914,-1.162456,0,0.610352,-17.822278,15.502941*4B 
6.08159         IM300_RAW_NMEA       iM300           $CPNVG,174358.432,4221.49074,N,7105.20431,W,1,0,0,332.933242,nan,nan,174358.393*75 
6.18195         IM300_RAW_NMEA       iM300           $GNGSA,A,3,82,81,67,68,83,74,69,,,,,,1.14,0.73,0.87*18 
6.18233         IM300_RAW_NMEA       iM300           $GNGSA,A,3,05,06,09,11,12,20,25,29,13,15,,,1.14,0.73,0.87*12 
6.18265         IM300_RAW_NMEA       iM300           $GNGGA,174356.80,4221.49043,N,07105.20430,W,1,12,0.73,3.6,M,-33.2,M,,*7E 
6.18331         IM300_RAW_NMEA       iM300           $GNVTG,177.46,T,,M,2.706,N,5.012,K,A*25 
6.18369         IM300_RAW_NMEA       iM300           $GNRMC,174356.80,A,4221.49043,N,07105.20430,W,2.706,177.46,110723,,,A*67 
6.18519         IM300_RAW_NMEA       iM300           $CPIMU,174358.444,26.06203,0.671387,9.643562,0.136526,1.393999,-8.191538*58 
6.18521         IM300_RAW_NMEA       iM300           $CPRCM,174358.447,0,189.544067,-0.759751,-10.202777,174358.444*58 
6.18523         IM300_RAW_NMEA       iM300           $CPNVR,174358.446,-0.625012,-1.223129,0,0.671387,26.06203,9.643562*43 
6.38370         IM300_RAW_NMEA       iM300           $GNGGA,174357.00,4221.49028,N,07105.20434,W,1,12,0.73,3.6,M,-33.2,M,,*7E 
6.38438         IM300_RAW_NMEA       iM300           $GNVTG,183.50,T,,M,2.822,N,5.227,K,A*24 
6.38457         IM300_RAW_NMEA       iM300           $GNRMC,174357.00,A,4221.49028,N,07105.20434,W,2.822,183.50,110723,,,A*62 
6.38601         IM300_RAW_NMEA       iM300           $CPNVG,174358.681,4221.49043,N,7105.2043,W,1,0,0,92.290968,nan,nan,174358.646*7F 
6.38607         IM300_RAW_NMEA       iM300           $CPIMU,174358.646,7.385259,-2.380373,9.765632,0.382631,-0.725742,-8.369381*54 
6.38650         IM300_RAW_NMEA       iM300           $CPNVR,174358.649,1.390974,0.055648,0,-2.380373,7.385259,9.765632*67 
6.58481         IM300_RAW_NMEA       iM300           $CPNVG,174358.931,4221.49011,N,7105.20436,W,1,0,0,13.978254,nan,nan,174358.897*48 
6.58549         IM300_RAW_NMEA       iM300           $GNGGA,174357.20,4221.49011,N,07105.20436,W,1,12,0.73,3.6,M,-33.2,M,,*74 
6.58613         IM300_RAW_NMEA       iM300           $GNVTG,185.11,T,,M,2.910,N,5.390,K,A*2A 
6.58632         IM300_RAW_NMEA       iM300           $GNRMC,174357.20,A,4221.49011,N,07105.20436,W,2.910,185.11,110723,,,A*6B 
6.58849         IM300_RAW_NMEA       iM300           $CPIMU,174358.847,-21.972672,0.549317,8.117682,0.079041,-0.079041,-8.672971*6C 
6.58851         IM300_RAW_NMEA       iM300           $CPNVR,174358.850,1.393945,0.405624,0,0.549317,-21.972672,8.117682*5A 
6.78474         IM300_RAW_NMEA       iM300           $CPIMU,174359.049,5.187992,7.50733,0.488282,0.490414,0.901788,-8.879556*66 
6.78477         IM300_RAW_NMEA       iM300           $CPNVR,174359.052,0.361614,-1.452702,0,7.50733,5.187992,0.488282*52 
6.88546         IM300_RAW_NMEA       iM300           $CPNVG,174359.181,4221.48995,N,7105.2044,W,1,0,0,305.796277,nan,nan,174359.151*46 
6.88556         IM300_RAW_NMEA       iM300           $GNGGA,174357.40,4221.48995,N,07105.20440,W,1,12,0.73,3.6,M,-33.2,M,,*77 
6.88604         IM300_RAW_NMEA       iM300           $GNVTG,186.30,T,,M,2.942,N,5.448,K,A*2F 
6.88606         IM300_RAW_NMEA       iM300           $GNRMC,174357.40,A,4221.48995,N,07105.20440,W,2.942,186.30,110723,,,A*6F 
6.98613         IM300_RAW_NMEA       iM300           $GNGGA,174357.60,4221.48978,N,07105.20444,W,1,12,0.73,3.6,M,-33.2,M,,*72 
6.98636         IM300_RAW_NMEA       iM300           $GNVTG,188.96,T,,M,3.067,N,5.680,K,A*24 
6.98638         IM300_RAW_NMEA       iM300           $GNRMC,174357.60,A,4221.48978,N,07105.20444,W,3.067,188.96,110723,,,A*67 
6.98660         IM300_RAW_NMEA       iM300           $CPIMU,174359.250,18.249525,-15.747082,2.380373,0.558677,-0.147304,-7.87717*65 
6.98662         IM300_RAW_NMEA       iM300           $CPRCM,174359.253,0,204.936202,-3.322641,1.648514,174359.250*4D 
6.98663         IM300_RAW_NMEA       iM300           $CPNVR,174359.253,-1.227599,-0.885251,0,-15.747082,18.249525,2.380373*61 
7.08678         IM300_RAW_NMEA       iM300           $CPNVG,174359.431,4221.48978,N,7105.20444,W,1,0,0,153.389503,nan,nan,174359.402*73 
7.18661         IM300_RAW_NMEA       iM300           $GNGGA,174357.80,4221.48960,N,07105.20449,W,1,12,0.73,3.6,M,-33.2,M,,*78 
7.18669         IM300_RAW_NMEA       iM300           $GNVTG,189.96,T,,M,3.251,N,6.020,K,A*2D 
7.18671         IM300_RAW_NMEA       iM300           $GNRMC,174357.80,A,4221.48960,N,07105.20449,W,3.251,189.96,110723,,,A*6B 
7.18692         IM300_RAW_NMEA       iM300           $CPIMU,174359.452,-15.502941,8.972174,1.098634,-0.461672,-0.441912,-8.162796*48 
7.18694         IM300_RAW_NMEA       iM300           $CPNVR,174359.454,0.706733,1.410668,0,8.972174,-15.502941,1.098634*52 
7.28754         IM300_RAW_NMEA       iM300           $CPNVG,174359.631,4221.4896,N,7105.20449,W,1,0,0,96.093724,nan,nan,174359.603*71 
7.38834         IM300_RAW_NMEA       iM300           $GNGGA,174358.00,4221.48942,N,07105.20453,W,1,12,0.73,3.6,M,-33.2,M,,*74 
7.38842         IM300_RAW_NMEA       iM300           $GNVTG,189.69,T,,M,3.138,N,5.811,K,A*28 
7.38844         IM300_RAW_NMEA       iM300           $GNRMC,174358.00,A,4221.48942,N,07105.20453,W,3.138,189.69,110723,,,A*6B 
7.38865         IM300_RAW_NMEA       iM300           $CPIMU,174359.654,-3.356936,8.422858,-0.976563,0.373649,0.725742,-9.33045*6C 
7.38866         IM300_RAW_NMEA       iM300           $CPNVR,174359.656,1.663009,0.17754,0,8.422858,-3.356936,-0.976563*78 
7.48952         IM300_RAW_NMEA       iM300           $CPNVG,174359.831,4221.48942,N,7105.20453,W,1,0,0,111.563584,nan,nan,174359.805*70 
7.59043         IM300_RAW_NMEA       iM300           $GNGGA,174358.20,4221.48925,N,07105.20459,W,1,12,0.73,3.7,M,-33.2,M,,*7C 
7.59051         IM300_RAW_NMEA       iM300           $GNVTG,191.47,T,,M,3.191,N,5.910,K,A*2E 
7.59052         IM300_RAW_NMEA       iM300           $GNRMC,174358.20,A,4221.48925,N,07105.20459,W,3.191,191.47,110723,,,A*64 
7.59125         IM300_RAW_NMEA       iM300           $CPIMU,174359.854,18.005384,-8.605963,0.671387,0.314368,-0.01976,-7.672382*5E 
7.59127         IM300_RAW_NMEA       iM300           $CPRCM,174359.858,0,204.560484,-2.016152,-0.32841,174359.854*5F 
7.59129         IM300_RAW_NMEA       iM300           $CPNVR,174359.858,1.50134,0.593319,0,-8.605963,18.005384,0.671387*6E 
7.69092         IM300_RAW_NMEA       iM300           $CPNVG,174400.031,4221.48925,N,7105.20459,W,1,0,0,9.577097,nan,nan,174400.007*73 
7.69102         IM300_RAW_NMEA       iM300           $CPRBS,174359.994,13.532655,13.532655,13.532655,0*75 
7.79171         IM300_RAW_NMEA       iM300           $CPIMU,174400.057,-21.118179,0.671387,2.075197,-0.246105,-0.804783,-8.191538*48 
7.79183         IM300_RAW_NMEA       iM300           $CPRCM,174400.060,0,207.177702,2.390357,4.680071,174400.057*61 
7.79185         IM300_RAW_NMEA       iM300           $CPNVR,174400.060,0.273119,-1.618713,0,0.671387,-21.118179,2.075197*76 
7.89264         IM300_RAW_NMEA       iM300           $GNGSA,A,3,05,06,09,11,12,20,25,29,13,15,,,1.14,0.73,0.87*12 
7.89267         IM300_RAW_NMEA       iM300           $GNGGA,174358.40,4221.48907,N,07105.20464,W,1,12,0.73,3.7,M,-33.2,M,,*74 
7.89273         IM300_RAW_NMEA       iM300           $GNVTG,192.52,T,,M,3.271,N,6.057,K,A*2D 
7.89275         IM300_RAW_NMEA       iM300           $GNRMC,174358.40,A,4221.48907,N,07105.20464,W,3.271,192.52,110723,,,A*66 
7.99377         IM300_RAW_NMEA       iM300           $GNGGA,174358.60,4221.48889,N,07105.20468,W,1,12,0.73,3.7,M,-33.2,M,,*7D 
7.99390         IM300_RAW_NMEA       iM300           $GNVTG,190.68,T,,M,3.264,N,6.046,K,A*22 
7.99391         IM300_RAW_NMEA       iM300           $GNRMC,174358.60,A,4221.48889,N,07105.20468,W,3.264,190.68,110723,,,A*60 
7.99413         IM300_RAW_NMEA       iM300           $CPNVG,174400.280,4221.48907,N,7105.20464,W,1,0,0,309.416528,nan,nan,174400.261*73 
7.99419         IM300_RAW_NMEA       iM300           $CPALT,174400.271,1*67 
7.99421         IM300_RAW_NMEA       iM300           $CPIMU,174400.261,-6.347661,6.896978,-1.708986,0.167064,0.941308,-9.075362*5E 
7.99423         IM300_RAW_NMEA       iM300           $CPRCM,174400.264,0,199.54843,-1.328272,-4.706714,174400.261*53 
7.99424         IM300_RAW_NMEA       iM300           $CPNVR,174400.264,-1.300008,-1.068466,0,6.896978,-6.347661,-1.708986*4B 
8.19461         IM300_RAW_NMEA       iM300           $GNGGA,174358.80,4221.48871,N,07105.20472,W,1,12,0.73,3.7,M,-33.2,M,,*7F 
8.19470         IM300_RAW_NMEA       iM300           $GNVTG,190.97,T,,M,3.256,N,6.030,K,A*22 
8.19471         IM300_RAW_NMEA       iM300           $GNRMC,174358.80,A,4221.48871,N,07105.20472,W,3.256,190.97,110723,,,A*63 
8.19492         IM300_RAW_NMEA       iM300           $CPIMU,174400.462,26.367206,-0.488282,-1.64795,0.461672,0.470654,-8.123276*52 
8.19494         IM300_RAW_NMEA       iM300           $CPNVR,174400.464,1.372794,-0.966938,0,-0.488282,26.367206,-1.64795*68 
8.29456         IM300_RAW_NMEA       iM300           $CPNVG,174400.531,4221.48871,N,7105.20472,W,1,0,0,38.224986,nan,nan,174400.513*45 
8.39540         IM300_RAW_NMEA       iM300           $GNGGA,174359.00,4221.48853,N,07105.20479,W,1,12,0.73,3.7,M,-33.2,M,,*7D 
8.39570         IM300_RAW_NMEA       iM300           $GNVTG,192.50,T,,M,3.296,N,6.105,K,A*20 
8.39572         IM300_RAW_NMEA       iM300           $GNRMC,174359.00,A,4221.48853,N,07105.20479,W,3.296,192.50,110723,,,A*64 
8.39593         IM300_RAW_NMEA       iM300           $CPIMU,174400.662,8.911139,-6.835942,0.061035,0.411373,-1.07963,-8.055013*66 
8.39595         IM300_RAW_NMEA       iM300           $CPRCM,174400.665,0,208.802838,-2.118044,5.765787,174400.662*4B 
8.39597         IM300_RAW_NMEA       iM300           $CPNVR,174400.665,1.036427,-1.315883,0,-6.835942,8.911139,0.061035*4A 
8.49560         IM300_RAW_NMEA       iM300           $CPNVG,174400.781,4221.48853,N,7105.20479,W,1,0,0,310.562444,nan,nan,174400.764*7A 
8.59694         IM300_RAW_NMEA       iM300           $GNGGA,174359.20,4221.48835,N,07105.20483,W,1,12,0.73,3.7,M,-33.2,M,,*7A 
8.59703         IM300_RAW_NMEA       iM300           $GNVTG,191.92,T,,M,3.374,N,6.249,K,A*2B 
8.59704         IM300_RAW_NMEA       iM300           $GNRMC,174359.20,A,4221.48835,N,07105.20483,W,3.374,191.92,110723,,,A*63 
8.59725         IM300_RAW_NMEA       iM300           $CPIMU,174400.865,-24.475115,0.305176,-0.366211,0.195807,-0.510175,-8.378363*48 
8.59752         IM300_RAW_NMEA       iM300           $CPNVR,174400.868,-1.28815,-1.102614,0,0.305176,-24.475115,-0.366211*41 
8.69663         IM300_RAW_NMEA       iM300           $CPNVG,174401.030,4221.48835,N,7105.20483,W,1,0,0,343.793996,nan,nan,174401.016*78 
8.79750         IM300_RAW_NMEA       iM300           $GNVTG,190.11,T,,M,3.327,N,6.161,K,A*2E 
8.79753         IM300_RAW_NMEA       iM300           $GNRMC,174359.40,A,4221.48816,N,07105.20487,W,3.327,190.11,110723,,,A*6C 
8.79778         IM300_RAW_NMEA       iM300           $GNTXT,01,01,00,txbuf alloc*61 
8.79780         IM300_RAW_NMEA       iM300           $CPIMU,174401.068,-1.64795,11.657723,-6.347661,0.079041,0.844303,-8.89752*63 
8.79782         IM300_RAW_NMEA       iM300           $CPNVR,174401.071,-0.484429,-1.666765,0,11.657723,-1.64795,-6.347661*4D 
8.99809         IM300_RAW_NMEA       iM300           $GNVTG,190.95,T,,M,3.207,N,5.940,K,A*29 
8.99812         IM300_RAW_NMEA       iM300           $GNRMC,174359.60,A,4221.48799,N,07105.20492,W,3.207,190.95,110723,,,A*6D 
8.99834         IM300_RAW_NMEA       iM300           $CPNVG,174401.280,4221.48835,N,7105.20483,W,1,0,0,87.499357,nan,nan,174401.268*4F 
8.99841         IM300_RAW_NMEA       iM300           $CPIMU,174401.268,13.977061,-4.333499,-5.615238,0.501193,-0.255087,-8.437644*46 
8.99843         IM300_RAW_NMEA       iM300           $CPNVR,174401.271,1.709927,-0.074676,0,-4.333499,13.977061,-5.615238*5D 
9.19973         IM300_RAW_NMEA       iM300           $GNGGA,174359.80,4221.48781,N,07105.20497,W,1,12,0.73,3.7,M,-33.2,M,,*75 
9.19982         IM300_RAW_NMEA       iM300           $GNVTG,191.03,T,,M,3.276,N,6.067,K,A*2E 
9.19983         IM300_RAW_NMEA       iM300           $GNRMC,174359.80,A,4221.48781,N,07105.20497,W,3.276,191.03,110723,,,A*67 
9.20004         IM300_RAW_NMEA       iM300           $CPIMU,174401.469,-10.070808,-9.948738,0.305176,0.246105,-0.362871,-7.859206*46 
9.20006         IM300_RAW_NMEA       iM300           $CPRCM,174401.473,0,202.980161,-1.427586,2.097117,174401.469*40 
9.20007         IM300_RAW_NMEA       iM300           $CPNVR,174401.472,1.046546,-1.275406,0,-9.948738,-10.070808,0.305176*59 
9.29969         IM300_RAW_NMEA       iM300           $CPNVG,174401.531,4221.48781,N,7105.20497,W,1,0,0,34.78724,nan,nan,174401.520*7F 
9.40064         IM300_RAW_NMEA       iM300           $GNGSA,A,3,82,81,67,68,83,74,69,,,,,,1.14,0.73,0.87*18 
9.40067         IM300_RAW_NMEA       iM300           $GNGSA,A,3,05,06,09,11,12,20,25,29,13,15,,,1.14,0.73,0.87*12 
9.40069         IM300_RAW_NMEA       iM300           $GNGGA,174400.00,4221.48762,N,07105.20500,W,1,12,0.73,3.7,M,-33.2,M,,*74 
9.40075         IM300_RAW_NMEA       iM300           $GNVTG,189.57,T,,M,3.320,N,6.148,K,A*28 
9.40077         IM300_RAW_NMEA       iM300           $GNRMC,174400.00,A,4221.48762,N,07105.20500,W,3.320,189.57,110723,,,A*6C 
9.40098         IM300_RAW_NMEA       iM300           $CPIMU,174401.672,0.610352,6.408696,-0.183106,0.068263,0.353889,-8.752012*77 
9.40100         IM300_RAW_NMEA       iM300           $CPNVR,174401.674,0.961527,-1.384113,0,6.408696,0.610352,-0.183106*49 
9.50088         IM300_RAW_NMEA       iM300           $CPNVG,174401.781,4221.48762,N,7105.205,W,1,0,0,118.439078,nan,nan,174401.772*71 
9.60173         IM300_RAW_NMEA       iM300           $GNGGA,174400.20,4221.48744,N,07105.20504,W,1,12,0.73,3.7,M,-33.2,M,,*76 
9.60181         IM300_RAW_NMEA       iM300           $GNVTG,189.57,T,,M,3.247,N,6.013,K,A*27 
9.60183         IM300_RAW_NMEA       iM300           $GNRMC,174400.20,A,4221.48744,N,07105.20504,W,3.247,189.57,110723,,,A*6E 
9.60204         IM300_RAW_NMEA       iM300           $CPIMU,174401.873,2.990725,4.272464,1.281739,0.186825,-0.156286,-8.741234*7A 
9.60206         IM300_RAW_NMEA       iM300           $CPRCM,174401.876,0,200.426147,-1.469709,0.966752,174401.873*44 
9.60211         IM300_RAW_NMEA       iM300           $CPNVR,174401.875,1.501846,0.81337,0,4.272464,2.990725,1.281739*79 
9.70182         IM300_RAW_NMEA       iM300           $CPNVG,174402.029,4221.48744,N,7105.20504,W,1,0,0,118.439078,nan,nan,174402.025*71 
9.70192         IM300_RAW_NMEA       iM300           $CPRBS,174401.995,13.517299,13.517299,13.517299,0*7D 
9.80273         IM300_RAW_NMEA       iM300           $GNGGA,174400.40,4221.48726,N,07105.20508,W,1,12,0.73,3.8,M,-33.2,M,,*77 
9.80281         IM300_RAW_NMEA       iM300           $GNVTG,189.19,T,,M,3.221,N,5.966,K,A*25 
9.80282         IM300_RAW_NMEA       iM300           $GNRMC,174400.40,A,4221.48726,N,07105.20508,W,3.221,189.19,110723,,,A*6A 
9.80304         IM300_RAW_NMEA       iM300           $CPIMU,174402.075,-5.310062,0.915528,1.52588,0.402391,-0.136526,-8.486146*60 
9.80306         IM300_RAW_NMEA       iM300           $CPRCM,174402.077,0,197.571587,-4.256101,0.459417,174402.075*47 
9.80307         IM300_RAW_NMEA       iM300           $CPNVR,174402.077,1.468824,0.795485,0,0.915528,-5.310062,1.52588*59 
9.90270         IM300_RAW_NMEA       iM300           $CPNVG,174402.230,4221.48726,N,7105.20508,W,1,0,0,140.211474,nan,nan,174402.175*7E 
10.00359        IM300_RAW_NMEA       iM300           $GNGGA,174400.60,4221.48708,N,07105.20511,W,1,12,0.73,3.8,M,-33.2,M,,*71 
10.00367        IM300_RAW_NMEA       iM300           $GNVTG,188.12,T,,M,3.263,N,6.042,K,A*25 
10.00368        IM300_RAW_NMEA       iM300           $GNRMC,174400.60,A,4221.48708,N,07105.20511,W,3.263,188.12,110723,,,A*60 
10.00394        IM300_RAW_NMEA       iM300           $CPIMU,174402.276,2.990725,-9.887702,3.784182,0.441912,0.657479,-7.819686*77 
10.00396        IM300_RAW_NMEA       iM300           $CPRCM,174402.282,0,196.868169,-2.92553,-4.339668,174402.276*53 
10.00397        IM300_RAW_NMEA       iM300           $CPNVR,174402.280,1.060423,1.273278,0,-9.887702,2.990725,3.784182*64 
10.10358        IM300_RAW_NMEA       iM300           $CPNVG,174402.432,4221.48708,N,7105.20511,W,1,0,0,201.517958,nan,nan,174402.377*7A 
10.20449        IM300_RAW_NMEA       iM300           $GNGGA,174400.80,4221.48689,N,07105.20515,W,1,12,0.73,3.8,M,-33.2,M,,*73 
10.20457        IM300_RAW_NMEA       iM300           $GNVTG,188.59,T,,M,3.384,N,6.268,K,A*28 
10.20459        IM300_RAW_NMEA       iM300           $GNRMC,174400.80,A,4221.48689,N,07105.20515,W,3.384,188.59,110723,,,A*65 
10.20481        IM300_RAW_NMEA       iM300           $CPIMU,174402.479,0.366211,7.75147,1.892091,-0.167064,0.028742,-8.554409*4A 
10.20483        IM300_RAW_NMEA       iM300           $CPRCM,174402.482,0,200.688345,2.11913,0.820355,174402.479*53 
10.20485        IM300_RAW_NMEA       iM300           $CPNVR,174402.482,-0.61571,1.561636,0,7.75147,0.366211,1.892091*6A 
10.40523        IM300_RAW_NMEA       iM300           $GNGGA,174401.00,4221.48672,N,07105.20519,W,1,12,0.73,3.8,M,-33.2,M,,*72 
10.40531        IM300_RAW_NMEA       iM300           $GNVTG,189.25,T,,M,3.203,N,5.932,K,A*2B 
10.40533        IM300_RAW_NMEA       iM300           $GNRMC,174401.00,A,4221.48672,N,07105.20519,W,3.203,189.25,110723,,,A*60 
10.40554        IM300_RAW_NMEA       iM300           $CPIMU,174402.681,1.40381,5.554203,1.159669,0.696999,0.039521,-9.016081*67 
10.40556        IM300_RAW_NMEA       iM300           $CPRCM,174402.684,0,200.511915,-3.932662,-0.014365,174402.681*62 
10.40557        IM300_RAW_NMEA       iM300           $CPNVR,174402.683,0.164166,1.733122,0,5.554203,1.40381,1.159669*73 
10.40559        IM300_RAW_NMEA       iM300           $CPNVG,174402.681,4221.48689,N,7105.20515,W,1,0,0,174.588942,nan,nan,174402.630*76 
10.60602        IM300_RAW_NMEA       iM300           $CPNVG,174402.931,4221.48654,N,7105.20523,W,1,0,0,124.168656,nan,nan,174402.896*70 
10.60611        IM300_RAW_NMEA       iM300           $GNGGA,174401.20,4221.48654,N,07105.20523,W,1,12,0.73,3.8,M,-33.2,M,,*7D 
10.60617        IM300_RAW_NMEA       iM300           $GNVTG,189.47,T,,M,3.185,N,5.899,K,A*22 
10.60618        IM300_RAW_NMEA       iM300           $GNRMC,174401.20,A,4221.48654,N,07105.20523,W,3.185,189.47,110723,,,A*66 
10.60638        IM300_RAW_NMEA       iM300           $CPIMU,174402.882,12.390146,-19.71437,1.40381,0.510175,0.186825,-7.749626*75 
10.60639        IM300_RAW_NMEA       iM300           $CPRCM,174402.885,0,203.525255,-3.215265,-1.452972,174402.882*6D 
10.60641        IM300_RAW_NMEA       iM300           $CPNVR,174402.884,1.128524,1.200652,0,-19.71437,12.390146,1.40381*68 
10.80677        IM300_RAW_NMEA       iM300           $GNGGA,174401.40,4221.48635,N,07105.20529,W,1,12,0.73,3.8,M,-33.2,M,,*76 
10.80685        IM300_RAW_NMEA       iM300           $GNVTG,191.10,T,,M,3.373,N,6.246,K,A*29 
10.80687        IM300_RAW_NMEA       iM300           $GNRMC,174401.40,A,4221.48635,N,07105.20529,W,3.373,191.10,110723,,,A*6D 
10.80714        IM300_RAW_NMEA       iM300           $CPIMU,174403.084,-11.962899,14.160166,-1.098634,-0.411373,-0.901788,-9.055602*52 
10.80715        IM300_RAW_NMEA       iM300           $CPNVR,174403.087,1.35568,0.920235,0,14.160166,-11.962899,-1.098634*7B 
10.80715        IM300_RAW_NMEA       iM300           $CPNVR,174403.087,1.35568,0.920235,0,14.160166,-11.962899,-1.098634*7B 
10.90675        IM300_RAW_NMEA       iM300           $CPNVG,174403.181,4221.48635,N,7105.20529,W,1,0,0,30.776535,nan,nan,174403.133*43 
11.00760        IM300_RAW_NMEA       iM300           $GNGGA,174401.60,4221.48618,N,07105.20532,W,1,12,0.73,3.8,M,-33.2,M,,*71 
11.00767        IM300_RAW_NMEA       iM300           $GNVTG,189.93,T,,M,3.075,N,5.695,K,A*27 
11.00769        IM300_RAW_NMEA       iM300           $GNRMC,174401.60,A,4221.48618,N,07105.20532,W,3.075,189.93,110723,,,A*6D 
11.00790        IM300_RAW_NMEA       iM300           $CPIMU,174403.285,-8.300787,4.516605,-0.183106,0.558677,0.864064,-9.290929*5A 
11.00792        IM300_RAW_NMEA       iM300           $CPRCM,174403.288,0,200.095818,-3.322764,-4.056427,174403.285*60 
11.00794        IM300_RAW_NMEA       iM300           $CPNVR,174403.288,0.887897,-1.490849,0,4.516605,-8.300787,-0.183106*6C 
11.00795        IM300_RAW_NMEA       iM300           $CPALT,174403.271,1*64 
11.10755        IM300_RAW_NMEA       iM300           $CPNVG,174403.380,4221.48618,N,7105.20532,W,1,0,0,97.812597,nan,nan,174403.337*4B 
11.20851        IM300_RAW_NMEA       iM300           $GNGGA,174401.80,4221.48601,N,07105.20536,W,1,12,0.73,3.8,M,-33.2,M,,*73 
11.20859        IM300_RAW_NMEA       iM300           $GNVTG,190.13,T,,M,3.021,N,5.595,K,A*25 
11.20860        IM300_RAW_NMEA       iM300           $GNRMC,174401.80,A,4221.48601,N,07105.20536,W,3.021,190.13,110723,,,A*6E 
11.20881        IM300_RAW_NMEA       iM300           $CPIMU,174403.488,21.972672,-17.639173,-2.868654,0.481433,0.431134,-7.102926*5C 
11.20882        IM300_RAW_NMEA       iM300           $CPRCM,174403.491,0,201.457882,-3.683298,-4.660542,174403.488*64 
11.20884        IM300_RAW_NMEA       iM300           $CPNVR,174403.491,1.567233,0.215035,0,-17.639173,21.972672,-2.868654*4B 
11.30922        IM300_RAW_NMEA       iM300           $CPNVG,174403.581,4221.48601,N,7105.20536,W,1,0,0,86.353441,nan,nan,174403.538*4D 
11.41008        IM300_RAW_NMEA       iM300           $GNVTG,192.97,T,,M,3.158,N,5.848,K,A*29 
11.41011        IM300_RAW_NMEA       iM300           $GNRMC,174402.00,A,4221.48584,N,07105.20542,W,3.158,192.97,110723,,,A*69 
11.41033        IM300_RAW_NMEA       iM300           $CPIMU,174403.688,-8.056646,7.080083,2.075197,-0.598198,-1.187414,-8.299322*74 
11.41034        IM300_RAW_NMEA       iM300           $CPNVR,174403.691,1.55099,-0.098845,0,7.080083,-8.056646,2.075197*73 
11.51122        IM300_RAW_NMEA       iM300           $CPNVG,174403.831,4221.48601,N,7105.20536,W,1,0,0,283.633427,nan,nan,174403.791*7E 
11.61204        IM300_RAW_NMEA       iM300           $GNGGA,174402.20,4221.48567,N,07105.20546,W,1,12,0.73,3.8,M,-33.2,M,,*7E 
11.61211        IM300_RAW_NMEA       iM300           $GNVTG,191.91,T,,M,3.122,N,5.781,K,A*2B 
11.61213        IM300_RAW_NMEA       iM300           $GNRMC,174402.20,A,4221.48567,N,07105.20546,W,3.122,191.91,110723,,,A*6A 
11.61234        IM300_RAW_NMEA       iM300           $CPIMU,174403.889,-14.282237,7.324224,-4.638675,0.538917,0.068263,-9.574759*6D 
11.61236        IM300_RAW_NMEA       iM300           $CPNVR,174403.892,-1.57884,-0.382937,0,7.324224,-14.282237,-4.638675*40 
11.81372        IM300_RAW_NMEA       iM300           $CPIMU,174404.092,7.324224,-13.977061,-0.671387,0.362871,0.745502,-8.171778*6D 
11.81375        IM300_RAW_NMEA       iM300           $GNGGA,174402.40,4221.48551,N,07105.20550,W,1,12,0.73,3.9,M,-33.2,M,,*7B 
11.81382        IM300_RAW_NMEA       iM300           $GNVTG,191.47,T,,M,2.986,N,5.531,K,A*2E 
11.81383        IM300_RAW_NMEA       iM300           $GNRMC,174402.40,A,4221.48551,N,07105.20550,W,2.986,191.47,110723,,,A*62 
11.81412        IM300_RAW_NMEA       iM300           $CPNVR,174404.094,-0.432803,-1.546682,0,-13.977061,7.324224,-0.671387*78 
11.81414        IM300_RAW_NMEA       iM300           $CPRBS,174404.094,14.007802,14.007802,14.007802,0*7B 
11.81420        IM300_RAW_NMEA       iM300           $CPNVG,174404.080,4221.48567,N,7105.20546,W,1,0,0,344.366954,nan,nan,174404.043*76 
11.81420        IM300_RAW_NMEA       iM300           $CPNVG,174404.080,4221.48567,N,7105.20546,W,1,0,0,344.366954,nan,nan,174404.043*76 
12.01466        IM300_RAW_NMEA       iM300           $GNRMC,174402.60,A,4221.48534,N,07105.20555,W,3.108,191.64,110723,,,A*68 
12.01489        IM300_RAW_NMEA       iM300           $CPIMU,174404.296,-1.342774,0.671387,-0.427246,-0.73652,-0.30359,-7.975972*56 
12.01490        IM300_RAW_NMEA       iM300           $CPNVR,174404.298,0.255573,-1.514721,0,0.671387,-1.342774,-0.427246*62 
12.01492        IM300_RAW_NMEA       iM300           $CPNVG,174404.281,4221.48551,N,7105.2055,W,1,0,0,9.577097,nan,nan,174404.246*4A 
12.21617        IM300_RAW_NMEA       iM300           $CPNVG,174404.531,4221.48518,N,7105.20559,W,1,0,0,11.868928,nan,nan,174404.497*4F 
12.21626        IM300_RAW_NMEA       iM300           $CPIMU,174404.497,-4.394534,11.352547,0.915528,0.501193,0.039521,-9.202906*45 
12.21628        IM300_RAW_NMEA       iM300           $CPNVR,174404.499,-0.302989,-1.498606,0,11.352547,-4.394534,0.915528*5B 
12.21630        IM300_RAW_NMEA       iM300           $GNGSA,A,3,82,81,67,68,83,69,,,,,,,1.14,0.73,0.87*1B 
12.21631        IM300_RAW_NMEA       iM300           $GNGSA,A,3,05,06,09,11,12,20,25,29,13,15,,,1.14,0.73,0.87*12 
12.21633        IM300_RAW_NMEA       iM300           $GNGGA,174402.80,4221.48518,N,07105.20559,W,1,12,0.73,3.9,M,-33.2,M,,*73 
12.21639        IM300_RAW_NMEA       iM300           $GNVTG,191.43,T,,M,2.972,N,5.504,K,A*27 
12.21640        IM300_RAW_NMEA       iM300           $GNRMC,174402.80,A,4221.48518,N,07105.20559,W,2.972,191.43,110723,,,A*65 
12.41692        IM300_RAW_NMEA       iM300           $CPIMU,174404.699,10.986336,-13.488779,0.854493,1.000589,0.510175,-7.859206*79 
12.41694        IM300_RAW_NMEA       iM300           $CPRCM,174404.703,0,198.654804,-5.118047,-2.221786,174404.699*6C 
12.41696        IM300_RAW_NMEA       iM300           $CPNVR,174404.701,1.469905,-0.212608,0,-13.488779,10.986336,0.854493*40 
12.41698        IM300_RAW_NMEA       iM300           $GNGGA,174403.00,4221.48501,N,07105.20562,W,1,12,0.73,3.9,M,-33.2,M,,*7A 
12.41704        IM300_RAW_NMEA       iM300           $GNVTG,190.21,T,,M,2.887,N,5.347,K,A*28 
12.41706        IM300_RAW_NMEA       iM300           $GNRMC,174403.00,A,4221.48501,N,07105.20562,W,2.887,190.21,110723,,,A*62 
12.51686        IM300_RAW_NMEA       iM300           $CPNVG,174404.783,4221.48501,N,7105.20562,W,1,0,0,81.769779,nan,nan,174404.748*48 
12.61746        IM300_RAW_NMEA       iM300           $CPIMU,174404.900,-1.64795,-2.197267,1.586915,-0.558677,-0.470654,-7.916691*6A 
12.61751        IM300_RAW_NMEA       iM300           $CPRCM,174404.902,0,204.388142,1.188529,1.491729,174404.900*6E 
12.61752        IM300_RAW_NMEA       iM300           $CPNVR,174404.902,1.614691,-0.022033,0,-2.197267,-1.64795,1.586915*5C 
12.61754        IM300_RAW_NMEA       iM300           $GNGGA,174403.20,4221.48484,N,07105.20567,W,1,12,0.73,3.9,M,-33.2,M,,*71 
12.61760        IM300_RAW_NMEA       iM300           $GNVTG,190.08,T,,M,3.139,N,5.814,K,A*23 
12.61762        IM300_RAW_NMEA       iM300           $GNRMC,174403.20,A,4221.48484,N,07105.20567,W,3.139,190.08,110723,,,A*6F 
12.71743        IM300_RAW_NMEA       iM300           $CPNVG,174405.030,4221.48484,N,7105.20567,W,1,0,0,89.21823,nan,nan,174405.001*77 
12.81858        IM300_RAW_NMEA       iM300           $CPIMU,174405.103,-3.295901,21.423355,1.098634,-0.136526,0.538917,-10.331039*53 
12.81860        IM300_RAW_NMEA       iM300           $CPRCM,174405.106,0,200.395208,-0.468931,-3.020287,174405.103*6E 
12.81862        IM300_RAW_NMEA       iM300           $CPNVR,174405.105,1.59794,0.47051,0,21.423355,-3.295901,1.098634*5E 
12.81864        IM300_RAW_NMEA       iM300           $GNGGA,174403.40,4221.48466,N,07105.20571,W,1,12,0.73,3.9,M,-33.2,M,,*7C 
12.81870        IM300_RAW_NMEA       iM300           $GNVTG,189.78,T,,M,3.238,N,5.997,K,A*24 
12.81872        IM300_RAW_NMEA       iM300           $GNRMC,174403.40,A,4221.48466,N,07105.20571,W,3.238,189.78,110723,,,A*6F 
12.91912        IM300_RAW_NMEA       iM300           $CPALT,174405.272,1*61 
12.91944        IM300_RAW_NMEA       iM300           $CPNVG,174405.231,4221.48466,N,7105.20571,W,1,0,0,106.406964,nan,nan,174405.202*7B 
13.02069        IM300_RAW_NMEA       iM300           $CPIMU,174405.303,14.343272,-20.629898,1.831056,1.226934,0.373649,-7.711902*75 
13.02102        IM300_RAW_NMEA       iM300           $CPRCM,174405.306,0,202.632931,-6.950984,-1.749013,174405.303*6E 
13.02133        IM300_RAW_NMEA       iM300           $CPNVR,174405.306,1.274122,0.883614,0,-20.629898,14.343272,1.831056*67 
13.02163        IM300_RAW_NMEA       iM300           $GNGGA,174403.60,4221.48449,N,07105.20574,W,1,12,0.73,3.9,M,-33.2,M,,*76 
13.02226        IM300_RAW_NMEA       iM300           $GNVTG,189.46,T,,M,3.014,N,5.581,K,A*2E 
13.02256        IM300_RAW_NMEA       iM300           $GNRMC,174403.60,A,4221.48449,N,07105.20574,W,3.014,189.46,110723,,,A*64 
13.22256        IM300_RAW_NMEA       iM300           $CPIMU,174405.506,-0.12207,-7.934576,-1.464845,-0.73652,-0.598198,-7.259212*7C 
13.22290        IM300_RAW_NMEA       iM300           $CPRCM,174405.509,0,208.738831,2.216931,2.50076,174405.506*58 
13.22335        IM300_RAW_NMEA       iM300           $CPNVR,174405.508,1.360728,-0.918283,0,-7.934576,-0.12207,-1.464845*7E 
13.22379        IM300_RAW_NMEA       iM300           $GNGGA,174403.80,4221.48431,N,07105.20579,W,1,12,0.73,3.9,M,-33.2,M,,*7A 
13.22478        IM300_RAW_NMEA       iM300           $GNVTG,190.66,T,,M,3.191,N,5.910,K,A*2C 
13.22523        IM300_RAW_NMEA       iM300           $GNRMC,174403.80,A,4221.48431,N,07105.20579,W,3.191,190.66,110723,,,A*6E 
13.23045        IM300_RAW_NMEA       iM300           $CPNVG,174405.481,4221.48449,N,7105.20574,W,1,0,0,124.741613,nan,nan,174405.453*73 
13.42363        IM300_RAW_NMEA       iM300           $CPIMU,174405.757,-13.427744,17.761243,-2.563478,0.215567,0.136526,-10.115472*67 
13.42430        IM300_RAW_NMEA       iM300           $CPRCM,174405.760,0,203.991984,-1.411844,-0.694842,174405.757*68 
13.42463        IM300_RAW_NMEA       iM300           $CPNVR,174405.760,1.095169,-1.334662,0,17.761243,-13.427744,-2.563478*60 
13.42494        IM300_RAW_NMEA       iM300           $CPNVG,174405.731,4221.48413,N,7105.20584,W,1,0,0,39.370902,nan,nan,174405.708*42 
13.42561        IM300_RAW_NMEA       iM300           $GNGGA,174404.00,4221.48413,N,07105.20584,W,1,12,0.73,3.9,M,-33.2,M,,*77 
13.42625        IM300_RAW_NMEA       iM300           $GNVTG,190.95,T,,M,3.356,N,6.215,K,A*24 
13.42655        IM300_RAW_NMEA       iM300           $GNRMC,174404.00,A,4221.48413,N,07105.20584,W,3.356,190.95,110723,,,A*66 
13.62449        IM300_RAW_NMEA       iM300           $CPNVG,174405.981,4221.48396,N,7105.20588,W,1,0,0,76.040201,nan,nan,174405.960*42 
13.62519        IM300_RAW_NMEA       iM300           $CPIMU,174405.960,8.178717,-15.38087,-7.324224,1.04011,0.314368,-8.29034*5A 
13.62551        IM300_RAW_NMEA       iM300           $CPRCM,174405.963,0,199.017603,-6.710422,-1.135172,174405.960*66 
13.62582        IM300_RAW_NMEA       iM300           $CPNVR,174405.962,1.546179,-0.384354,0,-15.38087,8.178717,-7.324224*63 
13.62612        IM300_RAW_NMEA       iM300           $GNGGA,174404.20,4221.48396,N,07105.20588,W,1,12,0.73,3.9,M,-33.2,M,,*73 
13.62677        IM300_RAW_NMEA       iM300           $GNVTG,190.31,T,,M,3.097,N,5.736,K,A*23 
13.62709        IM300_RAW_NMEA       iM300           $GNRMC,174404.20,A,4221.48396,N,07105.20588,W,3.097,190.31,110723,,,A*62 
13.82631        IM300_RAW_NMEA       iM300           $CPNVG,174406.181,4221.48379,N,7105.20592,W,1,0,0,57.132594,nan,nan,174406.161*45 
13.82714        IM300_RAW_NMEA       iM300           $CPIMU,174406.161,0.671387,-3.112795,-5.065922,-0.677239,-0.334129,-7.426276*56 
13.82759        IM300_RAW_NMEA       iM300           $CPRCM,174406.165,0,203.279795,3.246248,3.113474,174406.161*69 
13.82802        IM300_RAW_NMEA       iM300           $CPNVR,174406.164,1.356351,-0.876369,0,-3.112795,0.671387,-5.065922*61 
13.82846        IM300_RAW_NMEA       iM300           $GNGGA,174404.40,4221.48379,N,07105.20592,W,1,12,0.73,3.9,M,-33.2,M,,*7F 
13.82937        IM300_RAW_NMEA       iM300           $GNVTG,190.64,T,,M,3.139,N,5.813,K,A*2E 
13.82981        IM300_RAW_NMEA       iM300           $GNRMC,174404.40,A,4221.48379,N,07105.20592,W,3.139,190.64,110723,,,A*6B 
13.92525        IM300_RAW_NMEA       iM300           $CPRBS,174406.195,13.547108,13.547108,13.547108,0*7C 
14.02689        IM300_RAW_NMEA       iM300           $CPNVG,174406.381,4221.4836,N,7105.20596,W,1,0,0,84.634568,nan,nan,174406.361*75 
14.02771        IM300_RAW_NMEA       iM300           $GNGGA,174404.60,4221.48360,N,07105.20596,W,1,12,0.73,3.9,M,-33.2,M,,*71 
14.02863        IM300_RAW_NMEA       iM300           $GNVTG,190.16,T,,M,3.346,N,6.197,K,A*27 
14.02907        IM300_RAW_NMEA       iM300           $GNRMC,174404.60,A,4221.48360,N,07105.20596,W,3.346,190.16,110723,,,A*6A 
14.12670        IM300_RAW_NMEA       iM300           $CPIMU,174406.413,4.333499,13.85499,-1.586915,0.441912,-0.088023,-9.820864*57 
14.12716        IM300_RAW_NMEA       iM300           $CPRCM,174406.416,0,196.957796,-2.839393,1.206768,174406.413*41 
14.12757        IM300_RAW_NMEA       iM300           $CPNVR,174406.416,1.713789,-0.160958,0,13.85499,4.333499,-1.586915*48 
14.22695        IM300_RAW_NMEA       iM300           $CPNVG,174406.581,4221.48343,N,7105.206,W,1,0,0,130.471191,nan,nan,174406.564*72 
14.22766        IM300_RAW_NMEA       iM300           $GNGGA,174404.80,4221.48343,N,07105.20600,W,1,12,0.73,3.9,M,-33.2,M,,*72 
14.22832        IM300_RAW_NMEA       iM300           $GNVTG,189.36,T,,M,3.135,N,5.806,K,A*29 
14.22864        IM300_RAW_NMEA       iM300           $GNRMC,174404.80,A,4221.48343,N,07105.20600,W,3.135,189.36,110723,,,A*65 
14.32783        IM300_RAW_NMEA       iM300           $CPIMU,174406.616,7.263189,-18.249525,-1.037598,-0.059281,-0.274848,-8.074773*63 
14.32817        IM300_RAW_NMEA       iM300           $CPRCM,174406.619,0,200.289485,-0.643021,1.348045,174406.616*46 
14.32848        IM300_RAW_NMEA       iM300           $CPNVR,174406.618,1.226897,1.046802,0,-18.249525,7.263189,-1.037598*77 
14.42804        IM300_RAW_NMEA       iM300           $GNGGA,174405.00,4221.48325,N,07105.20603,W,1,12,0.73,4.0,M,-33.2,M,,*76 
14.42871        IM300_RAW_NMEA       iM300           $GNVTG,188.79,T,,M,3.161,N,5.855,K,A*24 
14.42903        IM300_RAW_NMEA       iM300           $GNRMC,174405.00,A,4221.48325,N,07105.20603,W,3.161,188.79,110723,,,A*64 
14.52735        IM300_RAW_NMEA       iM300           $CPNVG,174406.830,4221.48325,N,7105.20603,W,1,0,0,163.129786,nan,nan,174406.817*71 
14.52744        IM300_RAW_NMEA       iM300           $CPIMU,174406.817,-13.73292,-0.549317,-2.136232,-1.07963,-0.450894,-7.661603*44 
14.52746        IM300_RAW_NMEA       iM300           $CPRCM,174406.820,0,203.40575,9.330457,2.022264,174406.817*5A 
14.52748        IM300_RAW_NMEA       iM300           $CPNVR,174406.819,0.471919,1.556176,0,-0.549317,-13.73292,-2.136232*6B 
14.62841        IM300_RAW_NMEA       iM300           $GNGGA,174405.20,4221.48308,N,07105.20605,W,1,12,0.73,4.0,M,-33.2,M,,*7D 
14.62909        IM300_RAW_NMEA       iM300           $GNVTG,187.56,T,,M,3.062,N,5.671,K,A*2C 
14.62941        IM300_RAW_NMEA       iM300           $GNRMC,174405.20,A,4221.48308,N,07105.20605,W,3.062,187.56,110723,,,A*6F 
14.72832        IM300_RAW_NMEA       iM300           $CPNVG,174407.080,4221.48308,N,7105.20605,W,1,0,0,233.603595,nan,nan,174407.069*73 
14.72904        IM300_RAW_NMEA       iM300           $CPIMU,174407.019,-6.164555,9.826667,-4.028323,0.079041,0.813765,-9.095123*5A 
14.72936        IM300_RAW_NMEA       iM300           $CPNVR,174407.021,-1.267951,0.934691,0,9.826667,-6.164555,-4.028323*6B 
14.82961        IM300_RAW_NMEA       iM300           $GNTXT,01,01,00,txbuf alloc*61 
14.83001        IM300_RAW_NMEA       iM300           $GNGGA,174405.40,4221.48293,N,07105.20607,W,1,12,0.73,4.0,M,-33.2,M,,*7A 
14.83042        IM300_RAW_NMEA       iM300           $GNVTG,186.29,T,,M,2.798,N,5.182,K,A*2D 
14.83074        IM300_RAW_NMEA       iM300           $GNRMC,174405.40,A,4221.48293,N,07105.20607,W,2.798,186.29,110723,,,A*62 
14.92992        IM300_RAW_NMEA       iM300           $CPALT,174407.272,1*63 
14.93059        IM300_RAW_NMEA       iM300           $CPIMU,174407.220,14.160166,-2.441408,-2.685549,0.804783,-0.059281,-8.231059*4F 
14.93078        IM300_RAW_NMEA       iM300           $CPRCM,174407.223,0,194.770927,-6.31218,1.406458,174407.220*7A 
14.93097        IM300_RAW_NMEA       iM300           $CPNVR,174407.222,-1.159035,-0.853554,0,-2.441408,14.160166,-2.685549*7B 
15.03002        IM300_RAW_NMEA       iM300           $CPNVG,174407.330,4221.48293,N,7105.20607,W,1,0,0,353.73,nan,nan,174407.321*7A 
15.03082        IM300_RAW_NMEA       iM300           $GNRMC,174405.60,A,4221.48278,N,07105.20610,W,2.789,186.27,110723,,,A*6D 
15.13106        IM300_RAW_NMEA       iM300           $GNGGA,174405.80,4221.48261,N,07105.20612,W,1,12,0.73,4.0,M,-33.2,M,,*7F 
15.13190        IM300_RAW_NMEA       iM300           $GNVTG,185.91,T,,M,2.975,N,5.509,K,A*27 
15.13253        IM300_RAW_NMEA       iM300           $GNRMC,174405.80,A,4221.48261,N,07105.20612,W,2.975,185.91,110723,,,A*6A 
15.13762        IM300_RAW_NMEA       iM300           $CPIMU,174407.423,-0.061035,-1.64795,0.549317,0.255087,-0.362871,-7.995732*40 
15.13766        IM300_RAW_NMEA       iM300           $CPRCM,174407.426,0,197.521175,-1.953337,2.80391,174407.423*7B 
15.13768        IM300_RAW_NMEA       iM300           $CPNVR,174407.425,-0.156698,-1.426203,0,-1.64795,-0.061035,0.549317*76 
15.23155        IM300_RAW_NMEA       iM300           $CPNVG,174407.531,4221.48261,N,7105.20612,W,1,0,0,328.141631,nan,nan,174407.522*79 
15.33238        IM300_RAW_NMEA       iM300           $CPIMU,174407.623,-10.498054,3.356936,0.061035,0.373649,-0.068263,-8.692731*65 
15.33329        IM300_RAW_NMEA       iM300           $CPRCM,174407.627,0,195.580431,-3.069115,0.642343,174407.623*43 
15.33401        IM300_RAW_NMEA       iM300           $CPNVR,174407.626,-0.807816,-1.299915,0,3.356936,-10.498054,0.061035*5E 
15.43326        IM300_RAW_NMEA       iM300           $CPNVG,174407.780,4221.48244,N,7105.20613,W,1,0,0,30.021073,nan,nan,174407.724*4E 
15.43404        IM300_RAW_NMEA       iM300           $GPGSV,3,1,12,05,68,264,49,06,20,100,43,07,04,071,42,09,09,037,44*7B 
15.43438        IM300_RAW_NMEA       iM300           $GNGSA,A,3,82,81,67,68,83,74,69,,,,,,1.14,0.73,0.87*18 
15.43471        IM300_RAW_NMEA       iM300           $GNGSA,A,3,05,06,09,11,12,20,25,29,13,15,,,1.14,0.73,0.87*12 
15.43502        IM300_RAW_NMEA       iM300           $GNGGA,174406.00,4221.48244,N,07105.20613,W,1,12,0.73,4.0,M,-33.2,M,,*72 
15.43568        IM300_RAW_NMEA       iM300           $GNVTG,184.83,T,,M,3.087,N,5.717,K,A*2D 
15.43600        IM300_RAW_NMEA       iM300           $GNRMC,174406.00,A,4221.48244,N,07105.20613,W,3.087,184.83,110723,,,A*60 
15.53409        IM300_RAW_NMEA       iM300           $GNGGA,174406.20,4221.48226,N,07105.20614,W,1,12,0.73,4.0,M,-33.2,M,,*73 
15.53480        IM300_RAW_NMEA       iM300           $GNVTG,183.65,T,,M,3.148,N,5.830,K,A*2A 
15.53512        IM300_RAW_NMEA       iM300           $GNRMC,174406.20,A,4221.48226,N,07105.20614,W,3.148,183.65,110723,,,A*6C 
15.53777        IM300_RAW_NMEA       iM300           $CPIMU,174407.826,4.272464,0.976563,-2.014162,0.34311,0.490414,-8.769976*42 
15.53779        IM300_RAW_NMEA       iM300           $CPRCM,174407.831,0,192.361063,-2.539385,-2.176625,174407.826*6C 
15.53781        IM300_RAW_NMEA       iM300           $CPNVR,174407.829,0.794551,-1.375034,0,0.976563,4.272464,-2.014162*44 
15.73428        IM300_RAW_NMEA       iM300           $GNGGA,174406.40,4221.48208,N,07105.20616,W,1,12,0.73,4.0,M,-33.2,M,,*7B 
15.73499        IM300_RAW_NMEA       iM300           $GNVTG,183.91,T,,M,3.266,N,6.049,K,A*2B 
15.73531        IM300_RAW_NMEA       iM300           $GNRMC,174406.40,A,4221.48208,N,07105.20616,W,3.266,183.91,110723,,,A*60 
15.73706        IM300_RAW_NMEA       iM300           $CPIMU,174408.027,18.249525,-7.141118,-2.502443,0.195807,0.195807,-8.349621*6C 
15.73708        IM300_RAW_NMEA       iM300           $CPRCM,174408.033,0,196.310363,-0.976689,-0.032769,174408.027*68 
15.73710        IM300_RAW_NMEA       iM300           $CPNVR,174408.033,1.605132,0.215028,0,-7.141118,18.249525,-2.502443*7C 
15.73712        IM300_RAW_NMEA       iM300           $CPNVG,174408.030,4221.48226,N,7105.20614,W,1,0,0,97.630092,nan,nan,174407.976*43 
15.93467        IM300_RAW_NMEA       iM300           $GNGGA,174406.60,4221.48189,N,07105.20618,W,1,12,0.73,4.0,M,-33.2,M,,*7D 
15.93537        IM300_RAW_NMEA       iM300           $GNVTG,184.26,T,,M,3.342,N,6.189,K,A*2A 
15.93569        IM300_RAW_NMEA       iM300           $GNRMC,174406.60,A,4221.48189,N,07105.20618,W,3.342,184.26,110723,,,A*6A 
15.93805        IM300_RAW_NMEA       iM300           $CPNVG,174408.281,4221.48208,N,7105.20616,W,1,0,0,82.73319,nan,nan,174408.229*7E 
15.93812        IM300_RAW_NMEA       iM300           $CPIMU,174408.229,-12.390146,1.708986,-0.427246,0.068263,-1.138911,-8.642432*43 
15.93814        IM300_RAW_NMEA       iM300           $CPNVR,174408.234,1.66668,-0.212525,0,1.708986,-12.390146,-0.427246*6B 
16.03527        IM300_RAW_NMEA       iM300           $CPRBS,174408.295,13.529041,13.529041,13.529041,0*75 
16.13660        IM300_RAW_NMEA       iM300           $GNGGA,174406.80,4221.48171,N,07105.20618,W,1,12,0.73,4.0,M,-33.2,M,,*74 
16.13730        IM300_RAW_NMEA       iM300           $GNVTG,182.00,T,,M,3.257,N,6.032,K,A*2C 
16.13763        IM300_RAW_NMEA       iM300           $GNRMC,174406.80,A,4221.48171,N,07105.20618,W,3.257,182.00,110723,,,A*64 
16.13968        IM300_RAW_NMEA       iM300           $CPIMU,174408.432,-15.747082,7.995611,-3.479006,-0.048503,0.362871,-9.192128*41 
16.13970        IM300_RAW_NMEA       iM300           $CPNVR,174408.435,1.527496,-0.789086,0,7.995611,-15.747082,-3.479006*57 
16.23699        IM300_RAW_NMEA       iM300           $CPNVG,174408.530,4221.48171,N,7105.20618,W,1,0,0,192.168129,nan,nan,174408.489*76 
16.33765        IM300_RAW_NMEA       iM300           $GNGGA,174407.00,4221.48153,N,07105.20619,W,1,12,0.73,4.0,M,-33.2,M,,*7C 
16.33848        IM300_RAW_NMEA       iM300           $GNVTG,181.46,T,,M,3.172,N,5.874,K,A*20 
16.33891        IM300_RAW_NMEA       iM300           $GNRMC,174407.00,A,4221.48153,N,07105.20619,W,3.172,181.46,110723,,,A*69 
16.34204        IM300_RAW_NMEA       iM300           $CPIMU,174408.633,27.282734,-6.591802,-4.394534,0.617958,0.824543,-8.162796*6C 
16.34206        IM300_RAW_NMEA       iM300           $CPRCM,174408.636,0,191.527602,-3.141927,-4.467332,174408.633*61 
16.34208        IM300_RAW_NMEA       iM300           $CPNVR,174408.636,-0.353173,1.637902,0,-6.591802,27.282734,-4.394534*59 
16.43819        IM300_RAW_NMEA       iM300           $CPNVG,174408.731,4221.48153,N,7105.20619,W,1,0,0,223.10785,nan,nan,174408.689*41 
16.53854        IM300_RAW_NMEA       iM300           $GNGGA,174407.20,4221.48134,N,07105.20622,W,1,12,0.73,4.0,M,-33.2,M,,*77 
16.53951        IM300_RAW_NMEA       iM300           $GNVTG,183.44,T,,M,3.339,N,6.184,K,A*28 
16.54008        IM300_RAW_NMEA       iM300           $GNRMC,174407.20,A,4221.48134,N,07105.20622,W,3.339,183.44,110723,,,A*6F 
