2.07811         GPS_NMEA_FROM_GPS    iGPS            $GPGGA,164337.000,4221.5206,N,07105.2353,W,2,09,1.01,5.4,M,-33.7,M,0000,0000*5B 
3.08105         GPS_NMEA_FROM_GPS    iGPS            $GPGGA,164338.000,4221.5206,N,07105.2351,W,2,09,1.01,5.4,M,-33.7,M,0000,0000*56 
4.08389         GPS_NMEA_FROM_GPS    iGPS            $GPGSA,A,3,11,19,17,06,05,12,04,09,20,,,,1.31,1.01,0.83*0B 
4.08389         GPS_NMEA_FROM_GPS    iGPS            $GPGSA,A,3,11,19,17,06,05,12,04,09,20,,,,1.31,1.01,0.83*0B 
5.08621         GPS_NMEA_FROM_GPS    iGPS            $GPGGA,164340.000,4221.5206,N,07105.2349,W,2,09,1.01,5.4,M,-33.7,M,0000,0000*50 
6.08842         GPS_NMEA_FROM_GPS    iGPS            $GPGGA,164341.000,4221.5206,N,07105.2347,W,2,09,1.01,5.4,M,-33.7,M,0000,0000*5F 
7.09055         GPS_NMEA_FROM_GPS    iGPS            $GPGGA,164342.000,4221.5206,N,07105.2345,W,2,09,1.01,5.4,M,-33.7,M,0000,0000*5E 
8.09304         GPS_NMEA_FROM_GPS    iGPS            $GPGGA,164343.000,4221.5206,N,07105.2344,W,2,09,1.01,5.4,M,-33.7,M,0000,0000*5E 
9.09533         GPS_NMEA_FROM_GPS    iGPS            $GPGSA,A,3,11,19,17,06,05,12,04,09,20,,,,1.31,1.01,0.83*0B 
9.99741         GPS_NMEA_FROM_GPS    iGPS            $GPGGA,164345.000,4221.5207,N,07105.2340,W,2,09,1.01,5.4,M,-33.7,M,0000,0000*5D 
11.10102        GPS_NMEA_FROM_GPS    iGPS            $GPGSA,A,3,11,19,17,06,05,12,04,09,20,,,,1.31,1.01,0.83*0B 
11.10102        GPS_NMEA_FROM_GPS    iGPS            $GPGSA,A,3,11,19,17,06,05,12,04,09,20,,,,1.31,1.01,0.83*0B 
12.00427        GPS_NMEA_FROM_GPS    iGPS            $GPGGA,164347.000,4221.5207,N,07105.2338,W,2,09,1.01,5.4,M,-33.7,M,0000,0000*50 
13.10797        GPS_NMEA_FROM_GPS    iGPS            $GPGSA,A,3,11,19,17,06,05,12,04,09,20,,,,1.31,1.01,0.83*0B 
14.11062        GPS_NMEA_FROM_GPS    iGPS            $GPGSA,A,3,11,19,17,06,05,12,04,09,20,,,,1.31,1.01,0.83*0B 
15.11361        GPS_NMEA_FROM_GPS    iGPS            $GPGSA,A,3,11,19,17,06,05,12,04,09,20,,,,1.31,1.01,0.83*0B 
16.11661        GPS_NMEA_FROM_GPS    iGPS            $GPGSA,A,3,11,19,17,06,05,12,04,09,20,,,,1.31,1.01,0.83*0B 
17.11969        GPS_NMEA_FROM_GPS    iGPS            $GPGGA,164352.000,4221.5206,N,07105.2338,W,2,09,1.01,5.4,M,-33.7,M,0000,0000*55 
18.02264        GPS_NMEA_FROM_GPS    iGPS            $GPGGA,164353.000,4221.5206,N,07105.2338,W,2,09,1.01,5.4,M,-33.7,M,0000,0000*54 
19.02546        GPS_NMEA_FROM_GPS    iGPS            $GPGGA,164354.000,4221.5205,N,07105.2338,W,2,09,1.01,5.4,M,-33.7,M,0000,0000*50 
20.12841        GPS_NMEA_FROM_GPS    iGPS            $GPGSA,A,3,11,19,17,06,05,12,04,09,20,,,,1.31,1.01,0.83*0B 
21.03072        GPS_NMEA_FROM_GPS    iGPS            $GPGGA,164356.000,4221.5204,N,07105.2338,W,2,09,1.01,5.4,M,-33.7,M,0000,0000*53 
22.13339        GPS_NMEA_FROM_GPS    iGPS            $GPGSA,A,3,11,19,17,06,05,12,04,09,20,,,,1.31,1.01,0.83*0B 
23.03612        GPS_NMEA_FROM_GPS    iGPS            $GPGGA,164358.000,4221.5204,N,07105.2339,W,2,09,1.01,5.4,M,-33.7,M,0000,0000*5C 
23.03612        GPS_NMEA_FROM_GPS    iGPS            $GPGGA,164358.000,4221.5204,N,07105.2339,W,2,09,1.01,5.4,M,-33.7,M,0000,0000*5C 
24.13928        GPS_NMEA_FROM_GPS    iGPS            $GPGSA,A,3,11,19,17,06,05,12,04,09,20,,,,1.31,1.01,0.83*0B 
25.04184        GPS_NMEA_FROM_GPS    iGPS            $GPGGA,164400.000,4221.5203,N,07105.2339,W,2,09,1.01,5.4,M,-33.7,M,0000,0000*51 
26.04437        GPS_NMEA_FROM_GPS    iGPS            $GPGGA,164401.000,4221.5203,N,07105.2338,W,2,09,1.01,5.4,M,-33.7,M,0000,0000*51 
27.04691        GPS_NMEA_FROM_GPS    iGPS            $GPGSA,A,3,11,19,17,06,05,12,04,09,20,,,,1.31,1.01,0.83*0B 
28.15029        GPS_NMEA_FROM_GPS    iGPS            $GPGSA,A,3,11,19,17,06,05,12,04,09,20,,,,1.31,1.01,0.83*0B 
29.15309        GPS_NMEA_FROM_GPS    iGPS            $GPGSA,A,3,11,19,17,06,05,12,04,09,20,,,,1.31,1.01,0.83*0B 
30.05580        GPS_NMEA_FROM_GPS    iGPS            $GPGGA,164405.000,4221.5203,N,07105.2336,W,2,09,1.01,5.4,M,-33.7,M,0000,0000*5B 
31.05823        GPS_NMEA_FROM_GPS    iGPS            $GPGSA,A,3,11,19,17,06,05,12,04,09,20,,,,1.31,1.01,0.83*0B 
32.06056        GPS_NMEA_FROM_GPS    iGPS            $GPGGA,164407.000,4221.5204,N,07105.2336,W,2,09,1.01,5.4,M,-33.7,M,0000,0000*5E 
33.06296        GPS_NMEA_FROM_GPS    iGPS            $GPGGA,164408.000,4221.5204,N,07105.2335,W,2,09,1.01,5.4,M,-33.7,M,0000,0000*52 
34.06551        GPS_NMEA_FROM_GPS    iGPS            $GPGGA,164409.000,4221.5205,N,07105.2333,W,2,09,1.01,5.4,M,-33.7,M,0000,0000*54 
35.06809        GPS_NMEA_FROM_GPS    iGPS            $GPGGA,164410.000,4221.5206,N,07105.2333,W,2,09,1.01,5.4,M,-33.7,M,0000,0000*5F 
36.07104        GPS_NMEA_FROM_GPS    iGPS            $GPGGA,164411.000,4221.5206,N,07105.2332,W,2,09,1.01,5.4,M,-33.7,M,0000,0000*5F 
37.07391        GPS_NMEA_FROM_GPS    iGPS            $GPGGA,164412.000,4221.5207,N,07105.2331,W,2,09,1.01,5.4,M,-33.7,M,0000,0000*5E 
38.17773        GPS_NMEA_FROM_GPS    iGPS            $GPGSA,A,3,11,19,17,06,05,12,04,09,20,,,,1.31,1.01,0.83*0B 
38.17773        GPS_NMEA_FROM_GPS    iGPS            $GPGSA,A,3,11,19,17,06,05,12,04,09,20,,,,1.31,1.01,0.83*0B 
39.08044        GPS_NMEA_FROM_GPS    iGPS            $GPGGA,164414.000,4221.5208,N,07105.2329,W,2,09,1.01,5.4,M,-33.7,M,0000,0000*5E 
40.08340        GPS_NMEA_FROM_GPS    iGPS            $GPGSA,A,3,11,19,17,06,05,12,04,09,20,,,,1.31,1.01,0.83*0B 
41.08624        GPS_NMEA_FROM_GPS    iGPS            $GPGGA,164416.000,4221.5209,N,07105.2326,W,2,09,1.01,5.4,M,-33.7,M,0000,0000*52 
42.09004        GPS_NMEA_FROM_GPS    iGPS            $GPGSA,A,3,11,19,17,06,05,12,04,09,20,,,,1.31,1.01,0.83*0B 
43.09314        GPS_NMEA_FROM_GPS    iGPS            $GPGGA,164418.000,4221.5212,N,07105.2322,W,2,09,1.01,5.4,M,-33.7,M,0000,0000*52 
44.09602        GPS_NMEA_FROM_GPS    iGPS            $GPGGA,164419.000,4221.5213,N,07105.2321,W,2,09,1.01,5.3,M,-33.7,M,0000,0000*56 
45.09874        GPS_NMEA_FROM_GPS    iGPS            $GPGGA,164420.000,4221.5214,N,07105.2321,W,2,09,1.01,5.2,M,-33.7,M,0000,0000*5A 
46.10106        GPS_NMEA_FROM_GPS    iGPS            $GPGGA,164421.000,4221.5216,N,07105.2319,W,2,09,1.01,5.2,M,-33.7,M,0000,0000*52 
47.00328        GPS_NMEA_FROM_GPS    iGPS            $GPGGA,164422.000,4221.5217,N,07105.2317,W,2,09,1.01,5.3,M,-33.7,M,0000,0000*5F 
48.00623        GPS_NMEA_FROM_GPS    iGPS            $GPGGA,164423.000,4221.5219,N,07105.2316,W,2,09,1.01,5.3,M,-33.7,M,0000,0000*51 
49.10938        GPS_NMEA_FROM_GPS    iGPS            $GPGSA,A,3,11,19,17,06,05,12,04,09,20,,,,1.31,1.01,0.83*0B 
50.11263        GPS_NMEA_FROM_GPS    iGPS            $GPGGA,164425.000,4221.5220,N,07105.2311,W,2,09,1.01,5.4,M,-33.7,M,0000,0000*5D 
51.11578        GPS_NMEA_FROM_GPS    iGPS            $GPGSA,A,3,11,19,17,06,05,12,04,09,20,,,,1.31,1.01,0.83*0B 
52.01865        GPS_NMEA_FROM_GPS    iGPS            $GPGGA,164427.000,4221.5225,N,07105.2306,W,2,09,1.01,5.4,M,-33.7,M,0000,0000*5C 
53.02186        GPS_NMEA_FROM_GPS    iGPS            $GPGGA,164428.000,4221.5226,N,07105.2303,W,2,09,1.01,5.3,M,-33.7,M,0000,0000*52 
54.02525        GPS_NMEA_FROM_GPS    iGPS            $GPGGA,164429.000,4221.5227,N,07105.2300,W,2,09,1.01,5.3,M,-33.7,M,0000,0000*51 
55.02877        GPS_NMEA_FROM_GPS    iGPS            $GPGGA,164430.000,4221.5228,N,07105.2297,W,2,09,1.01,5.3,M,-33.7,M,0000,0000*59 
56.03099        GPS_NMEA_FROM_GPS    iGPS            $GPGGA,164431.000,4221.5230,N,07105.2294,W,2,09,1.01,5.3,M,-33.7,M,0000,0000*52 
57.13399        GPS_NMEA_FROM_GPS    iGPS            $GPGSA,A,3,11,19,17,06,05,12,04,09,20,,,,1.31,1.01,0.83*0B 
58.13697        GPS_NMEA_FROM_GPS    iGPS            $GPGSA,A,3,11,19,17,06,05,12,04,09,20,,,,1.31,1.01,0.83*0B 
59.13933        GPS_NMEA_FROM_GPS    iGPS            $GPGSA,A,3,11,19,17,06,05,12,04,09,20,,,,1.31,1.01,0.83*0B 
60.04149        GPS_NMEA_FROM_GPS    iGPS            $GPGGA,164435.000,4221.5231,N,07105.2283,W,2,09,1.01,5.0,M,-33.7,M,0000,0000*52 
61.04451        GPS_NMEA_FROM_GPS    iGPS            $GPGGA,164436.000,4221.5232,N,07105.2280,W,2,09,1.01,4.9,M,-33.7,M,0000,0000*59 
62.14766        GPS_NMEA_FROM_GPS    iGPS            $GPGGA,164437.000,4221.5234,N,07105.2277,W,2,09,1.01,4.9,M,-33.7,M,0000,0000*56 
63.05057        GPS_NMEA_FROM_GPS    iGPS            $GPGGA,164438.000,4221.5235,N,07105.2274,W,2,09,1.01,4.9,M,-33.7,M,0000,0000*5B 
64.05349        GPS_NMEA_FROM_GPS    iGPS            $GPGGA,164439.000,4221.5238,N,07105.2272,W,2,09,1.01,4.9,M,-33.7,M,0000,0000*51 
65.05654        GPS_NMEA_FROM_GPS    iGPS            $GPGGA,164440.000,4221.5239,N,07105.2268,W,2,09,1.01,4.9,M,-33.7,M,0000,0000*55 
66.15976        GPS_NMEA_FROM_GPS    iGPS            $GPGSA,A,3,11,19,17,06,05,12,04,09,20,,,,1.31,1.01,0.83*0B 
67.06236        GPS_NMEA_FROM_GPS    iGPS            $GPGGA,164442.000,4221.5243,N,07105.2264,W,2,09,1.01,4.8,M,-33.7,M,0000,0000*57 
68.16578        GPS_NMEA_FROM_GPS    iGPS            $GPGSA,A,3,11,19,17,06,05,12,04,09,20,,,,1.31,1.01,0.83*0B 
69.06832        GPS_NMEA_FROM_GPS    iGPS            $GPGGA,164444.000,4221.5246,N,07105.2260,W,2,09,1.01,4.8,M,-33.7,M,0000,0000*50 
70.07132        GPS_NMEA_FROM_GPS    iGPS            $GPGGA,164445.000,4221.5248,N,07105.2257,W,2,09,1.01,4.7,M,-33.7,M,0000,0000*54 
71.07398        GPS_NMEA_FROM_GPS    iGPS            $GPGGA,164446.000,4221.5249,N,07105.2253,W,2,09,1.01,4.8,M,-33.7,M,0000,0000*5D 
72.07666        GPS_NMEA_FROM_GPS    iGPS            $GPGSA,A,3,11,19,17,06,05,12,04,09,20,,,,1.31,1.01,0.83*0B 
73.07912        GPS_NMEA_FROM_GPS    iGPS            $GPGSA,A,3,11,19,17,06,05,12,04,09,20,,,,1.31,1.01,0.83*0B 
74.08257        GPS_NMEA_FROM_GPS    iGPS            $GPGGA,164449.000,4221.5248,N,07105.2243,W,2,09,1.01,4.7,M,-33.7,M,0000,0000*5D 
75.08561        GPS_NMEA_FROM_GPS    iGPS            $GPGSA,A,3,11,19,17,06,05,12,04,09,20,,,,1.31,1.01,0.83*0B 
76.08860        GPS_NMEA_FROM_GPS    iGPS            $GPGSA,A,3,11,19,17,06,05,12,04,09,20,,,,1.31,1.01,0.83*0B 
77.09194        GPS_NMEA_FROM_GPS    iGPS            $GPGSA,A,3,11,19,17,06,05,12,04,09,20,,,,1.31,1.01,0.83*0B 
78.09420        GPS_NMEA_FROM_GPS    iGPS            $GPGSA,A,3,11,19,17,06,05,12,04,09,20,,,,1.31,1.01,0.83*0B 
79.09694        GPS_NMEA_FROM_GPS    iGPS            $GPGGA,164454.000,4221.5248,N,07105.2226,W,2,09,1.01,4.5,M,-33.7,M,0000,0000*50 
80.09981        GPS_NMEA_FROM_GPS    iGPS            $GPGGA,164455.000,4221.5248,N,07105.2223,W,2,09,1.01,4.5,M,-33.7,M,0000,0000*54 
81.10282        GPS_NMEA_FROM_GPS    iGPS            $GPGSA,A,3,11,19,17,06,05,12,04,09,20,,,,1.31,1.01,0.83*0B 
82.00553        GPS_NMEA_FROM_GPS    iGPS            $GPGGA,164457.000,4221.5251,N,07105.2215,W,2,09,1.01,4.5,M,-33.7,M,0000,0000*5B 
83.10915        GPS_NMEA_FROM_GPS    iGPS            $GPGSA,A,3,11,19,17,06,05,12,04,09,20,,,,1.31,1.01,0.83*0B 
84.01150        GPS_NMEA_FROM_GPS    iGPS            $GPGGA,164459.000,4221.5252,N,07105.2209,W,2,09,1.01,4.5,M,-33.7,M,0000,0000*5B 
85.01407        GPS_NMEA_FROM_GPS    iGPS            $GPGGA,164500.000,4221.5253,N,07105.2206,W,2,09,1.01,4.4,M,-33.7,M,0000,0000*59 
86.01640        GPS_NMEA_FROM_GPS    iGPS            $GPGGA,164501.000,4221.5251,N,07105.2203,W,2,09,1.01,4.4,M,-33.7,M,0000,0000*5F 
87.11944        GPS_NMEA_FROM_GPS    iGPS            $GPGSA,A,3,11,19,17,06,05,12,04,09,20,,,,1.31,1.01,0.83*0B 
88.12260        GPS_NMEA_FROM_GPS    iGPS            $GPGSA,A,3,11,19,17,06,05,12,04,09,20,,,,1.31,1.01,0.83*0B 
89.12541        GPS_NMEA_FROM_GPS    iGPS            $GPGSA,A,3,11,19,17,06,05,12,04,09,20,,,,1.31,1.01,0.83*0B 
90.12827        GPS_NMEA_FROM_GPS    iGPS            $GPGSA,A,3,11,19,17,06,05,12,04,09,20,,,,1.31,1.01,0.83*0B 
91.03095        GPS_NMEA_FROM_GPS    iGPS            $GPGGA,164506.000,4221.5244,N,07105.2190,W,2,09,1.01,4.4,M,-33.7,M,0000,0000*55 
92.13414        GPS_NMEA_FROM_GPS    iGPS            $GPGSA,A,3,11,19,17,06,05,12,04,09,20,,,,1.31,1.01,0.83*0B 
93.03709        GPS_NMEA_FROM_GPS    iGPS            $GPGGA,164508.000,4221.5243,N,07105.2184,W,2,09,1.01,4.3,M,-33.7,M,0000,0000*5E 
94.04020        GPS_NMEA_FROM_GPS    iGPS            $GPGGA,164509.000,4221.5243,N,07105.2181,W,2,09,1.01,4.3,M,-33.7,M,0000,0000*5A 
95.04323        GPS_NMEA_FROM_GPS    iGPS            $GPGGA,164510.000,4221.5244,N,07105.2177,W,2,09,1.01,4.2,M,-33.7,M,0000,0000*5D 
96.04642        GPS_NMEA_FROM_GPS    iGPS            $GPGGA,164511.000,4221.5244,N,07105.2175,W,2,09,1.01,4.3,M,-33.7,M,0000,0000*5F 
97.04901        GPS_NMEA_FROM_GPS    iGPS            $GPGGA,164512.000,4221.5245,N,07105.2173,W,2,09,1.01,4.3,M,-33.7,M,0000,0000*5B 
98.05195        GPS_NMEA_FROM_GPS    iGPS            $GPGGA,164513.000,4221.5246,N,07105.2170,W,2,09,1.01,4.2,M,-33.7,M,0000,0000*5B 
99.05548        GPS_NMEA_FROM_GPS    iGPS            $GPGGA,164514.000,4221.5245,N,07105.2168,W,2,09,1.01,4.2,M,-33.7,M,0000,0000*56 
100.05773       GPS_NMEA_FROM_GPS    iGPS            $GPGSA,A,3,11,19,17,06,05,12,04,09,20,,,,1.31,1.01,0.84*0C 
101.16068       GPS_NMEA_FROM_GPS    iGPS            $GPGSA,A,3,11,19,17,06,05,12,04,09,20,,,,1.31,1.01,0.83*0B 
102.06334       GPS_NMEA_FROM_GPS    iGPS            $GPGGA,164517.000,4221.5247,N,07105.2159,W,2,09,1.01,4.3,M,-33.7,M,0000,0000*54 
103.06645       GPS_NMEA_FROM_GPS    iGPS            $GPGGA,164518.000,4221.5245,N,07105.2155,W,2,09,1.01,4.3,M,-33.7,M,0000,0000*55 
104.06937       GPS_NMEA_FROM_GPS    iGPS            $GPGGA,164519.000,4221.5246,N,07105.2153,W,2,09,1.01,4.3,M,-33.7,M,0000,0000*51 
105.07238       GPS_NMEA_FROM_GPS    iGPS            $GPGSA,A,3,11,19,17,06,05,12,04,09,20,,,,1.31,1.01,0.84*0C 
106.07546       GPS_NMEA_FROM_GPS    iGPS            $GPGGA,164521.000,4221.5246,N,07105.2148,W,2,09,1.01,4.4,M,-33.7,M,0000,0000*57 
106.97844       GPS_NMEA_FROM_GPS    iGPS            $GPGGA,164522.000,4221.5247,N,07105.2147,W,2,09,1.01,4.4,M,-33.7,M,0000,0000*5A 
108.08232       GPS_NMEA_FROM_GPS    iGPS            $GPGGA,164523.000,4221.5246,N,07105.2147,W,2,09,1.01,4.5,M,-33.7,M,0000,0000*5B 
109.08497       GPS_NMEA_FROM_GPS    iGPS            $GPGGA,164524.000,4221.5246,N,07105.2147,W,2,09,1.01,4.6,M,-33.7,M,0000,0000*5F 
110.08743       GPS_NMEA_FROM_GPS    iGPS            $GPGGA,164525.000,4221.5246,N,07105.2147,W,2,09,1.07,4.5,M,-33.7,M,0000,0000*5B 
111.08994       GPS_NMEA_FROM_GPS    iGPS            $GPGGA,164526.000,4221.5247,N,07105.2148,W,2,09,1.01,4.5,M,-33.7,M,0000,0000*50 
112.09283       GPS_NMEA_FROM_GPS    iGPS            $GPGGA,164527.000,4221.5248,N,07105.2148,W,2,09,1.01,4.5,M,-33.7,M,0000,0000*5E 
113.09615       GPS_NMEA_FROM_GPS    iGPS            $GPGGA,164528.000,4221.5249,N,07105.2150,W,2,09,1.01,4.5,M,-33.7,M,0000,0000*59 
113.99935       GPS_NMEA_FROM_GPS    iGPS            $GPGGA,164529.000,4221.5248,N,07105.2151,W,2,09,1.01,4.5,M,-33.7,M,0000,0000*58 
115.10280       GPS_NMEA_FROM_GPS    iGPS            $GPGSA,A,3,11,19,17,06,05,12,04,09,20,,,,1.31,1.01,0.84*0C 
116.00548       GPS_NMEA_FROM_GPS    iGPS            $GPGGA,164531.000,4221.5247,N,07105.2152,W,2,09,1.01,4.6,M,-33.7,M,0000,0000*5E 
117.10861       GPS_NMEA_FROM_GPS    iGPS            $GPGSA,A,3,11,19,17,06,05,12,04,09,20,,,,1.31,1.01,0.84*0C 
118.01169       GPS_NMEA_FROM_GPS    iGPS            $GPGGA,164533.000,4221.5246,N,07105.2151,W,2,09,1.01,4.7,M,-33.7,M,0000,0000*5F 
119.01455       GPS_NMEA_FROM_GPS    iGPS            $GPGGA,164534.000,4221.5246,N,07105.2151,W,2,09,1.01,4.7,M,-33.7,M,0000,0000*58 
120.01758       GPS_NMEA_FROM_GPS    iGPS            $GPGGA,164535.000,4221.5246,N,07105.2151,W,2,09,1.01,4.6,M,-33.7,M,0000,0000*58 
121.02054       GPS_NMEA_FROM_GPS    iGPS            $GPGGA,164536.000,4221.5246,N,07105.2151,W,2,09,1.01,4.6,M,-33.7,M,0000,0000*5B 
122.12331       GPS_NMEA_FROM_GPS    iGPS            $GPGSA,A,3,11,19,17,06,05,12,04,09,20,,,,1.31,1.01,0.84*0C 
123.12624       GPS_NMEA_FROM_GPS    iGPS            $GPGSA,A,3,11,19,17,06,05,12,04,09,20,,,,1.31,1.01,0.84*0C 
124.12883       GPS_NMEA_FROM_GPS    iGPS            $GPGSA,A,3,11,19,17,06,05,12,04,09,20,,,,1.31,1.01,0.84*0C 
125.13235       GPS_NMEA_FROM_GPS    iGPS            $GPGSA,A,3,11,19,17,06,05,12,04,09,20,,,,1.31,1.01,0.84*0C 
126.03501       GPS_NMEA_FROM_GPS    iGPS            $GPGGA,164541.000,4221.5246,N,07105.2147,W,2,09,1.01,4.6,M,-33.7,M,0000,0000*5C 
127.03780       GPS_NMEA_FROM_GPS    iGPS            $GPGGA,164542.000,4221.5245,N,07105.2145,W,2,09,1.01,4.7,M,-33.7,M,0000,0000*5F 
128.04119       GPS_NMEA_FROM_GPS    iGPS            $GPGGA,164543.000,4221.5245,N,07105.2143,W,2,09,1.01,4.7,M,-33.7,M,0000,0000*58 
129.14429       GPS_NMEA_FROM_GPS    iGPS            $GPGSA,A,3,11,19,17,06,05,12,04,09,20,,,,1.31,1.01,0.84*0C 
130.04691       GPS_NMEA_FROM_GPS    iGPS            $GPGGA,164545.000,4221.5246,N,07105.2140,W,2,09,1.01,4.7,M,-33.7,M,0000,0000*5E 
131.04983       GPS_NMEA_FROM_GPS    iGPS            $GPGGA,164546.000,4221.5244,N,07105.2140,W,2,09,1.01,4.7,M,-33.7,M,0000,0000*5F 
132.05281       GPS_NMEA_FROM_GPS    iGPS            $GPGGA,164547.000,4221.5244,N,07105.2142,W,2,09,1.01,4.7,M,-33.7,M,0000,0000*5C 
133.15636       GPS_NMEA_FROM_GPS    iGPS            $GPGSA,A,3,11,19,17,06,05,12,04,09,20,,,,1.31,1.01,0.84*0C 
134.15932       GPS_NMEA_FROM_GPS    iGPS            $GPGSA,A,3,11,19,17,06,05,12,04,09,20,,,,1.31,1.01,0.84*0C 
135.16189       GPS_NMEA_FROM_GPS    iGPS            $GPGSA,A,3,11,19,17,06,05,12,04,09,20,,,,1.31,1.01,0.84*0C 
136.06417       GPS_NMEA_FROM_GPS    iGPS            $GPGGA,164551.000,4221.5245,N,07105.2149,W,2,09,1.01,4.7,M,-33.7,M,0000,0000*51 
137.06626       GPS_NMEA_FROM_GPS    iGPS            $GPGGA,164552.000,4221.5245,N,07105.2152,W,2,09,1.01,4.7,M,-33.7,M,0000,0000*58 
138.06950       GPS_NMEA_FROM_GPS    iGPS            $GPGSA,A,3,11,19,17,06,05,12,04,09,20,,,,1.31,1.01,0.84*0C 
139.07227       GPS_NMEA_FROM_GPS    iGPS            $GPGSA,A,3,11,19,17,06,05,12,04,09,20,,,,1.31,1.01,0.84*0C 
140.07609       GPS_NMEA_FROM_GPS    iGPS            $GPGSA,A,3,11,19,17,06,05,12,04,09,20,,,,1.31,1.01,0.84*0C 
141.07798       GPS_NMEA_FROM_GPS    iGPS            $GPGGA,164556.000,4221.5241,N,07105.2160,W,2,09,1.01,4.7,M,-33.7,M,0000,0000*59 
142.08114       GPS_NMEA_FROM_GPS    iGPS            $GPGGA,164557.000,4221.5240,N,07105.2159,W,2,09,1.01,4.7,M,-33.7,M,0000,0000*53 
143.08439       GPS_NMEA_FROM_GPS    iGPS            $GPGGA,164558.000,4221.5239,N,07105.2158,W,2,09,1.01,4.7,M,-33.7,M,0000,0000*53 
144.08874       GPS_NMEA_FROM_GPS    iGPS            $GPGGA,164559.000,4221.5239,N,07105.2157,W,2,09,1.01,4.7,M,-33.7,M,0000,0000*5D 
145.09083       GPS_NMEA_FROM_GPS    iGPS            $GPGGA,164600.000,4221.5239,N,07105.2155,W,2,09,1.01,4.7,M,-33.7,M,0000,0000*50 
146.09377       GPS_NMEA_FROM_GPS    iGPS            $GPGGA,164601.000,4221.5241,N,07105.2154,W,2,09,1.01,4.7,M,-33.7,M,0000,0000*5F 
147.09681       GPS_NMEA_FROM_GPS    iGPS            $GPGSA,A,3,11,19,17,06,05,12,04,09,20,,,,1.31,1.01,0.84*0C 
147.99928       GPS_NMEA_FROM_GPS    iGPS            $GPGGA,164603.000,4221.5246,N,07105.2149,W,2,09,1.01,4.7,M,-33.7,M,0000,0000*56 
149.10201       GPS_NMEA_FROM_GPS    iGPS            $GPGSA,A,3,11,19,17,06,05,12,04,09,20,,,,1.86,1.07,1.52*0C 
150.10511       GPS_NMEA_FROM_GPS    iGPS            $GPGGA,164605.000,4221.5252,N,07105.2144,W,2,09,1.07,4.7,M,-33.7,M,0000,0000*5E 
151.10802       GPS_NMEA_FROM_GPS    iGPS            $GPGSA,A,3,11,19,17,06,05,12,04,09,20,,,,1.86,1.07,1.53*0D 
152.11109       GPS_NMEA_FROM_GPS    iGPS            $GPGGA,164607.000,4221.5257,N,07105.2141,W,2,09,1.07,4.7,M,-33.7,M,0000,0000*5C 
153.11433       GPS_NMEA_FROM_GPS    iGPS            $GPGGA,164608.000,4221.5260,N,07105.2140,W,2,09,1.07,4.7,M,-33.7,M,0000,0000*56 
154.11724       GPS_NMEA_FROM_GPS    iGPS            $GPGGA,164609.000,4221.5263,N,07105.2137,W,2,09,1.07,4.7,M,-33.7,M,0000,0000*54 
155.01996       GPS_NMEA_FROM_GPS    iGPS            $GPGGA,164610.000,4221.5265,N,07105.2135,W,2,09,1.07,4.6,M,-33.7,M,0000,0000*59 
156.02289       GPS_NMEA_FROM_GPS    iGPS            $GPGGA,164611.000,4221.5266,N,07105.2133,W,2,09,1.07,4.6,M,-33.7,M,0000,0000*5D 
157.12610       GPS_NMEA_FROM_GPS    iGPS            $GPGSA,A,3,11,19,17,06,05,12,04,09,20,,,,1.86,1.07,1.53*0D 
158.12918       GPS_NMEA_FROM_GPS    iGPS            $GPGGA,164613.000,4221.5269,N,07105.2127,W,2,09,1.07,4.5,M,-33.7,M,0000,0000*56 
159.13219       GPS_NMEA_FROM_GPS    iGPS            $GPGSA,A,3,11,19,17,06,05,12,04,09,20,,,,1.86,1.07,1.53*0D 
160.03476       GPS_NMEA_FROM_GPS    iGPS            $GPGGA,164615.000,4221.5273,N,07105.2123,W,2,09,1.07,4.4,M,-33.7,M,0000,0000*5E 
161.03730       GPS_NMEA_FROM_GPS    iGPS            $GPGGA,164616.000,4221.5273,N,07105.2121,W,2,09,1.07,4.3,M,-33.7,M,0000,0000*58 
162.03975       GPS_NMEA_FROM_GPS    iGPS            $GPGGA,164617.000,4221.5275,N,07105.2119,W,2,09,1.07,4.3,M,-33.7,M,0000,0000*54 
163.04211       GPS_NMEA_FROM_GPS    iGPS            $GPGGA,164618.000,4221.5275,N,07105.2117,W,2,09,1.07,4.2,M,-33.7,M,0000,0000*54 
164.04587       GPS_NMEA_FROM_GPS    iGPS            $GPGGA,164619.000,4221.5277,N,07105.2117,W,2,09,1.07,4.2,M,-33.7,M,0000,0000*57 
165.14916       GPS_NMEA_FROM_GPS    iGPS            $GPGSA,A,3,11,19,17,06,05,12,04,09,20,,,,1.86,1.07,1.53*0D 
166.15205       GPS_NMEA_FROM_GPS    iGPS            $GPGSA,A,3,11,19,17,06,05,12,04,09,20,,,,1.87,1.07,1.53*0C 
167.15524       GPS_NMEA_FROM_GPS    iGPS            $GPGSA,A,3,11,19,17,06,05,12,04,09,20,,,,1.87,1.07,1.53*0C 
168.15859       GPS_NMEA_FROM_GPS    iGPS            $GPGSA,A,3,11,19,17,06,05,12,04,09,20,,,,1.87,1.07,1.53*0C 
169.06131       GPS_NMEA_FROM_GPS    iGPS            $GPGGA,164624.000,4221.5278,N,07105.2112,W,2,09,1.01,3.8,M,-33.7,M,0000,0000*58 
170.06436       GPS_NMEA_FROM_GPS    iGPS            $GPGSA,A,3,11,19,17,06,05,12,04,09,20,,,,1.87,1.07,1.53*0C 
171.06733       GPS_NMEA_FROM_GPS    iGPS            $GPGGA,164626.000,4221.5279,N,07105.2110,W,2,09,1.07,3.8,M,-33.7,M,0000,0000*5F 
172.07027       GPS_NMEA_FROM_GPS    iGPS            $GPGSA,A,3,11,19,17,06,05,12,04,09,20,,,,1.87,1.07,1.53*0C 
173.07341       GPS_NMEA_FROM_GPS    iGPS            $GPGGA,164628.000,4221.5280,N,07105.2108,W,2,09,1.07,3.7,M,-33.7,M,0000,0000*51 
174.07586       GPS_NMEA_FROM_GPS    iGPS            $GPGGA,164629.000,4221.5280,N,07105.2107,W,2,09,1.07,3.7,M,-33.7,M,0000,0000*5F 
175.07833       GPS_NMEA_FROM_GPS    iGPS            $GPGGA,164630.000,4221.5281,N,07105.2106,W,2,09,1.07,3.7,M,-33.7,M,0000,0000*57 
176.08109       GPS_NMEA_FROM_GPS    iGPS            $GPGSA,A,3,11,19,17,06,05,12,04,09,20,,,,1.31,1.01,0.84*0C 
176.98391       GPS_NMEA_FROM_GPS    iGPS            $GPGGA,164632.000,4221.5281,N,07105.2105,W,2,09,1.07,3.6,M,-33.7,M,0000,0000*57 
178.08741       GPS_NMEA_FROM_GPS    iGPS            $GPGSA,A,3,11,19,17,06,05,12,04,09,20,,,,1.87,1.07,1.53*0C 
179.09029       GPS_NMEA_FROM_GPS    iGPS            $GPGGA,164634.000,4221.5281,N,07105.2104,W,2,09,1.07,3.6,M,-33.7,M,0000,0000*50 
180.09324       GPS_NMEA_FROM_GPS    iGPS            $GPGGA,164635.000,4221.5281,N,07105.2104,W,2,09,1.07,3.6,M,-33.7,M,0000,0000*51 
181.09628       GPS_NMEA_FROM_GPS    iGPS            $GPGSA,A,3,11,19,17,06,05,12,04,09,20,,,,1.87,1.07,1.53*0C 
182.09934       GPS_NMEA_FROM_GPS    iGPS            $GPGSA,A,3,11,19,17,06,05,12,04,09,20,,,,1.87,1.07,1.53*0C 
183.10269       GPS_NMEA_FROM_GPS    iGPS            $GPGSA,A,3,11,19,17,06,05,12,04,09,20,,,,1.87,1.07,1.53*0C 
184.10561       GPS_NMEA_FROM_GPS    iGPS            $GPGGA,164639.000,4221.5282,N,07105.2105,W,2,09,1.07,3.5,M,-33.7,M,0000,0000*5C 
185.10887       GPS_NMEA_FROM_GPS    iGPS            $GPGSA,A,3,11,19,17,06,05,12,04,09,20,,,,1.87,1.07,1.53*0C 
186.01206       GPS_NMEA_FROM_GPS    iGPS            $GPGGA,164641.000,4221.5281,N,07105.2107,W,2,09,1.07,3.5,M,-33.7,M,0000,0000*52 
187.11489       GPS_NMEA_FROM_GPS    iGPS            $GPGGA,164642.000,4221.5281,N,07105.2107,W,2,09,1.07,3.4,M,-33.7,M,0000,0000*50 
188.11750       GPS_NMEA_FROM_GPS    iGPS            $GPGGA,164643.000,4221.5281,N,07105.2107,W,2,09,1.07,3.4,M,-33.7,M,0000,0000*51 
189.12086       GPS_NMEA_FROM_GPS    iGPS            $GPGSA,A,3,11,19,17,06,05,12,04,09,20,,,,1.87,1.07,1.53*0C 
190.02415       GPS_NMEA_FROM_GPS    iGPS            $GPGGA,164645.000,4221.5281,N,07105.2107,W,2,09,1.07,3.4,M,-33.7,M,0000,0000*57 
191.02662       GPS_NMEA_FROM_GPS    iGPS            $GPGGA,164646.000,4221.5281,N,07105.2107,W,2,09,1.07,3.4,M,-33.7,M,0000,0000*54 
192.12974       GPS_NMEA_FROM_GPS    iGPS            $GPGGA,164647.000,4221.5281,N,07105.2107,W,2,09,1.07,3.4,M,-33.7,M,0000,0000*55 
193.03270       GPS_NMEA_FROM_GPS    iGPS            $GPGGA,164648.000,4221.5281,N,07105.2107,W,2,09,1.07,3.4,M,-33.7,M,0000,0000*5A 
194.13576       GPS_NMEA_FROM_GPS    iGPS            $GPGSA,A,3,11,19,17,06,05,12,04,09,20,,,,1.87,1.07,1.53*0C 
195.13872       GPS_NMEA_FROM_GPS    iGPS            $GPGSA,A,3,11,19,17,06,05,12,04,09,20,,,,1.87,1.07,1.53*0C 
196.04097       GPS_NMEA_FROM_GPS    iGPS            $GPGGA,164651.000,4221.5281,N,07105.2107,W,2,09,1.07,3.4,M,-33.7,M,0000,0000*52 
197.14479       GPS_NMEA_FROM_GPS    iGPS            $GPGSA,A,3,11,19,17,06,05,12,04,09,20,,,,1.87,1.07,1.53*0C 
198.04773       GPS_NMEA_FROM_GPS    iGPS            $GPGGA,164653.000,4221.5281,N,07105.2107,W,2,09,1.07,3.4,M,-33.7,M,0000,0000*50 
199.05023       GPS_NMEA_FROM_GPS    iGPS            $GPGGA,164654.000,4221.5281,N,07105.2107,W,2,09,1.07,3.4,M,-33.7,M,0000,0000*57 
200.15295       GPS_NMEA_FROM_GPS    iGPS            $GPGSA,A,3,11,19,17,06,05,12,04,09,20,,,,1.87,1.07,1.53*0C 
201.15548       GPS_NMEA_FROM_GPS    iGPS            $GPGSA,A,3,11,19,17,06,05,12,04,09,20,,,,1.87,1.07,1.53*0C 
202.05841       GPS_NMEA_FROM_GPS    iGPS            $GPGSA,A,3,11,19,17,06,05,12,04,09,20,,,,1.87,1.07,1.53*0C 
203.06053       GPS_NMEA_FROM_GPS    iGPS            $GPGGA,164658.000,4221.5281,N,07105.2107,W,2,09,1.07,3.4,M,-33.7,M,0000,0000*5B 
204.06295       GPS_NMEA_FROM_GPS    iGPS            $GPGGA,164659.000,4221.5281,N,07105.2107,W,2,09,1.07,3.4,M,-33.7,M,0000,0000*5A 
205.06589       GPS_NMEA_FROM_GPS    iGPS            $GPGGA,164700.000,4221.5281,N,07105.2107,W,2,09,1.07,3.4,M,-33.7,M,0000,0000*57 
206.06878       GPS_NMEA_FROM_GPS    iGPS            $GPGGA,164701.000,4221.5281,N,07105.2107,W,2,09,1.07,3.4,M,-33.7,M,0000,0000*56 
207.07246       GPS_NMEA_FROM_GPS    iGPS            $GPGSA,A,3,11,19,17,06,05,12,04,09,20,,,,1.87,1.07,1.53*0C 
208.07460       GPS_NMEA_FROM_GPS    iGPS            $GPGGA,164703.000,4221.5281,N,07105.2107,W,2,09,1.07,3.4,M,-33.7,M,0000,0000*54 
209.07750       GPS_NMEA_FROM_GPS    iGPS            $GPGGA,164704.000,4221.5281,N,07105.2107,W,2,09,1.07,3.4,M,-33.7,M,0000,0000*53 
210.08045       GPS_NMEA_FROM_GPS    iGPS            $GPGGA,164705.000,4221.5281,N,07105.2107,W,2,09,1.07,3.4,M,-33.7,M,0000,0000*52 
211.08372       GPS_NMEA_FROM_GPS    iGPS            $GPGSA,A,3,11,19,17,06,05,12,04,09,20,,,,1.87,1.07,1.53*0C 
212.08732       GPS_NMEA_FROM_GPS    iGPS            $GPGSA,A,3,11,19,17,06,05,12,04,09,20,,,,1.87,1.07,1.53*0C 
213.09044       GPS_NMEA_FROM_GPS    iGPS            $GPGSA,A,3,11,19,17,06,05,12,04,09,20,,,,1.87,1.07,1.54*0B 
214.09305       GPS_NMEA_FROM_GPS    iGPS            $GPGSA,A,3,11,19,17,06,05,12,04,09,20,,,,1.87,1.07,1.53*0C 
214.99583       GPS_NMEA_FROM_GPS    iGPS            $GPGGA,164710.000,4221.5281,N,07105.2107,W,2,09,1.07,3.4,M,-33.7,M,0000,0000*56 
215.99868       GPS_NMEA_FROM_GPS    iGPS            $GPGGA,164711.000,4221.5281,N,07105.2106,W,2,09,1.07,3.4,M,-33.7,M,0000,0000*56 
217.10271       GPS_NMEA_FROM_GPS    iGPS            $GPGGA,164712.000,4221.5281,N,07105.2106,W,2,09,1.07,3.4,M,-33.7,M,0000,0000*55 
218.10625       GPS_NMEA_FROM_GPS    iGPS            $GPGGA,164713.000,4221.5281,N,07105.2106,W,2,09,1.07,3.4,M,-33.7,M,0000,0000*54 
219.10928       GPS_NMEA_FROM_GPS    iGPS            $GPGGA,164714.000,4221.5281,N,07105.2106,W,2,09,1.07,3.4,M,-33.7,M,0000,0000*53 
220.11235       GPS_NMEA_FROM_GPS    iGPS            $GPGGA,164715.000,4221.5281,N,07105.2106,W,2,09,1.07,3.4,M,-33.7,M,0000,0000*52 
221.11538       GPS_NMEA_FROM_GPS    iGPS            $GPGGA,164716.000,4221.5281,N,07105.2106,W,2,09,1.07,3.4,M,-33.7,M,0000,0000*51 
222.11823       GPS_NMEA_FROM_GPS    iGPS            $GPGGA,164717.000,4221.5281,N,07105.2106,W,2,09,1.07,3.4,M,-33.7,M,0000,0000*50 
223.02143       GPS_NMEA_FROM_GPS    iGPS            $GPGGA,164718.000,4221.5281,N,07105.2106,W,2,09,1.07,3.4,M,-33.7,M,0000,0000*5F 
224.12485       GPS_NMEA_FROM_GPS    iGPS            $GPGSA,A,3,11,19,17,06,05,12,04,09,20,,,,1.87,1.07,1.54*0B 
225.02691       GPS_NMEA_FROM_GPS    iGPS            $GPGGA,164720.000,4221.5281,N,07105.2106,W,2,09,1.07,3.4,M,-33.7,M,0000,0000*54 
226.02934       GPS_NMEA_FROM_GPS    iGPS            $GPGGA,164721.000,4221.5280,N,07105.2106,W,2,09,1.07,3.4,M,-33.7,M,0000,0000*54 
227.03169       GPS_NMEA_FROM_GPS    iGPS            $GPGGA,164722.000,4221.5280,N,07105.2106,W,2,09,1.07,3.4,M,-33.7,M,0000,0000*57 
228.03516       GPS_NMEA_FROM_GPS    iGPS            $GPGGA,164723.000,4221.5280,N,07105.2106,W,2,09,1.07,3.4,M,-33.7,M,0000,0000*56 
229.13888       GPS_NMEA_FROM_GPS    iGPS            $GPGSA,A,3,11,19,17,06,05,12,04,09,20,,,,1.87,1.07,1.54*0B 
230.14117       GPS_NMEA_FROM_GPS    iGPS            $GPGSA,A,3,11,19,17,06,05,12,04,09,20,,,,1.87,1.07,1.54*0B 
231.14424       GPS_NMEA_FROM_GPS    iGPS            $GPGSA,A,3,11,19,17,06,05,12,04,09,20,,,,1.87,1.07,1.54*0B 
232.04771       GPS_NMEA_FROM_GPS    iGPS            $GPGGA,164727.000,4221.5279,N,07105.2104,W,2,09,1.07,3.4,M,-33.7,M,0000,0000*56 
233.05094       GPS_NMEA_FROM_GPS    iGPS            $GPGGA,164728.000,4221.5278,N,07105.2103,W,2,09,1.07,3.4,M,-33.7,M,0000,0000*5F 
234.05379       GPS_NMEA_FROM_GPS    iGPS            $GPGGA,164729.000,4221.5277,N,07105.2102,W,2,09,1.07,3.4,M,-33.7,M,0000,0000*50 
235.05678       GPS_NMEA_FROM_GPS    iGPS            $GPGGA,164730.000,4221.5276,N,07105.2101,W,2,09,1.07,3.4,M,-33.7,M,0000,0000*5A 
236.05989       GPS_NMEA_FROM_GPS    iGPS            $GPGGA,164731.000,4221.5275,N,07105.2100,W,2,09,1.07,3.4,M,-33.7,M,0000,0000*59 
237.06267       GPS_NMEA_FROM_GPS    iGPS            $GPGGA,164732.000,4221.5274,N,07105.2099,W,2,09,1.07,3.4,M,-33.7,M,0000,0000*5A 
238.06572       GPS_NMEA_FROM_GPS    iGPS            $GPGGA,164733.000,4221.5271,N,07105.2096,W,2,09,1.07,3.4,M,-33.7,M,0000,0000*51 
239.06829       GPS_NMEA_FROM_GPS    iGPS            $GPGGA,164734.000,4221.5268,N,07105.2094,W,2,09,1.07,3.4,M,-33.7,M,0000,0000*5C 
240.17094       GPS_NMEA_FROM_GPS    iGPS            $GPGSA,A,3,11,19,17,06,05,12,04,09,20,,,,1.87,1.07,1.54*0B 
241.07353       GPS_NMEA_FROM_GPS    iGPS            $GPGGA,164736.000,4221.5260,N,07105.2089,W,2,09,1.07,3.4,M,-33.7,M,0000,0000*5A 
242.07657       GPS_NMEA_FROM_GPS    iGPS            $GPGGA,164737.000,4221.5256,N,07105.2085,W,2,09,1.07,3.6,M,-33.7,M,0000,0000*50 
243.07984       GPS_NMEA_FROM_GPS    iGPS            $GPGGA,164738.000,4221.5253,N,07105.2083,W,2,09,1.07,3.8,M,-33.7,M,0000,0000*52 
244.08359       GPS_NMEA_FROM_GPS    iGPS            $GPGGA,164739.000,4221.5248,N,07105.2080,W,2,09,1.07,3.9,M,-33.7,M,0000,0000*5B 
245.08562       GPS_NMEA_FROM_GPS    iGPS            $GPGSA,A,3,11,19,17,06,05,12,04,09,20,,,,1.87,1.07,1.54*0B 
246.08896       GPS_NMEA_FROM_GPS    iGPS            $GPGSA,A,3,11,19,17,06,05,12,04,09,20,,,,1.87,1.07,1.54*0B 
246.99173       GPS_NMEA_FROM_GPS    iGPS            $GPGGA,164742.000,4221.5238,N,07105.2072,W,2,09,1.07,4.3,M,-33.7,M,0000,0000*50 
248.09513       GPS_NMEA_FROM_GPS    iGPS            $GPGSA,A,3,11,19,17,06,05,12,04,09,20,,,,1.87,1.07,1.54*0B 
249.09839       GPS_NMEA_FROM_GPS    iGPS            $GPGSA,A,3,11,19,17,06,05,12,04,09,20,,,,1.87,1.07,1.54*0B 
250.10087       GPS_NMEA_FROM_GPS    iGPS            $GPGGA,164745.000,4221.5225,N,07105.2064,W,2,09,1.07,4.1,M,-33.7,M,0000,0000*5E 
251.10349       GPS_NMEA_FROM_GPS    iGPS            $GPGSA,A,3,11,19,17,06,05,12,04,09,20,,,,1.87,1.07,1.54*0B 
252.10589       GPS_NMEA_FROM_GPS    iGPS            $GPGGA,164747.000,4221.5218,N,07105.2061,W,2,09,1.07,3.9,M,-33.7,M,0000,0000*58 
253.10983       GPS_NMEA_FROM_GPS    iGPS            $GPGGA,164748.000,4221.5215,N,07105.2059,W,2,09,1.07,3.8,M,-33.7,M,0000,0000*50 
254.11390       GPS_NMEA_FROM_GPS    iGPS            $GPGSA,A,3,11,19,17,06,05,12,04,09,20,,,,1.87,1.07,1.54*0B 
255.11777       GPS_NMEA_FROM_GPS    iGPS            $GPGGA,164750.000,4221.5205,N,07105.2055,W,2,09,1.07,3.5,M,-33.7,M,0000,0000*59 
256.12069       GPS_NMEA_FROM_GPS    iGPS            $GPGSA,A,3,11,19,17,06,05,12,04,09,20,,,,1.87,1.07,1.54*0B 
257.12352       GPS_NMEA_FROM_GPS    iGPS            $GPGSA,A,3,11,19,17,06,05,12,04,09,20,,,,1.87,1.07,1.54*0B 
258.02634       GPS_NMEA_FROM_GPS    iGPS            $GPGGA,164753.000,4221.5194,N,07105.2050,W,2,09,1.07,3.3,M,-33.7,M,0000,0000*52 
259.12953       GPS_NMEA_FROM_GPS    iGPS            $GPGGA,164754.000,4221.5190,N,07105.2050,W,2,09,1.07,3.2,M,-33.7,M,0000,0000*50 
260.13242       GPS_NMEA_FROM_GPS    iGPS            $GPGGA,164755.000,4221.5186,N,07105.2049,W,2,10,0.84,3.1,M,-33.7,M,0000,0000*5F 
260.73477       GPS_NMEA_FROM_GPS    iGPS            $GPGGA,164756.000,4221.5183,N,07105.2049,W,2,10,0.84,3.0,M,-33.7,M,0000,0000*58 
261.73763       GPS_NMEA_FROM_GPS    iGPS            $GPGGA,164757.000,4221.5179,N,07105.2048,W,2,10,0.84,3.1,M,-33.7,M,0000,0000*5C 
262.74094       GPS_NMEA_FROM_GPS    iGPS            $GPGGA,164758.000,4221.5175,N,07105.2049,W,2,10,0.84,3.2,M,-33.7,M,0000,0000*5D 
263.74338       GPS_NMEA_FROM_GPS    iGPS            $GPGGA,164759.000,4221.5170,N,07105.2048,W,2,10,0.84,3.5,M,-33.7,M,0000,0000*5F 
264.74583       GPS_NMEA_FROM_GPS    iGPS            $GPGGA,164800.000,4221.5167,N,07105.2049,W,2,10,0.84,3.8,M,-33.7,M,0000,0000*56 
265.74883       GPS_NMEA_FROM_GPS    iGPS            $GPGSA,A,3,11,19,17,06,05,12,04,09,20,25,,,1.15,0.84,0.79*03 
266.75187       GPS_NMEA_FROM_GPS    iGPS            $GPGGA,164802.000,4221.5161,N,07105.2051,W,2,10,0.84,3.8,M,-33.7,M,0000,0000*5B 
267.75496       GPS_NMEA_FROM_GPS    iGPS            $GPGSA,A,3,11,19,17,06,05,12,04,09,20,25,,,1.54,0.84,1.29*02 
268.76006       GPS_NMEA_FROM_GPS    iGPS            $GPGSA,A,3,11,19,17,06,05,12,04,09,20,25,,,1.54,0.84,1.29*02 
269.76294       GPS_NMEA_FROM_GPS    iGPS            $GPGSA,A,3,11,19,17,06,05,12,04,09,20,25,,,1.54,0.84,1.29*02 
270.76587       GPS_NMEA_FROM_GPS    iGPS            $GPGSA,A,3,11,19,17,06,05,12,04,09,20,25,,,1.54,0.84,1.29*02 
271.76864       GPS_NMEA_FROM_GPS    iGPS            $GPGSA,A,3,11,19,17,06,05,12,04,09,20,25,,,1.54,0.84,1.29*02 
272.77165       GPS_NMEA_FROM_GPS    iGPS            $GPGSA,A,3,11,19,17,06,05,12,04,09,20,25,,,1.54,0.84,1.29*02 
273.77450       GPS_NMEA_FROM_GPS    iGPS            $GPGSA,A,3,11,19,17,06,05,12,04,09,20,25,,,1.54,0.84,1.29*02 
274.67741       GPS_NMEA_FROM_GPS    iGPS            $GPGGA,164810.000,4221.5153,N,07105.2078,W,2,10,0.84,4.4,M,-33.7,M,0000,0000*59 
275.78083       GPS_NMEA_FROM_GPS    iGPS            $GPGSA,A,3,11,19,17,06,05,12,04,09,20,25,,,1.54,0.84,1.29*02 
276.68304       GPS_NMEA_FROM_GPS    iGPS            $GPGGA,164812.000,4221.5150,N,07105.2085,W,2,10,0.84,4.4,M,-33.7,M,0000,0000*5A 
277.68609       GPS_NMEA_FROM_GPS    iGPS            $GPGGA,164813.000,4221.5149,N,07105.2088,W,2,10,0.84,4.4,M,-33.7,M,0000,0000*5E 
278.78875       GPS_NMEA_FROM_GPS    iGPS            $GPGSA,A,3,11,19,17,06,05,12,04,09,20,25,,,1.54,0.84,1.29*02 
279.69171       GPS_NMEA_FROM_GPS    iGPS            $GPGGA,164815.000,4221.5147,N,07105.2096,W,2,10,0.84,4.2,M,-33.7,M,0000,0000*5F 
281.09536       GPS_NMEA_FROM_GPS    iGPS            $GPGGA,164816.000,4221.5146,N,07105.2101,W,2,10,0.84,4.1,M,-33.7,M,0000,0000*51 
282.09827       GPS_NMEA_FROM_GPS    iGPS            $GPGGA,164817.000,4221.5143,N,07105.2103,W,2,10,0.84,4.3,M,-33.7,M,0000,0000*55 
283.10147       GPS_NMEA_FROM_GPS    iGPS            $GPGSA,A,3,11,19,17,06,05,12,04,09,20,25,,,1.54,0.84,1.29*02 
284.10432       GPS_NMEA_FROM_GPS    iGPS            $GPGGA,164819.000,4221.5137,N,07105.2109,W,2,10,0.84,4.3,M,-33.7,M,0000,0000*52 
285.10728       GPS_NMEA_FROM_GPS    iGPS            $GPGSA,A,3,11,19,17,06,05,12,04,09,20,25,,,1.54,0.84,1.29*02 
286.11080       GPS_NMEA_FROM_GPS    iGPS            $GPGGA,164821.000,4221.5130,N,07105.2114,W,2,10,0.84,4.3,M,-33.7,M,0000,0000*52 
287.11372       GPS_NMEA_FROM_GPS    iGPS            $GPGGA,164822.000,4221.5127,N,07105.2117,W,2,10,0.84,4.3,M,-33.7,M,0000,0000*54 
288.01669       GPS_NMEA_FROM_GPS    iGPS            $GPGGA,164823.000,4221.5125,N,07105.2120,W,2,10,0.84,4.5,M,-33.7,M,0000,0000*55 
289.01925       GPS_NMEA_FROM_GPS    iGPS            $GPGGA,164824.000,4221.5124,N,07105.2123,W,2,10,0.84,4.5,M,-33.7,M,0000,0000*50 
290.12191       GPS_NMEA_FROM_GPS    iGPS            $GPGGA,164825.000,4221.5122,N,07105.2126,W,2,10,0.84,4.4,M,-33.7,M,0000,0000*53 
291.12472       GPS_NMEA_FROM_GPS    iGPS            $GPGSA,A,3,11,19,17,06,05,12,04,09,20,25,,,1.54,0.84,1.29*02 
292.12753       GPS_NMEA_FROM_GPS    iGPS            $GPGGA,164827.000,4221.5119,N,07105.2135,W,2,10,0.84,4.5,M,-33.7,M,0000,0000*5A 
293.03099       GPS_NMEA_FROM_GPS    iGPS            $GPGGA,164828.000,4221.5120,N,07105.2138,W,2,10,0.84,4.6,M,-33.7,M,0000,0000*51 
294.13443       GPS_NMEA_FROM_GPS    iGPS            $GPGGA,164829.000,4221.5120,N,07105.2142,W,2,10,0.84,4.6,M,-33.7,M,0000,0000*5D 
295.03723       GPS_NMEA_FROM_GPS    iGPS            $GPGGA,164830.000,4221.5119,N,07105.2146,W,2,10,0.84,4.4,M,-33.7,M,0000,0000*59 
296.04015       GPS_NMEA_FROM_GPS    iGPS            $GPGGA,164831.000,4221.5119,N,07105.2151,W,2,10,0.84,4.3,M,-33.7,M,0000,0000*59 
297.14343       GPS_NMEA_FROM_GPS    iGPS            $GPGSA,A,3,11,19,17,06,05,12,04,09,20,25,,,1.54,0.84,1.29*02 
298.04638       GPS_NMEA_FROM_GPS    iGPS            $GPGGA,164833.000,4221.5118,N,07105.2160,W,2,10,0.84,4.2,M,-33.7,M,0000,0000*59 
299.04940       GPS_NMEA_FROM_GPS    iGPS            $GPGGA,164834.000,4221.5118,N,07105.2165,W,2,10,0.84,4.2,M,-33.7,M,0000,0000*5B 
300.05232       GPS_NMEA_FROM_GPS    iGPS            $GPGGA,164835.000,4221.5119,N,07105.2170,W,2,10,0.84,4.2,M,-33.7,M,0000,0000*5F 
301.15546       GPS_NMEA_FROM_GPS    iGPS            $GPGSA,A,3,11,19,17,05,12,04,09,20,25,,,,1.71,0.86,1.48*06 
302.05735       GPS_NMEA_FROM_GPS    iGPS            $GPGGA,164837.000,4221.5119,N,07105.2178,W,2,10,0.84,4.3,M,-33.7,M,0000,0000*54 
303.06009       GPS_NMEA_FROM_GPS    iGPS            $GPGGA,164838.000,4221.5118,N,07105.2182,W,2,10,0.84,4.4,M,-33.7,M,0000,0000*58 
304.16304       GPS_NMEA_FROM_GPS    iGPS            $GPGSA,A,3,11,19,17,06,05,12,04,09,20,25,,,1.54,0.84,1.30*0A 
305.06565       GPS_NMEA_FROM_GPS    iGPS            $GPGGA,164840.000,4221.5116,N,07105.2189,W,2,10,0.84,4.5,M,-33.7,M,0000,0000*53 
306.06864       GPS_NMEA_FROM_GPS    iGPS            $GPGSA,A,3,11,19,17,06,05,12,04,09,20,25,,,1.54,0.84,1.30*0A 
307.07217       GPS_NMEA_FROM_GPS    iGPS            $GPGGA,164842.000,4221.5112,N,07105.2197,W,2,10,0.84,4.6,M,-33.7,M,0000,0000*59 
308.07530       GPS_NMEA_FROM_GPS    iGPS            $GPGGA,164843.000,4221.5110,N,07105.2200,W,2,10,0.84,4.7,M,-33.7,M,0000,0000*56 
309.07826       GPS_NMEA_FROM_GPS    iGPS            $GPGGA,164844.000,4221.5109,N,07105.2203,W,2,10,0.84,4.8,M,-33.7,M,0000,0000*55 
310.08120       GPS_NMEA_FROM_GPS    iGPS            $GPGGA,164845.000,4221.5107,N,07105.2208,W,2,10,0.84,4.9,M,-33.7,M,0000,0000*50 
311.08411       GPS_NMEA_FROM_GPS    iGPS            $GPGGA,164846.000,4221.5106,N,07105.2211,W,2,10,0.84,5.1,M,-33.7,M,0000,0000*53 
312.08704       GPS_NMEA_FROM_GPS    iGPS            $GPGSA,A,3,11,19,17,06,05,12,04,09,20,25,,,1.54,0.84,1.30*0A 
312.99020       GPS_NMEA_FROM_GPS    iGPS            $GPGGA,164848.000,4221.5103,N,07105.2216,W,2,10,0.84,5.4,M,-33.7,M,0000,0000*5A 
314.09313       GPS_NMEA_FROM_GPS    iGPS            $GPGSA,A,3,11,19,17,06,05,12,04,09,20,25,,,1.54,0.84,1.30*0A 
315.09538       GPS_NMEA_FROM_GPS    iGPS            $GPGSA,A,3,11,19,17,06,05,12,04,09,20,25,,,1.54,0.84,1.30*0A 
316.09915       GPS_NMEA_FROM_GPS    iGPS            $GPGGA,164851.000,4221.5099,N,07105.2224,W,2,10,0.84,5.8,M,-33.7,M,0000,0000*5D 
317.10225       GPS_NMEA_FROM_GPS    iGPS            $GPGGA,164852.000,4221.5099,N,07105.2225,W,2,10,0.84,5.7,M,-33.7,M,0000,0000*50 
318.10593       GPS_NMEA_FROM_GPS    iGPS            $GPGSA,A,3,11,19,17,06,05,12,04,09,20,25,,,1.55,0.84,1.30*0B 
319.10911       GPS_NMEA_FROM_GPS    iGPS            $GPGGA,164854.000,4221.5094,N,07105.2231,W,2,10,0.84,5.7,M,-33.7,M,0000,0000*5E 
320.01183       GPS_NMEA_FROM_GPS    iGPS            $GPGGA,164855.000,4221.5093,N,07105.2234,W,2,10,0.84,5.7,M,-33.7,M,0000,0000*5D 
321.11492       GPS_NMEA_FROM_GPS    iGPS            $GPGSA,A,3,11,19,17,06,05,12,04,09,20,25,,,1.54,0.84,1.30*0A 
322.11726       GPS_NMEA_FROM_GPS    iGPS            $GPGGA,164857.000,4221.5089,N,07105.2241,W,2,10,0.84,5.7,M,-33.7,M,0000,0000*56 
323.01955       GPS_NMEA_FROM_GPS    iGPS            $GPGGA,164858.000,4221.5088,N,07105.2244,W,2,10,0.84,5.8,M,-33.7,M,0000,0000*52 
324.12262       GPS_NMEA_FROM_GPS    iGPS            $GPGGA,164859.000,4221.5086,N,07105.2247,W,2,10,0.84,5.8,M,-33.7,M,0000,0000*5E 
325.12567       GPS_NMEA_FROM_GPS    iGPS            $GPGSA,A,3,11,19,17,06,05,12,04,09,20,25,,,1.55,0.84,1.30*0B 
326.12864       GPS_NMEA_FROM_GPS    iGPS            $GPGGA,164901.000,4221.5083,N,07105.2253,W,2,10,0.84,6.0,M,-33.7,M,0000,0000*59 
327.03116       GPS_NMEA_FROM_GPS    iGPS            $GPGGA,164902.000,4221.5081,N,07105.2256,W,2,10,0.84,6.1,M,-33.7,M,0000,0000*5C 
328.13366       GPS_NMEA_FROM_GPS    iGPS            $GPGSA,A,3,11,19,17,06,05,12,04,09,20,25,,,1.55,0.84,1.30*0B 
329.03610       GPS_NMEA_FROM_GPS    iGPS            $GPGGA,164904.000,4221.5082,N,07105.2263,W,2,10,0.84,6.2,M,-33.7,M,0000,0000*5C 
330.03899       GPS_NMEA_FROM_GPS    iGPS            $GPGGA,164905.000,4221.5083,N,07105.2265,W,2,10,0.84,6.2,M,-33.7,M,0000,0000*5A 
331.14204       GPS_NMEA_FROM_GPS    iGPS            $GPGSA,A,3,11,19,17,06,05,12,04,09,20,25,,,1.55,0.84,1.30*0B 
332.04409       GPS_NMEA_FROM_GPS    iGPS            $GPGGA,164907.000,4221.5084,N,07105.2271,W,2,10,0.84,6.3,M,-33.7,M,0000,0000*5B 
333.04745       GPS_NMEA_FROM_GPS    iGPS            $GPGGA,164908.000,4221.5084,N,07105.2275,W,2,10,0.84,6.3,M,-33.7,M,0000,0000*50 
334.05032       GPS_NMEA_FROM_GPS    iGPS            $GPGGA,164909.000,4221.5084,N,07105.2279,W,2,10,0.84,6.3,M,-33.7,M,0000,0000*5D 
335.05333       GPS_NMEA_FROM_GPS    iGPS            $GPGGA,164910.000,4221.5083,N,07105.2283,W,2,10,0.84,6.4,M,-33.7,M,0000,0000*50 
336.05668       GPS_NMEA_FROM_GPS    iGPS            $GPGSA,A,3,11,19,17,06,05,12,04,09,20,25,,,1.55,0.84,1.30*0B 
337.05907       GPS_NMEA_FROM_GPS    iGPS            $GPGGA,164912.000,4221.5083,N,07105.2289,W,2,10,0.84,6.5,M,-33.7,M,0000,0000*59 
338.16263       GPS_NMEA_FROM_GPS    iGPS            $GPGSA,A,3,11,19,17,06,05,12,04,09,20,25,,,1.55,0.84,1.30*0B 
339.16572       GPS_NMEA_FROM_GPS    iGPS            $GPGSA,A,3,11,19,17,06,05,12,04,09,20,25,,,1.55,0.84,1.30*0B 
340.06787       GPS_NMEA_FROM_GPS    iGPS            $GPGGA,164915.000,4221.5077,N,07105.2298,W,2,10,0.84,6.4,M,-33.7,M,0000,0000*54 
341.07007       GPS_NMEA_FROM_GPS    iGPS            $GPGGA,164916.000,4221.5076,N,07105.2302,W,2,10,0.84,6.4,M,-33.7,M,0000,0000*54 
342.07238       GPS_NMEA_FROM_GPS    iGPS            $GPGGA,164917.000,4221.5075,N,07105.2305,W,2,10,0.84,6.3,M,-33.7,M,0000,0000*56 
343.17590       GPS_NMEA_FROM_GPS    iGPS            $GPGSA,A,3,11,19,17,06,05,12,04,09,20,25,,,1.55,0.84,1.30*0B 
344.07866       GPS_NMEA_FROM_GPS    iGPS            $GPGGA,164919.000,4221.5070,N,07105.2310,W,2,10,0.84,6.3,M,-33.7,M,0000,0000*59 
345.08153       GPS_NMEA_FROM_GPS    iGPS            $GPGGA,164920.000,4221.5067,N,07105.2313,W,2,10,0.84,6.1,M,-33.7,M,0000,0000*54 
346.08444       GPS_NMEA_FROM_GPS    iGPS            $GPGGA,164921.000,4221.5064,N,07105.2315,W,2,10,0.84,6.0,M,-33.7,M,0000,0000*51 
347.08683       GPS_NMEA_FROM_GPS    iGPS            $GPGGA,164922.000,4221.5060,N,07105.2318,W,2,10,0.84,5.9,M,-33.7,M,0000,0000*51 
348.08914       GPS_NMEA_FROM_GPS    iGPS            $GPGGA,164923.000,4221.5058,N,07105.2320,W,2,10,0.84,6.0,M,-33.7,M,0000,0000*5A 
349.09237       GPS_NMEA_FROM_GPS    iGPS            $GPGGA,164924.000,4221.5055,N,07105.2323,W,2,10,0.84,6.1,M,-33.7,M,0000,0000*52 
350.09527       GPS_NMEA_FROM_GPS    iGPS            $GPGSA,A,3,11,19,17,06,05,12,04,09,20,25,,,1.55,0.84,1.30*0B 
351.09857       GPS_NMEA_FROM_GPS    iGPS            $GPGGA,164926.000,4221.5051,N,07105.2330,W,2,10,0.84,6.0,M,-33.7,M,0000,0000*57 
352.10096       GPS_NMEA_FROM_GPS    iGPS            $GPGGA,164927.000,4221.5049,N,07105.2334,W,2,10,0.84,6.0,M,-33.7,M,0000,0000*5B 
353.00308       GPS_NMEA_FROM_GPS    iGPS            $GPGGA,164928.000,4221.5047,N,07105.2338,W,2,10,0.84,6.1,M,-33.7,M,0000,0000*57 
354.00512       GPS_NMEA_FROM_GPS    iGPS            $GPGGA,164929.000,4221.5047,N,07105.2342,W,2,10,0.84,6.2,M,-33.7,M,0000,0000*58 
355.00774       GPS_NMEA_FROM_GPS    iGPS            $GPGGA,164930.000,4221.5048,N,07105.2346,W,2,10,0.84,6.3,M,-33.7,M,0000,0000*5A 
356.01072       GPS_NMEA_FROM_GPS    iGPS            $GPGGA,164931.000,4221.5048,N,07105.2350,W,2,10,0.84,6.2,M,-33.7,M,0000,0000*5D 
357.01334       GPS_NMEA_FROM_GPS    iGPS            $GPGGA,164932.000,4221.5046,N,07105.2355,W,2,10,0.84,6.1,M,-33.7,M,0000,0000*56 
358.11669       GPS_NMEA_FROM_GPS    iGPS            $GPGSA,A,3,11,19,17,06,05,12,04,09,20,25,,,1.55,0.84,1.31*0A 
359.12019       GPS_NMEA_FROM_GPS    iGPS            $GPGSA,A,3,11,19,17,06,05,12,04,09,20,25,,,1.55,0.84,1.31*0A 
360.12313       GPS_NMEA_FROM_GPS    iGPS            $GPGGA,164935.000,4221.5047,N,07105.2367,W,2,10,0.84,5.9,M,-33.7,M,0000,0000*5A 
361.12594       GPS_NMEA_FROM_GPS    iGPS            $GPGSA,A,3,11,19,17,06,05,12,04,09,20,25,,,1.55,0.84,1.31*0A 
362.02809       GPS_NMEA_FROM_GPS    iGPS            $GPGGA,164937.000,4221.5045,N,07105.2375,W,2,10,0.84,6.0,M,-33.7,M,0000,0000*53 
363.03102       GPS_NMEA_FROM_GPS    iGPS            $GPGGA,164938.000,4221.5045,N,07105.2379,W,2,10,0.84,6.0,M,-33.7,M,0000,0000*50 
364.13427       GPS_NMEA_FROM_GPS    iGPS            $GPGSA,A,3,11,19,17,06,05,12,04,09,20,25,,,1.55,0.84,1.31*0A 
365.03718       GPS_NMEA_FROM_GPS    iGPS            $GPGGA,164940.000,4221.5046,N,07105.2387,W,2,10,0.84,6.1,M,-33.7,M,0000,0000*5C 
366.03956       GPS_NMEA_FROM_GPS    iGPS            $GPGGA,164941.000,4221.5047,N,07105.2390,W,2,10,0.84,6.1,M,-33.7,M,0000,0000*5A 
367.04182       GPS_NMEA_FROM_GPS    iGPS            $GPGGA,164942.000,4221.5046,N,07105.2392,W,2,10,0.84,6.2,M,-33.7,M,0000,0000*59 
368.14443       GPS_NMEA_FROM_GPS    iGPS            $GPGSA,A,3,11,19,17,06,05,12,04,09,20,25,,,1.55,0.84,1.31*0A 
369.04736       GPS_NMEA_FROM_GPS    iGPS            $GPGGA,164944.000,4221.5045,N,07105.2397,W,2,10,0.84,6.3,M,-33.7,M,0000,0000*58 
370.15201       GPS_NMEA_FROM_GPS    iGPS            $GPGSA,A,3,11,19,17,06,05,12,04,09,20,25,,,1.55,0.84,1.31*0A 
371.05494       GPS_NMEA_FROM_GPS    iGPS            $GPGGA,164946.000,4221.5043,N,07105.2403,W,2,10,0.84,6.3,M,-33.7,M,0000,0000*56 
372.05743       GPS_NMEA_FROM_GPS    iGPS            $GPGGA,164947.000,4221.5040,N,07105.2405,W,2,10,0.84,6.3,M,-33.7,M,0000,0000*52 
373.16038       GPS_NMEA_FROM_GPS    iGPS            $GPGSA,A,3,11,19,17,06,05,12,04,09,20,25,,,1.55,0.84,1.31*0A 
374.06307       GPS_NMEA_FROM_GPS    iGPS            $GPGSA,A,3,11,19,17,06,05,12,04,09,20,25,,,1.55,0.84,1.31*0A 
375.06611       GPS_NMEA_FROM_GPS    iGPS            $GPGGA,164950.000,4221.5033,N,07105.2413,W,2,10,0.84,6.3,M,-33.7,M,0000,0000*57 
376.06918       GPS_NMEA_FROM_GPS    iGPS            $GPGSA,A,3,11,19,17,06,05,12,04,09,20,25,,,1.55,0.84,1.31*0A 
377.07158       GPS_NMEA_FROM_GPS    iGPS            $GPGSA,A,3,11,19,17,06,05,12,04,09,20,25,,,1.55,0.84,1.31*0A 
378.07469       GPS_NMEA_FROM_GPS    iGPS            $GPGSA,A,3,11,19,17,06,05,12,04,09,20,25,,,1.55,0.84,1.31*0A 
379.07681       GPS_NMEA_FROM_GPS    iGPS            $GPGSA,A,3,11,19,17,06,05,12,04,09,20,25,,,1.55,0.84,1.31*0A 
380.17969       GPS_NMEA_FROM_GPS    iGPS            $GPGSA,A,3,11,19,17,06,05,12,04,09,20,25,,,1.55,0.84,1.31*0A 
381.08266       GPS_NMEA_FROM_GPS    iGPS            $GPGGA,164956.000,4221.5023,N,07105.2425,W,2,10,0.84,6.1,M,-33.7,M,0000,0000*57 
382.08536       GPS_NMEA_FROM_GPS    iGPS            $GPGGA,164957.000,4221.5022,N,07105.2427,W,2,10,0.84,6.2,M,-33.7,M,0000,0000*56 
383.08879       GPS_NMEA_FROM_GPS    iGPS            $GPGSA,A,3,11,19,17,06,05,12,04,09,20,25,,,1.56,0.84,1.31*09 
383.99307       GPS_NMEA_FROM_GPS    iGPS            $GPGGA,164959.000,4221.5020,N,07105.2432,W,2,10,0.84,6.3,M,-33.7,M,0000,0000*5F 
385.09647       GPS_NMEA_FROM_GPS    iGPS            $GPGGA,165000.000,4221.5022,N,07105.2437,W,2,10,0.84,6.4,M,-33.7,M,0000,0000*5B 
386.09967       GPS_NMEA_FROM_GPS    iGPS            $GPGSA,A,3,11,19,17,06,05,12,04,09,20,25,,,1.15,0.84,0.79*03 
387.10266       GPS_NMEA_FROM_GPS    iGPS            $GPGSA,A,3,11,19,17,06,05,12,04,09,20,25,,,1.56,0.84,1.31*09 
388.00491       GPS_NMEA_FROM_GPS    iGPS            $GPGGA,165003.000,4221.5023,N,07105.2451,W,2,10,0.84,6.4,M,-33.7,M,0000,0000*59 
389.10861       GPS_NMEA_FROM_GPS    iGPS            $GPGGA,165004.000,4221.5023,N,07105.2455,W,2,10,0.84,6.4,M,-33.7,M,0000,0000*5A 
390.11144       GPS_NMEA_FROM_GPS    iGPS            $GPGGA,165005.000,4221.5023,N,07105.2458,W,2,10,0.84,6.3,M,-33.7,M,0000,0000*51 
391.11439       GPS_NMEA_FROM_GPS    iGPS            $GPGGA,165006.000,4221.5023,N,07105.2461,W,2,10,0.84,6.3,M,-33.7,M,0000,0000*58 
392.11674       GPS_NMEA_FROM_GPS    iGPS            $GPGGA,165007.000,4221.5023,N,07105.2465,W,2,10,0.84,6.3,M,-33.7,M,0000,0000*5D 
393.11921       GPS_NMEA_FROM_GPS    iGPS            $GPGGA,165008.000,4221.5022,N,07105.2468,W,2,10,0.84,6.3,M,-33.7,M,0000,0000*5E 
394.12208       GPS_NMEA_FROM_GPS    iGPS            $GPGGA,165009.000,4221.5021,N,07105.2471,W,2,10,0.84,6.2,M,-33.7,M,0000,0000*55 
395.02587       GPS_NMEA_FROM_GPS    iGPS            $GPGGA,165010.000,4221.5020,N,07105.2475,W,2,10,0.84,6.3,M,-33.7,M,0000,0000*59 
396.13111       GPS_NMEA_FROM_GPS    iGPS            $GPGSA,A,3,11,19,17,06,05,12,04,09,20,25,,,1.56,0.84,1.31*09 
397.03374       GPS_NMEA_FROM_GPS    iGPS            $GPGGA,165012.000,4221.5017,N,07105.2481,W,2,10,0.84,6.1,M,-33.7,M,0000,0000*56 
398.13678       GPS_NMEA_FROM_GPS    iGPS            $GPGSA,A,3,11,19,17,06,05,12,04,09,20,25,,,1.56,0.84,1.31*09 
399.13970       GPS_NMEA_FROM_GPS    iGPS            $GPGSA,A,3,11,19,17,06,05,12,04,09,20,25,,,1.56,0.84,1.31*09 
400.04244       GPS_NMEA_FROM_GPS    iGPS            $GPGSA,A,3,11,19,17,06,05,12,04,09,20,25,,,1.56,0.84,1.31*09 
401.04525       GPS_NMEA_FROM_GPS    iGPS            $GPGGA,165016.000,4221.5007,N,07105.2494,W,2,10,0.84,5.5,M,-33.7,M,0000,0000*50 
402.04762       GPS_NMEA_FROM_GPS    iGPS            $GPGGA,165017.000,4221.5004,N,07105.2497,W,2,10,0.84,5.5,M,-33.7,M,0000,0000*51 
403.05108       GPS_NMEA_FROM_GPS    iGPS            $GPGGA,165018.000,4221.5001,N,07105.2500,W,2,10,0.84,5.5,M,-33.7,M,0000,0000*54 
404.05358       GPS_NMEA_FROM_GPS    iGPS            $GPGGA,165019.000,4221.4999,N,07105.2503,W,2,10,0.84,5.5,M,-33.7,M,0000,0000*5F 
405.05616       GPS_NMEA_FROM_GPS    iGPS            $GPGSA,A,3,11,19,17,06,05,12,04,09,20,25,,,1.56,0.84,1.31*09 
406.05926       GPS_NMEA_FROM_GPS    iGPS            $GPGGA,165021.000,4221.4997,N,07105.2507,W,2,10,0.84,5.4,M,-33.7,M,0000,0000*5F 
407.06088       GPS_NMEA_FROM_GPS    iGPS            $GPGGA,165022.000,4221.4996,N,07105.2509,W,2,10,0.84,5.4,M,-33.7,M,0000,0000*53 
408.06370       GPS_NMEA_FROM_GPS    iGPS            $GPGSA,A,3,11,19,17,06,05,12,04,09,20,25,,,1.15,0.84,0.80*05 
409.06700       GPS_NMEA_FROM_GPS    iGPS            $GPGSA,A,3,11,19,17,06,05,12,04,09,20,25,,,1.56,0.84,1.31*09 
410.07017       GPS_NMEA_FROM_GPS    iGPS            $GPGGA,165025.000,4221.4995,N,07105.2521,W,2,10,0.84,5.6,M,-33.7,M,0000,0000*5F 
411.07294       GPS_NMEA_FROM_GPS    iGPS            $GPGGA,165026.000,4221.4995,N,07105.2526,W,2,10,0.84,5.5,M,-33.7,M,0000,0000*58 
412.07575       GPS_NMEA_FROM_GPS    iGPS            $GPGGA,165027.000,4221.4996,N,07105.2531,W,2,10,0.84,5.5,M,-33.7,M,0000,0000*5C 
413.07924       GPS_NMEA_FROM_GPS    iGPS            $GPGGA,165028.000,4221.4997,N,07105.2535,W,2,10,0.84,5.5,M,-33.7,M,0000,0000*56 
414.08222       GPS_NMEA_FROM_GPS    iGPS            $GPGGA,165029.000,4221.4997,N,07105.2538,W,2,10,0.84,5.6,M,-33.7,M,0000,0000*59 
415.08520       GPS_NMEA_FROM_GPS    iGPS            $GPGGA,165030.000,4221.4996,N,07105.2541,W,2,10,0.84,5.6,M,-33.7,M,0000,0000*5E 
416.08780       GPS_NMEA_FROM_GPS    iGPS            $GPGGA,165031.000,4221.4995,N,07105.2545,W,2,10,0.84,5.6,M,-33.7,M,0000,0000*58 
417.09013       GPS_NMEA_FROM_GPS    iGPS            $GPGSA,A,3,11,19,17,06,05,12,04,09,20,25,,,1.56,0.84,1.32*0A 
418.09255       GPS_NMEA_FROM_GPS    iGPS            $GPGSA,A,3,11,19,17,06,05,12,04,09,20,25,,,1.56,0.84,1.32*0A 
419.09538       GPS_NMEA_FROM_GPS    iGPS            $GPGSA,A,3,11,19,17,06,05,12,04,09,20,25,,,1.56,0.84,1.32*0A 
420.09835       GPS_NMEA_FROM_GPS    iGPS            $GPGGA,165035.000,4221.4990,N,07105.2560,W,2,10,0.84,5.4,M,-33.7,M,0000,0000*5C 
421.10130       GPS_NMEA_FROM_GPS    iGPS            $GPGSA,A,3,11,19,17,06,05,12,04,09,20,25,,,1.56,0.84,1.32*0A 
422.10350       GPS_NMEA_FROM_GPS    iGPS            $GPGGA,165037.000,4221.4987,N,07105.2567,W,2,10,0.84,5.4,M,-33.7,M,0000,0000*5F 
423.00651       GPS_NMEA_FROM_GPS    iGPS            $GPGGA,165038.000,4221.4983,N,07105.2570,W,2,10,0.84,5.4,M,-33.7,M,0000,0000*52 
424.10985       GPS_NMEA_FROM_GPS    iGPS            $GPGSA,A,3,11,19,17,06,05,12,04,09,20,25,,,1.56,0.84,1.32*0A 
425.11303       GPS_NMEA_FROM_GPS    iGPS            $GPGGA,165040.000,4221.4976,N,07105.2576,W,2,10,0.84,5.3,M,-33.7,M,0000,0000*56 
426.01652       GPS_NMEA_FROM_GPS    iGPS            $GPGGA,165041.000,4221.4973,N,07105.2579,W,2,10,0.84,5.3,M,-33.7,M,0000,0000*5D 
427.11958       GPS_NMEA_FROM_GPS    iGPS            $GPGSA,A,3,11,19,17,06,05,12,04,09,20,25,,,1.16,0.84,0.80*06 
428.02179       GPS_NMEA_FROM_GPS    iGPS            $GPGGA,165043.000,4221.4966,N,07105.2586,W,2,10,0.84,5.3,M,-33.7,M,0000,0000*5B 
429.02489       GPS_NMEA_FROM_GPS    iGPS            $GPGGA,165044.000,4221.4963,N,07105.2590,W,2,10,0.84,5.3,M,-33.7,M,0000,0000*5E 
430.02711       GPS_NMEA_FROM_GPS    iGPS            $GPGGA,165045.000,4221.4961,N,07105.2594,W,2,10,0.84,5.2,M,-33.7,M,0000,0000*58 
431.13021       GPS_NMEA_FROM_GPS    iGPS            $GPGSA,A,3,11,19,17,06,05,12,04,09,20,25,,,1.16,0.84,0.80*06 
432.13272       GPS_NMEA_FROM_GPS    iGPS            $GPGGA,165047.000,4221.4957,N,07105.2600,W,2,10,0.84,5.2,M,-33.7,M,0000,0000*51 
433.03492       GPS_NMEA_FROM_GPS    iGPS            $GPGGA,165048.000,4221.4957,N,07105.2604,W,2,10,0.84,5.2,M,-33.7,M,0000,0000*5A 
434.03772       GPS_NMEA_FROM_GPS    iGPS            $GPGGA,165049.000,4221.4958,N,07105.2608,W,2,10,0.84,5.2,M,-33.7,M,0000,0000*58 
435.14117       GPS_NMEA_FROM_GPS    iGPS            $GPGSA,A,3,11,19,17,06,05,12,04,09,20,25,,,1.16,0.84,0.80*06 
436.14396       GPS_NMEA_FROM_GPS    iGPS            $GPGSA,A,3,11,19,17,06,05,12,04,09,20,25,,,1.16,0.84,0.80*06 
437.14667       GPS_NMEA_FROM_GPS    iGPS            $GPGSA,A,3,11,19,17,06,05,12,04,09,20,25,,,1.16,0.84,0.80*06 
438.04958       GPS_NMEA_FROM_GPS    iGPS            $GPGSA,A,3,11,19,17,06,05,12,04,09,20,25,,,1.16,0.84,0.80*06 
439.05276       GPS_NMEA_FROM_GPS    iGPS            $GPGSA,A,3,11,19,17,06,05,12,04,09,20,25,,,1.16,0.84,0.80*06 
440.05554       GPS_NMEA_FROM_GPS    iGPS            $GPGGA,165055.000,4221.4959,N,07105.2633,W,2,10,0.84,4.9,M,-33.7,M,0000,0000*56 
441.15859       GPS_NMEA_FROM_GPS    iGPS            $GPGSA,A,3,11,19,17,06,05,12,04,09,20,25,,,1.56,0.84,1.32*0A 
442.06095       GPS_NMEA_FROM_GPS    iGPS            $GPGGA,165057.000,4221.4959,N,07105.2641,W,2,10,0.84,4.8,M,-33.7,M,0000,0000*50 
443.06464       GPS_NMEA_FROM_GPS    iGPS            $GPGGA,165058.000,4221.4959,N,07105.2644,W,2,10,0.84,4.6,M,-33.7,M,0000,0000*54 
444.06712       GPS_NMEA_FROM_GPS    iGPS            $GPGGA,165059.000,4221.4957,N,07105.2650,W,2,10,0.84,4.5,M,-33.7,M,0000,0000*5D 
445.06952       GPS_NMEA_FROM_GPS    iGPS            $GPGGA,165100.000,4221.4956,N,07105.2654,W,2,10,0.84,4.4,M,-33.7,M,0000,0000*54 
446.17211       GPS_NMEA_FROM_GPS    iGPS            $GPGSA,A,3,11,19,17,06,05,12,04,09,20,25,,,1.57,0.84,1.32*0B 
447.07437       GPS_NMEA_FROM_GPS    iGPS            $GPGGA,165102.000,4221.4953,N,07105.2662,W,2,10,0.84,4.3,M,-33.7,M,0000,0000*51 
448.07684       GPS_NMEA_FROM_GPS    iGPS            $GPGGA,165103.000,4221.4951,N,07105.2665,W,2,10,0.84,4.3,M,-33.7,M,0000,0000*55 
449.07983       GPS_NMEA_FROM_GPS    iGPS            $GPGSA,A,3,11,19,17,06,05,12,04,09,20,25,,,1.57,0.84,1.32*0B 
450.08266       GPS_NMEA_FROM_GPS    iGPS            $GPGSA,A,3,11,19,17,06,05,12,04,09,20,25,,,1.16,0.84,0.80*06 
450.98572       GPS_NMEA_FROM_GPS    iGPS            $GPGGA,165106.000,4221.4944,N,07105.2674,W,2,10,0.84,4.3,M,-33.7,M,0000,0000*54 
452.08874       GPS_NMEA_FROM_GPS    iGPS            $GPGGA,165107.000,4221.4941,N,07105.2677,W,2,10,0.84,4.3,M,-33.7,M,0000,0000*53 
453.09222       GPS_NMEA_FROM_GPS    iGPS            $GPGSA,A,3,11,19,17,06,05,12,04,09,20,25,,,1.57,0.84,1.32*0B 
454.09489       GPS_NMEA_FROM_GPS    iGPS            $GPGGA,165109.000,4221.4938,N,07105.2683,W,2,10,0.84,4.2,M,-33.7,M,0000,0000*59 
455.09738       GPS_NMEA_FROM_GPS    iGPS            $GPGGA,165110.000,4221.4938,N,07105.2685,W,2,10,0.84,4.2,M,-33.7,M,0000,0000*57 
456.10010       GPS_NMEA_FROM_GPS    iGPS            $GPGGA,165111.000,4221.4937,N,07105.2688,W,2,10,0.84,4.1,M,-33.7,M,0000,0000*57 
457.00207       GPS_NMEA_FROM_GPS    iGPS            $GPGGA,165112.000,4221.4936,N,07105.2692,W,2,10,0.84,4.2,M,-33.7,M,0000,0000*5D 
458.10513       GPS_NMEA_FROM_GPS    iGPS            $GPGGA,165113.000,4221.4934,N,07105.2697,W,2,10,0.84,4.3,M,-33.7,M,0000,0000*5A 
459.00784       GPS_NMEA_FROM_GPS    iGPS            $GPGGA,165114.000,4221.4933,N,07105.2700,W,2,10,0.84,4.3,M,-33.7,M,0000,0000*55 
460.11086       GPS_NMEA_FROM_GPS    iGPS            $GPGGA,165115.000,4221.4933,N,07105.2703,W,2,10,0.84,4.3,M,-33.7,M,0000,0000*57 
461.01372       GPS_NMEA_FROM_GPS    iGPS            $GPGGA,165116.000,4221.4932,N,07105.2706,W,2,10,0.84,4.3,M,-33.7,M,0000,0000*50 
462.01607       GPS_NMEA_FROM_GPS    iGPS            $GPGGA,165117.000,4221.4933,N,07105.2710,W,2,10,0.84,4.3,M,-33.7,M,0000,0000*57 
463.11939       GPS_NMEA_FROM_GPS    iGPS            $GPGSA,A,3,11,19,17,06,05,12,04,09,20,25,,,1.57,0.84,1.32*0B 
464.12219       GPS_NMEA_FROM_GPS    iGPS            $GPGSA,A,3,11,19,17,06,05,12,04,09,20,25,,,1.57,0.84,1.33*0A 
465.02482       GPS_NMEA_FROM_GPS    iGPS            $GPGGA,165120.000,4221.4932,N,07105.2721,W,2,10,0.84,4.1,M,-33.7,M,0000,0000*52 
466.02783       GPS_NMEA_FROM_GPS    iGPS            $GPGGA,165121.000,4221.4931,N,07105.2724,W,2,10,0.84,4.1,M,-33.7,M,0000,0000*55 
467.13091       GPS_NMEA_FROM_GPS    iGPS            $GPGGA,165122.000,4221.4930,N,07105.2727,W,2,10,0.84,3.9,M,-33.7,M,0000,0000*5B 
468.13358       GPS_NMEA_FROM_GPS    iGPS            $GPGSA,A,3,11,19,17,06,05,12,04,09,20,25,,,1.57,0.84,1.33*0A 
469.13619       GPS_NMEA_FROM_GPS    iGPS            $GPGGA,165124.000,4221.4929,N,07105.2732,W,2,10,0.84,3.6,M,-33.7,M,0000,0000*5E 
470.13992       GPS_NMEA_FROM_GPS    iGPS            $GPGSA,A,3,11,19,17,06,05,12,04,09,20,25,,,1.57,0.84,1.33*0A 
