2.56476         GPS_NMEA_FROM_GPS    iGPS            $GPGGA,175339.000,4221.5064,N,07105.2466,W,2,10,0.90,-5.2,M,-33.7,M,0000,0000*78 
3.56885         GPS_NMEA_FROM_GPS    iGPS            $GPGGA,175340.000,4221.5063,N,07105.2468,W,2,10,0.90,-5.2,M,-33.7,M,0000,0000*7F 
3.56885         GPS_NMEA_FROM_GPS    iGPS            $GPGGA,175340.000,4221.5063,N,07105.2468,W,2,10,0.90,-5.2,M,-33.7,M,0000,0000*7F 
4.67155         GPS_NMEA_FROM_GPS    iGPS            $GPGSA,A,3,13,12,29,07,11,25,15,06,20,05,,,1.17,0.90,0.74*00 
4.67155         GPS_NMEA_FROM_GPS    iGPS            $GPGSA,A,3,13,12,29,07,11,25,15,06,20,05,,,1.17,0.90,0.74*00 
5.57309         GPS_NMEA_FROM_GPS    iGPS            $GPGGA,175342.000,4221.5061,N,07105.2472,W,2,10,0.90,-5.2,M,-33.7,M,0000,0000*74 
5.57309         GPS_NMEA_FROM_GPS    iGPS            $GPGGA,175342.000,4221.5061,N,07105.2472,W,2,10,0.90,-5.2,M,-33.7,M,0000,0000*74 
6.57490         GPS_NMEA_FROM_GPS    iGPS            $GPGGA,175343.000,4221.5058,N,07105.2472,W,2,10,0.90,-5.2,M,-33.7,M,0000,0000*7F 
7.57683         GPS_NMEA_FROM_GPS    iGPS            $GPGGA,175344.000,4221.5054,N,07105.2475,W,2,10,0.90,-5.2,M,-33.7,M,0000,0000*73 
8.58020         GPS_NMEA_FROM_GPS    iGPS            $GPGGA,175345.000,4221.5050,N,07105.2475,W,2,10,0.90,-5.2,M,-33.7,M,0000,0000*76 
9.58253         GPS_NMEA_FROM_GPS    iGPS            $GPGGA,175346.000,4221.5048,N,07105.2477,W,2,10,0.90,-5.2,M,-33.7,M,0000,0000*7E 
10.68540        GPS_NMEA_FROM_GPS    iGPS            $GPGSA,A,3,13,12,29,07,11,25,15,06,20,05,,,1.17,0.90,0.74*00 
10.68540        GPS_NMEA_FROM_GPS    iGPS            $GPGSA,A,3,13,12,29,07,11,25,15,06,20,05,,,1.17,0.90,0.74*00 
11.58703        GPS_NMEA_FROM_GPS    iGPS            $GPGGA,175348.000,4221.5043,N,07105.2481,W,2,10,0.90,-5.2,M,-33.7,M,0000,0000*72 
11.58703        GPS_NMEA_FROM_GPS    iGPS            $GPGGA,175348.000,4221.5043,N,07105.2481,W,2,10,0.90,-5.2,M,-33.7,M,0000,0000*72 
12.68924        GPS_NMEA_FROM_GPS    iGPS            $GPGGA,175349.000,4221.5042,N,07105.2484,W,2,10,0.90,-5.2,M,-33.7,M,0000,0000*77 
13.69119        GPS_NMEA_FROM_GPS    iGPS            $GPGSA,A,3,13,12,29,07,11,25,15,06,20,05,,,1.17,0.90,0.74*00 
13.69119        GPS_NMEA_FROM_GPS    iGPS            $GPGSA,A,3,13,12,29,07,11,25,15,06,20,05,,,1.17,0.90,0.74*00 
14.69340        GPS_NMEA_FROM_GPS    iGPS            $GPGSA,A,3,13,12,29,07,11,25,15,06,20,05,,,1.17,0.90,0.74*00 
15.69542        GPS_NMEA_FROM_GPS    iGPS            $GPGSA,A,3,13,12,29,07,11,25,15,06,20,05,,,1.17,0.90,0.74*00 
16.69813        GPS_NMEA_FROM_GPS    iGPS            $GPGSA,A,3,13,12,29,07,11,25,15,06,20,05,,,1.17,0.90,0.74*00 
17.60036        GPS_NMEA_FROM_GPS    iGPS            $GPGGA,175354.000,4221.5033,N,07105.2504,W,2,10,0.90,-5.1,M,-33.7,M,0000,0000*77 
18.70333        GPS_NMEA_FROM_GPS    iGPS            $GPGSA,A,3,13,12,29,07,11,25,15,06,20,05,,,1.17,0.90,0.74*00 
19.60517        GPS_NMEA_FROM_GPS    iGPS            $GPGGA,175356.000,4221.5031,N,07105.2512,W,2,10,0.90,-5.0,M,-33.7,M,0000,0000*71 
20.60730        GPS_NMEA_FROM_GPS    iGPS            $GPGGA,175357.000,4221.5030,N,07105.2517,W,2,10,0.90,-5.0,M,-33.7,M,0000,0000*74 
21.60913        GPS_NMEA_FROM_GPS    iGPS            $GPGGA,175358.000,4221.5029,N,07105.2520,W,2,10,0.90,-5.0,M,-33.7,M,0000,0000*77 
22.71139        GPS_NMEA_FROM_GPS    iGPS            $GPGSA,A,3,13,12,29,07,11,25,15,06,20,05,,,1.17,0.90,0.74*00 
23.61313        GPS_NMEA_FROM_GPS    iGPS            $GPGGA,175400.000,4221.5027,N,07105.2527,W,2,10,0.90,-4.9,M,-33.7,M,0000,0000*7C 
24.61519        GPS_NMEA_FROM_GPS    iGPS            $GPGGA,175401.000,4221.5025,N,07105.2529,W,2,10,0.90,-4.9,M,-33.7,M,0000,0000*71 
25.61707        GPS_NMEA_FROM_GPS    iGPS            $GPGGA,175402.000,4221.5024,N,07105.2534,W,2,10,0.90,-4.9,M,-33.7,M,0000,0000*7F 
26.61911        GPS_NMEA_FROM_GPS    iGPS            $GPGGA,175403.000,4221.5022,N,07105.2538,W,2,10,0.90,-4.8,M,-33.7,M,0000,0000*75 
27.62129        GPS_NMEA_FROM_GPS    iGPS            $GPGSA,A,3,13,12,29,07,11,25,15,06,20,05,,,1.17,0.90,0.74*00 
28.62317        GPS_NMEA_FROM_GPS    iGPS            $GPGGA,175405.000,4221.5018,N,07105.2548,W,2,10,0.90,-4.7,M,-33.7,M,0000,0000*72 
29.62505        GPS_NMEA_FROM_GPS    iGPS            $GPGSA,A,3,13,12,29,07,11,25,15,06,20,05,,,1.17,0.90,0.74*00 
30.62697        GPS_NMEA_FROM_GPS    iGPS            $GPGGA,175407.000,4221.5017,N,07105.2556,W,2,10,0.90,-4.6,M,-33.7,M,0000,0000*71 
31.62877        GPS_NMEA_FROM_GPS    iGPS            $GPGGA,175408.000,4221.5017,N,07105.2562,W,2,10,0.90,-4.6,M,-33.7,M,0000,0000*79 
32.63082        GPS_NMEA_FROM_GPS    iGPS            $GPGGA,175409.000,4221.5016,N,07105.2566,W,2,10,0.90,-4.6,M,-33.7,M,0000,0000*7D 
33.63267        GPS_NMEA_FROM_GPS    iGPS            $GPGGA,175410.000,4221.5017,N,07105.2570,W,2,10,0.90,-4.6,M,-33.7,M,0000,0000*73 
34.63456        GPS_NMEA_FROM_GPS    iGPS            $GPGGA,175411.000,4221.5015,N,07105.2574,W,2,10,0.90,-4.5,M,-33.7,M,0000,0000*77 
35.63634        GPS_NMEA_FROM_GPS    iGPS            $GPGGA,175412.000,4221.5013,N,07105.2579,W,2,10,0.90,-4.5,M,-33.7,M,0000,0000*7F 
36.63829        GPS_NMEA_FROM_GPS    iGPS            $GPGGA,175413.000,4221.5012,N,07105.2584,W,2,10,0.90,-4.4,M,-33.7,M,0000,0000*7C 
37.64065        GPS_NMEA_FROM_GPS    iGPS            $GPGGA,175414.000,4221.5011,N,07105.2589,W,2,10,0.90,-4.4,M,-33.7,M,0000,0000*75 
38.64259        GPS_NMEA_FROM_GPS    iGPS            $GPGSA,A,3,13,12,29,07,11,25,15,06,20,05,,,1.17,0.90,0.74*00 
38.64259        GPS_NMEA_FROM_GPS    iGPS            $GPGSA,A,3,13,12,29,07,11,25,15,06,20,05,,,1.17,0.90,0.74*00 
39.64434        GPS_NMEA_FROM_GPS    iGPS            $GPGGA,175416.000,4221.5006,N,07105.2594,W,2,10,0.90,-4.3,M,-33.7,M,0000,0000*7A 
39.64434        GPS_NMEA_FROM_GPS    iGPS            $GPGGA,175416.000,4221.5006,N,07105.2594,W,2,10,0.90,-4.3,M,-33.7,M,0000,0000*7A 
40.64633        GPS_NMEA_FROM_GPS    iGPS            $GPGGA,175417.000,4221.5003,N,07105.2597,W,2,10,0.90,-4.3,M,-33.7,M,0000,0000*7D 
41.64833        GPS_NMEA_FROM_GPS    iGPS            $GPGGA,175418.000,4221.5002,N,07105.2599,W,2,10,0.90,-4.3,M,-33.7,M,0000,0000*7D 
42.65050        GPS_NMEA_FROM_GPS    iGPS            $GPGSA,A,3,13,12,29,07,11,25,15,06,20,05,,,1.17,0.90,0.74*00 
43.65228        GPS_NMEA_FROM_GPS    iGPS            $GPGSA,A,3,13,12,29,07,11,25,15,06,20,05,,,1.17,0.90,0.74*00 
44.55400        GPS_NMEA_FROM_GPS    iGPS            $GPGGA,175421.000,4221.4997,N,07105.2607,W,2,10,0.90,-4.3,M,-33.7,M,0000,0000*77 
45.65600        GPS_NMEA_FROM_GPS    iGPS            $GPGSA,A,3,13,12,29,07,11,25,15,06,20,05,,,1.17,0.90,0.74*00 
46.65848        GPS_NMEA_FROM_GPS    iGPS            $GPGGA,175423.000,4221.4996,N,07105.2612,W,2,10,0.90,-4.4,M,-33.7,M,0000,0000*77 
47.56025        GPS_NMEA_FROM_GPS    iGPS            $GPGGA,175424.000,4221.4995,N,07105.2614,W,2,10,0.90,-4.4,M,-33.7,M,0000,0000*75 
48.56209        GPS_NMEA_FROM_GPS    iGPS            $GPGGA,175425.000,4221.4997,N,07105.2616,W,2,10,0.90,-4.5,M,-33.7,M,0000,0000*75 
49.66415        GPS_NMEA_FROM_GPS    iGPS            $GPGSA,A,3,13,12,29,07,11,25,15,06,20,05,,,1.17,0.90,0.74*00 
50.56585        GPS_NMEA_FROM_GPS    iGPS            $GPGGA,175427.000,4221.4998,N,07105.2621,W,2,10,0.90,-4.5,M,-33.7,M,0000,0000*7C 
51.56810        GPS_NMEA_FROM_GPS    iGPS            $GPGGA,175428.000,4221.4998,N,07105.2621,W,2,10,0.90,-4.5,M,-33.7,M,0000,0000*73 
52.57012        GPS_NMEA_FROM_GPS    iGPS            $GPGGA,175429.000,4221.4998,N,07105.2621,W,2,10,0.90,-4.6,M,-33.7,M,0000,0000*71 
53.67203        GPS_NMEA_FROM_GPS    iGPS            $GPGGA,175430.000,4221.4999,N,07105.2622,W,2,10,0.90,-4.6,M,-33.7,M,0000,0000*7B 
54.67413        GPS_NMEA_FROM_GPS    iGPS            $GPGSA,A,3,13,12,29,07,11,25,15,06,20,05,,,1.17,0.90,0.74*00 
55.57959        GPS_NMEA_FROM_GPS    iGPS            $GPGGA,175432.000,4221.4998,N,07105.2624,W,2,10,0.90,-4.5,M,-33.7,M,0000,0000*7D 
56.68314        GPS_NMEA_FROM_GPS    iGPS            $GPGGA,175433.000,4221.4998,N,07105.2625,W,2,10,0.90,-4.5,M,-33.7,M,0000,0000*7D 
57.58511        GPS_NMEA_FROM_GPS    iGPS            $GPGGA,175434.000,4221.4998,N,07105.2626,W,2,11,0.81,-4.5,M,-33.7,M,0000,0000*78 
58.68709        GPS_NMEA_FROM_GPS    iGPS            $GPGGA,175435.000,4221.4997,N,07105.2626,W,2,11,0.81,-4.5,M,-33.7,M,0000,0000*76 
59.68893        GPS_NMEA_FROM_GPS    iGPS            $GPGSA,A,3,13,12,29,07,11,25,15,06,20,05,09,,1.06,0.81,0.69*05 
60.69090        GPS_NMEA_FROM_GPS    iGPS            $GPGSA,A,3,13,12,29,07,11,25,15,06,20,05,,,1.17,0.90,0.74*00 
61.69314        GPS_NMEA_FROM_GPS    iGPS            $GPGSA,A,3,13,12,29,07,11,25,15,06,20,05,,,1.17,0.90,0.74*00 
62.59695        GPS_NMEA_FROM_GPS    iGPS            $GPGGA,175439.000,4221.4996,N,07105.2625,W,2,10,0.90,-4.5,M,-33.7,M,0000,0000*79 
63.69888        GPS_NMEA_FROM_GPS    iGPS            $GPGSA,A,3,13,12,29,07,11,25,15,06,20,05,,,1.17,0.90,0.74*00 
64.70077        GPS_NMEA_FROM_GPS    iGPS            $GPGSA,A,3,13,12,29,07,11,25,15,06,20,05,,,1.17,0.90,0.74*00 
65.60251        GPS_NMEA_FROM_GPS    iGPS            $GPGGA,175442.000,4221.4996,N,07105.2625,W,2,10,0.90,-4.5,M,-33.7,M,0000,0000*75 
66.60435        GPS_NMEA_FROM_GPS    iGPS            $GPGGA,175443.000,4221.4996,N,07105.2625,W,2,10,0.90,-4.5,M,-33.7,M,0000,0000*74 
67.70685        GPS_NMEA_FROM_GPS    iGPS            $GPGSA,A,3,13,12,29,07,11,25,15,06,20,05,,,1.17,0.90,0.74*00 
68.60855        GPS_NMEA_FROM_GPS    iGPS            $GPGGA,175445.000,4221.4996,N,07105.2624,W,2,10,0.90,-4.5,M,-33.7,M,0000,0000*73 
69.61037        GPS_NMEA_FROM_GPS    iGPS            $GPGGA,175446.000,4221.4996,N,07105.2624,W,2,10,0.90,-4.5,M,-33.7,M,0000,0000*70 
70.61241        GPS_NMEA_FROM_GPS    iGPS            $GPGSA,A,3,13,12,29,07,11,25,15,06,20,05,,,1.17,0.90,0.74*00 
71.61437        GPS_NMEA_FROM_GPS    iGPS            $GPGGA,175448.000,4221.4996,N,07105.2623,W,2,10,0.90,-4.5,M,-33.7,M,0000,0000*79 
72.61683        GPS_NMEA_FROM_GPS    iGPS            $GPGGA,175449.000,4221.4996,N,07105.2624,W,2,10,0.90,-4.5,M,-33.7,M,0000,0000*7F 
73.61869        GPS_NMEA_FROM_GPS    iGPS            $GPGSA,A,3,13,12,29,07,11,25,15,06,20,05,,,1.17,0.90,0.74*00 
74.62055        GPS_NMEA_FROM_GPS    iGPS            $GPGGA,175451.000,4221.4997,N,07105.2624,W,2,10,0.90,-4.5,M,-33.7,M,0000,0000*77 
75.62290        GPS_NMEA_FROM_GPS    iGPS            $GPGGA,175452.000,4221.4997,N,07105.2625,W,2,10,0.90,-4.5,M,-33.7,M,0000,0000*75 
76.62477        GPS_NMEA_FROM_GPS    iGPS            $GPGGA,175453.000,4221.4997,N,07105.2626,W,2,10,0.90,-4.5,M,-33.7,M,0000,0000*77 
77.62685        GPS_NMEA_FROM_GPS    iGPS            $GPGGA,175454.000,4221.4996,N,07105.2627,W,2,10,0.90,-4.5,M,-33.7,M,0000,0000*70 
78.63801        GPS_NMEA_FROM_GPS    iGPS            $GPGGA,175455.000,4221.4996,N,07105.2628,W,2,10,0.90,-4.5,M,-33.7,M,0000,0000*7E 
79.63982        GPS_NMEA_FROM_GPS    iGPS            $GPGGA,175456.000,4221.4995,N,07105.2629,W,2,10,0.90,-4.5,M,-33.7,M,0000,0000*7F 
80.54157        GPS_NMEA_FROM_GPS    iGPS            $GPGGA,175457.000,4221.4995,N,07105.2629,W,2,10,0.90,-4.5,M,-33.7,M,0000,0000*7E 
81.64347        GPS_NMEA_FROM_GPS    iGPS            $GPGSA,A,3,13,12,29,07,11,25,06,20,05,,,,1.23,0.98,0.74*0B 
82.64532        GPS_NMEA_FROM_GPS    iGPS            $GPGGA,175459.000,4221.4993,N,07105.2629,W,2,10,0.90,-4.5,M,-33.7,M,0000,0000*76 
83.64711        GPS_NMEA_FROM_GPS    iGPS            $GPGGA,175500.000,4221.4992,N,07105.2628,W,2,10,0.90,-4.5,M,-33.7,M,0000,0000*7B 
84.64895        GPS_NMEA_FROM_GPS    iGPS            $GPGGA,175501.000,4221.4992,N,07105.2628,W,2,10,0.90,-4.5,M,-33.7,M,0000,0000*7A 
85.65074        GPS_NMEA_FROM_GPS    iGPS            $GPGSA,A,3,13,12,29,07,11,25,15,06,20,05,,,1.17,0.90,0.74*00 
86.65284        GPS_NMEA_FROM_GPS    iGPS            $GPGSA,A,3,13,12,29,07,11,25,15,06,20,05,,,1.17,0.90,0.74*00 
87.65476        GPS_NMEA_FROM_GPS    iGPS            $GPGGA,175504.000,4221.4991,N,07105.2628,W,2,10,0.90,-4.5,M,-33.7,M,0000,0000*7C 
88.65663        GPS_NMEA_FROM_GPS    iGPS            $GPGGA,175505.000,4221.4991,N,07105.2627,W,2,10,0.90,-4.5,M,-33.7,M,0000,0000*72 
89.65842        GPS_NMEA_FROM_GPS    iGPS            $GPGSA,A,3,13,12,29,07,11,25,15,06,20,05,,,1.17,0.90,0.74*00 
90.66022        GPS_NMEA_FROM_GPS    iGPS            $GPGGA,175507.000,4221.4990,N,07105.2627,W,2,10,0.90,-4.6,M,-33.7,M,0000,0000*72 
91.66209        GPS_NMEA_FROM_GPS    iGPS            $GPGSA,A,3,13,12,29,07,11,25,15,06,20,05,,,1.17,0.90,0.74*00 
92.66514        GPS_NMEA_FROM_GPS    iGPS            $GPGSA,A,3,13,12,29,07,11,25,15,06,20,05,,,1.17,0.90,0.74*00 
93.56682        GPS_NMEA_FROM_GPS    iGPS            $GPGGA,175510.000,4221.4989,N,07105.2630,W,2,10,0.90,-4.6,M,-33.7,M,0000,0000*7A 
94.56867        GPS_NMEA_FROM_GPS    iGPS            $GPGGA,175511.000,4221.4988,N,07105.2632,W,2,10,0.90,-4.6,M,-33.7,M,0000,0000*78 
95.67060        GPS_NMEA_FROM_GPS    iGPS            $GPGSA,A,3,13,12,29,07,11,25,15,06,20,05,,,1.17,0.90,0.74*00 
96.67257        GPS_NMEA_FROM_GPS    iGPS            $GPGGA,175513.000,4221.4987,N,07105.2635,W,2,10,0.90,-4.6,M,-33.7,M,0000,0000*72 
97.57437        GPS_NMEA_FROM_GPS    iGPS            $GPGGA,175514.000,4221.4987,N,07105.2637,W,2,10,0.90,-4.6,M,-33.7,M,0000,0000*77 
98.67673        GPS_NMEA_FROM_GPS    iGPS            $GPGSA,A,3,13,12,29,07,11,25,15,06,20,05,,,1.17,0.90,0.74*00 
99.67850        GPS_NMEA_FROM_GPS    iGPS            $GPGGA,175516.000,4221.4986,N,07105.2640,W,2,10,0.90,-4.6,M,-33.7,M,0000,0000*74 
100.68038       GPS_NMEA_FROM_GPS    iGPS            $GPGSA,A,3,13,12,29,07,11,25,15,06,20,05,,,1.17,0.90,0.74*00 
101.58202       GPS_NMEA_FROM_GPS    iGPS            $GPGGA,175518.000,4221.4986,N,07105.2643,W,2,10,0.90,-4.6,M,-33.7,M,0000,0000*79 
102.58413       GPS_NMEA_FROM_GPS    iGPS            $GPGGA,175519.000,4221.4986,N,07105.2644,W,2,10,0.90,-4.6,M,-33.7,M,0000,0000*7F 
103.58593       GPS_NMEA_FROM_GPS    iGPS            $GPGGA,175520.000,4221.4986,N,07105.2644,W,2,10,0.90,-4.6,M,-33.7,M,0000,0000*75 
104.68809       GPS_NMEA_FROM_GPS    iGPS            $GPGSA,A,3,13,12,29,07,11,25,15,06,20,05,,,1.17,0.90,0.74*00 
105.69001       GPS_NMEA_FROM_GPS    iGPS            $GPGSA,A,3,13,12,29,07,11,25,15,06,20,05,,,1.17,0.90,0.74*00 
106.59171       GPS_NMEA_FROM_GPS    iGPS            $GPGGA,175523.000,4221.4985,N,07105.2646,W,2,10,0.90,-4.6,M,-33.7,M,0000,0000*77 
107.59395       GPS_NMEA_FROM_GPS    iGPS            $GPGGA,175524.000,4221.4985,N,07105.2647,W,2,10,0.90,-4.6,M,-33.7,M,0000,0000*71 
108.69609       GPS_NMEA_FROM_GPS    iGPS            $GPGSA,A,3,13,12,29,07,11,25,15,06,20,05,,,1.17,0.90,0.74*00 
109.69782       GPS_NMEA_FROM_GPS    iGPS            $GPGSA,A,3,13,12,29,07,11,25,15,06,20,05,,,1.17,0.90,0.74*00 
110.59946       GPS_NMEA_FROM_GPS    iGPS            $GPGGA,175527.000,4221.4984,N,07105.2646,W,2,10,0.90,-4.6,M,-33.7,M,0000,0000*72 
111.70189       GPS_NMEA_FROM_GPS    iGPS            $GPGSA,A,3,13,12,29,07,11,25,15,06,20,05,,,1.17,0.90,0.74*00 
112.60392       GPS_NMEA_FROM_GPS    iGPS            $GPGGA,175529.000,4221.4984,N,07105.2644,W,2,10,0.90,-4.6,M,-33.7,M,0000,0000*7E 
113.60577       GPS_NMEA_FROM_GPS    iGPS            $GPGGA,175530.000,4221.4984,N,07105.2644,W,2,10,0.90,-4.6,M,-33.7,M,0000,0000*76 
114.60771       GPS_NMEA_FROM_GPS    iGPS            $GPGGA,175531.000,4221.4984,N,07105.2643,W,2,09,0.92,-4.6,M,-33.7,M,0000,0000*7A 
115.60950       GPS_NMEA_FROM_GPS    iGPS            $GPGGA,175532.000,4221.4984,N,07105.2643,W,2,10,0.90,-4.6,M,-33.7,M,0000,0000*73 
116.61169       GPS_NMEA_FROM_GPS    iGPS            $GPGGA,175533.000,4221.4984,N,07105.2643,W,2,10,0.90,-4.6,M,-33.7,M,0000,0000*72 
117.61387       GPS_NMEA_FROM_GPS    iGPS            $GPGGA,175534.000,4221.4985,N,07105.2643,W,2,10,0.95,-4.6,M,-33.7,M,0000,0000*71 
118.61574       GPS_NMEA_FROM_GPS    iGPS            $GPGGA,175535.000,4221.4984,N,07105.2644,W,2,10,0.90,-4.6,M,-33.7,M,0000,0000*73 
119.61760       GPS_NMEA_FROM_GPS    iGPS            $GPGGA,175536.000,4221.4984,N,07105.2644,W,2,10,0.90,-4.6,M,-33.7,M,0000,0000*70 
120.61948       GPS_NMEA_FROM_GPS    iGPS            $GPGGA,175537.000,4221.4984,N,07105.2645,W,2,10,0.90,-4.6,M,-33.7,M,0000,0000*70 
121.62130       GPS_NMEA_FROM_GPS    iGPS            $GPGGA,175538.000,4221.4984,N,07105.2645,W,2,09,0.92,-4.6,M,-33.7,M,0000,0000*75 
122.62343       GPS_NMEA_FROM_GPS    iGPS            $GPGGA,175539.000,4221.4985,N,07105.2645,W,2,10,0.90,-4.6,M,-33.7,M,0000,0000*7F 
123.62555       GPS_NMEA_FROM_GPS    iGPS            $GPGGA,175540.000,4221.4986,N,07105.2646,W,2,10,0.95,-4.6,M,-33.7,M,0000,0000*74 
124.62744       GPS_NMEA_FROM_GPS    iGPS            $GPGGA,175541.000,4221.4986,N,07105.2646,W,2,09,0.92,-4.6,M,-33.7,M,0000,0000*7A 
125.62933       GPS_NMEA_FROM_GPS    iGPS            $GPGGA,175542.000,4221.4987,N,07105.2645,W,2,09,0.92,-4.6,M,-33.7,M,0000,0000*7B 
126.63136       GPS_NMEA_FROM_GPS    iGPS            $GPGGA,175543.000,4221.4987,N,07105.2645,W,2,09,0.92,-4.6,M,-33.7,M,0000,0000*7A 
127.63355       GPS_NMEA_FROM_GPS    iGPS            $GPGSA,A,3,13,12,29,07,11,25,15,06,05,,,,1.53,0.95,1.19*0D 
128.63538       GPS_NMEA_FROM_GPS    iGPS            $GPGSA,A,3,13,12,29,07,11,25,15,06,05,,,,1.20,0.92,0.77*07 
129.63714       GPS_NMEA_FROM_GPS    iGPS            $GPGGA,175546.000,4221.4989,N,07105.2647,W,2,09,0.92,-4.6,M,-33.7,M,0000,0000*73 
130.63901       GPS_NMEA_FROM_GPS    iGPS            $GPGGA,175547.000,4221.4990,N,07105.2647,W,2,10,0.90,-4.6,M,-33.7,M,0000,0000*70 
131.64097       GPS_NMEA_FROM_GPS    iGPS            $GPGSA,A,3,13,12,29,07,11,25,15,06,05,,,,1.20,0.92,0.77*07 
132.64313       GPS_NMEA_FROM_GPS    iGPS            $GPGGA,175549.000,4221.4992,N,07105.2649,W,2,10,0.89,-4.6,M,-33.7,M,0000,0000*7A 
133.34452       GPS_NMEA_FROM_GPS    iGPS            $GPGSA,A,3,13,12,29,07,11,25,15,06,30,05,,,1.17,0.89,0.75*08 
134.24615       GPS_NMEA_FROM_GPS    iGPS            $GPGGA,175551.000,4221.4995,N,07105.2653,W,2,11,0.88,-4.6,M,-33.7,M,0000,0000*7F 
135.24800       GPS_NMEA_FROM_GPS    iGPS            $GPGGA,175552.000,4221.4994,N,07105.2653,W,2,11,0.88,-4.7,M,-33.7,M,0000,0000*7C 
136.24986       GPS_NMEA_FROM_GPS    iGPS            $GPGGA,175553.000,4221.4994,N,07105.2654,W,2,11,0.88,-4.7,M,-33.7,M,0000,0000*7A 
137.25189       GPS_NMEA_FROM_GPS    iGPS            $GPGGA,175554.000,4221.4996,N,07105.2656,W,2,11,0.88,-4.8,M,-33.7,M,0000,0000*72 
138.25367       GPS_NMEA_FROM_GPS    iGPS            $GPGGA,175555.000,4221.4999,N,07105.2657,W,2,11,0.88,-4.8,M,-33.7,M,0000,0000*7D 
139.25549       GPS_NMEA_FROM_GPS    iGPS            $GPGGA,175556.000,4221.4999,N,07105.2657,W,2,11,0.92,-4.8,M,-33.7,M,0000,0000*75 
140.25737       GPS_NMEA_FROM_GPS    iGPS            $GPGGA,175557.000,4221.4997,N,07105.2656,W,2,11,0.92,-4.9,M,-33.7,M,0000,0000*7A 
141.25947       GPS_NMEA_FROM_GPS    iGPS            $GPGGA,175558.000,4221.4996,N,07105.2657,W,2,11,0.92,-4.9,M,-33.7,M,0000,0000*75 
142.26157       GPS_NMEA_FROM_GPS    iGPS            $GPGGA,175559.000,4221.4997,N,07105.2659,W,2,11,0.88,-5.0,M,-33.7,M,0000,0000*78 
143.26859       GPS_NMEA_FROM_GPS    iGPS            $GPGGA,175600.000,4221.4997,N,07105.2660,W,2,11,0.92,-5.1,M,-33.7,M,0000,0000*77 
144.27039       GPS_NMEA_FROM_GPS    iGPS            $GPGGA,175601.000,4221.4998,N,07105.2659,W,2,11,0.92,-5.1,M,-33.7,M,0000,0000*73 
145.27233       GPS_NMEA_FROM_GPS    iGPS            $GPGGA,175602.000,4221.4999,N,07105.2659,W,2,11,0.88,-5.1,M,-33.7,M,0000,0000*7A 
146.27421       GPS_NMEA_FROM_GPS    iGPS            $GPGGA,175603.000,4221.5000,N,07105.2658,W,2,11,0.88,-5.1,M,-33.7,M,0000,0000*72 
147.27630       GPS_NMEA_FROM_GPS    iGPS            $GPGGA,175604.000,4221.5001,N,07105.2658,W,2,11,0.88,-5.1,M,-33.7,M,0000,0000*74 
148.27815       GPS_NMEA_FROM_GPS    iGPS            $GPGGA,175605.000,4221.5001,N,07105.2658,W,2,11,0.92,-5.1,M,-33.7,M,0000,0000*7E 
149.28003       GPS_NMEA_FROM_GPS    iGPS            $GPGGA,175606.000,4221.5002,N,07105.2658,W,2,11,0.88,-5.1,M,-33.7,M,0000,0000*75 
150.28688       GPS_NMEA_FROM_GPS    iGPS            $GPGGA,175607.000,4221.5002,N,07105.2659,W,2,11,0.88,-5.1,M,-33.7,M,0000,0000*75 
151.28874       GPS_NMEA_FROM_GPS    iGPS            $GPGGA,175608.000,4221.5003,N,07105.2659,W,2,11,0.92,-5.1,M,-33.7,M,0000,0000*70 
152.29069       GPS_NMEA_FROM_GPS    iGPS            $GPGGA,175609.000,4221.5004,N,07105.2658,W,2,11,0.92,-5.1,M,-33.7,M,0000,0000*77 
153.29256       GPS_NMEA_FROM_GPS    iGPS            $GPGGA,175610.000,4221.5005,N,07105.2658,W,2,11,0.88,-5.1,M,-33.7,M,0000,0000*75 
154.29446       GPS_NMEA_FROM_GPS    iGPS            $GPGGA,175611.000,4221.5005,N,07105.2656,W,2,11,0.88,-5.2,M,-33.7,M,0000,0000*79 
155.29723       GPS_NMEA_FROM_GPS    iGPS            $GPGSA,A,3,13,12,29,07,11,25,15,06,30,05,,,1.17,0.89,0.75*08 
156.59957       GPS_NMEA_FROM_GPS    iGPS            $GPGGA,175613.000,4221.5005,N,07105.2654,W,2,11,0.88,-5.2,M,-33.7,M,0000,0000*79 
157.60157       GPS_NMEA_FROM_GPS    iGPS            $GPGGA,175614.000,4221.5006,N,07105.2653,W,2,11,0.88,-5.2,M,-33.7,M,0000,0000*7A 
158.60355       GPS_NMEA_FROM_GPS    iGPS            $GPGGA,175615.000,4221.5006,N,07105.2652,W,2,11,0.88,-5.2,M,-33.7,M,0000,0000*7A 
159.70592       GPS_NMEA_FROM_GPS    iGPS            $GPGSA,A,3,13,12,29,07,11,25,15,06,30,05,,,1.17,0.89,0.75*08 
160.60782       GPS_NMEA_FROM_GPS    iGPS            $GPGGA,175617.000,4221.5006,N,07105.2650,W,2,10,0.89,-5.2,M,-33.7,M,0000,0000*7A 
161.70978       GPS_NMEA_FROM_GPS    iGPS            $GPGSA,A,3,13,12,29,07,11,25,15,06,20,30,05,,1.14,0.88,0.72*0F 
162.61160       GPS_NMEA_FROM_GPS    iGPS            $GPGGA,175619.000,4221.5006,N,07105.2647,W,2,11,0.88,-5.2,M,-33.7,M,0000,0000*72 
163.71359       GPS_NMEA_FROM_GPS    iGPS            $GPGSA,A,3,13,12,29,07,11,25,15,06,20,30,05,,1.14,0.88,0.72*0F 
164.73748       GPS_NMEA_FROM_GPS    iGPS            $GPGSA,A,3,13,12,29,07,11,25,15,06,20,30,05,,1.14,0.88,0.72*0F 
165.63915       GPS_NMEA_FROM_GPS    iGPS            $GPGGA,175622.000,4221.5006,N,07105.2645,W,2,11,0.88,-5.2,M,-33.7,M,0000,0000*78 
166.74154       GPS_NMEA_FROM_GPS    iGPS            $GPGSA,A,3,13,12,29,07,11,25,15,06,20,30,05,,1.14,0.88,0.72*0F 
167.64340       GPS_NMEA_FROM_GPS    iGPS            $GPGGA,175624.000,4221.5006,N,07105.2643,W,2,11,0.88,-5.2,M,-33.7,M,0000,0000*78 
168.64542       GPS_NMEA_FROM_GPS    iGPS            $GPGGA,175625.000,4221.5007,N,07105.2642,W,2,11,0.88,-5.1,M,-33.7,M,0000,0000*7A 
169.64722       GPS_NMEA_FROM_GPS    iGPS            $GPGGA,175626.000,4221.5007,N,07105.2641,W,2,11,0.88,-5.1,M,-33.7,M,0000,0000*7A 
170.64914       GPS_NMEA_FROM_GPS    iGPS            $GPGSA,A,3,13,12,29,07,11,25,15,06,20,30,05,,1.14,0.88,0.72*0F 
171.65111       GPS_NMEA_FROM_GPS    iGPS            $GPGGA,175628.000,4221.5006,N,07105.2639,W,2,11,0.88,-5.1,M,-33.7,M,0000,0000*7A 
172.65317       GPS_NMEA_FROM_GPS    iGPS            $GPGSA,A,3,13,12,29,07,11,25,15,06,20,30,05,,1.14,0.88,0.72*0F 
173.65503       GPS_NMEA_FROM_GPS    iGPS            $GPGSA,A,3,13,12,29,07,11,25,15,06,20,30,05,,1.14,0.88,0.72*0F 
174.65692       GPS_NMEA_FROM_GPS    iGPS            $GPGGA,175631.000,4221.5004,N,07105.2634,W,2,11,0.88,-5.1,M,-33.7,M,0000,0000*7D 
175.65872       GPS_NMEA_FROM_GPS    iGPS            $GPGGA,175632.000,4221.5003,N,07105.2633,W,2,10,0.89,-5.1,M,-33.7,M,0000,0000*7E 
176.66061       GPS_NMEA_FROM_GPS    iGPS            $GPGGA,175633.000,4221.5000,N,07105.2631,W,2,10,0.89,-5.1,M,-33.7,M,0000,0000*7E 
177.56361       GPS_NMEA_FROM_GPS    iGPS            $GPGGA,175634.000,4221.4997,N,07105.2630,W,2,10,0.89,-5.0,M,-33.7,M,0000,0000*7F 
178.66634       GPS_NMEA_FROM_GPS    iGPS            $GPGGA,175635.000,4221.4997,N,07105.2629,W,2,10,0.89,-5.0,M,-33.7,M,0000,0000*76 
179.56807       GPS_NMEA_FROM_GPS    iGPS            $GPGGA,175636.000,4221.4997,N,07105.2628,W,2,10,0.89,-5.0,M,-33.7,M,0000,0000*74 
179.56807       GPS_NMEA_FROM_GPS    iGPS            $GPGGA,175636.000,4221.4997,N,07105.2628,W,2,10,0.89,-5.0,M,-33.7,M,0000,0000*74 
180.67006       GPS_NMEA_FROM_GPS    iGPS            $GPGGA,175637.000,4221.4997,N,07105.2626,W,2,10,0.89,-5.0,M,-33.7,M,0000,0000*7B 
181.67192       GPS_NMEA_FROM_GPS    iGPS            $GPGSA,A,3,13,12,29,07,11,25,15,06,30,05,20,,1.14,0.88,0.72*0F 
182.67398       GPS_NMEA_FROM_GPS    iGPS            $GPGSA,A,3,13,12,29,07,11,25,15,06,30,05,20,,1.14,0.88,0.72*0F 
183.67586       GPS_NMEA_FROM_GPS    iGPS            $GPGGA,175640.000,4221.4998,N,07105.2622,W,2,10,0.89,-5.0,M,-33.7,M,0000,0000*70 
184.67937       GPS_NMEA_FROM_GPS    iGPS            $GPGSA,A,3,13,12,29,07,11,25,15,06,30,05,,,1.17,0.89,0.75*08 
185.68115       GPS_NMEA_FROM_GPS    iGPS            $GPGGA,175642.000,4221.4999,N,07105.2618,W,2,10,0.89,-5.0,M,-33.7,M,0000,0000*7A 
186.58289       GPS_NMEA_FROM_GPS    iGPS            $GPGGA,175643.000,4221.4999,N,07105.2616,W,2,10,0.89,-5.0,M,-33.7,M,0000,0000*75 
187.68510       GPS_NMEA_FROM_GPS    iGPS            $GPGGA,175644.000,4221.4999,N,07105.2615,W,2,10,0.89,-5.0,M,-33.7,M,0000,0000*71 
188.68719       GPS_NMEA_FROM_GPS    iGPS            $GPGSA,A,3,13,12,29,07,11,25,15,06,30,05,,,1.16,0.89,0.75*09 
189.68894       GPS_NMEA_FROM_GPS    iGPS            $GPGGA,175646.000,4221.5000,N,07105.2613,W,2,10,0.89,-5.0,M,-33.7,M,0000,0000*7D 
190.69090       GPS_NMEA_FROM_GPS    iGPS            $GPGSA,A,3,13,12,29,07,11,25,15,06,30,05,,,1.17,0.89,0.75*08 
191.69272       GPS_NMEA_FROM_GPS    iGPS            $GPGGA,175648.000,4221.5000,N,07105.2612,W,2,11,0.88,-5.0,M,-33.7,M,0000,0000*72 
192.69499       GPS_NMEA_FROM_GPS    iGPS            $GPGSA,A,3,13,12,29,07,11,25,15,06,30,05,,,1.17,0.89,0.75*08 
193.69688       GPS_NMEA_FROM_GPS    iGPS            $GPGSA,A,3,13,12,29,07,11,25,15,06,30,05,,,1.17,0.89,0.75*08 
194.59864       GPS_NMEA_FROM_GPS    iGPS            $GPGGA,175651.000,4221.5001,N,07105.2610,W,2,10,0.89,-5.0,M,-33.7,M,0000,0000*79 
195.70067       GPS_NMEA_FROM_GPS    iGPS            $GPGSA,A,3,13,12,29,07,11,25,15,06,30,05,,,1.17,0.89,0.75*08 
196.70256       GPS_NMEA_FROM_GPS    iGPS            $GPGGA,175653.000,4221.5002,N,07105.2608,W,2,11,0.88,-5.0,M,-33.7,M,0000,0000*71 
197.70456       GPS_NMEA_FROM_GPS    iGPS            $GPGSA,A,3,13,12,29,07,11,25,15,06,30,05,,,1.17,0.89,0.75*08 
198.60629       GPS_NMEA_FROM_GPS    iGPS            $GPGGA,175655.000,4221.5002,N,07105.2607,W,2,10,0.89,-5.0,M,-33.7,M,0000,0000*78 
199.60962       GPS_NMEA_FROM_GPS    iGPS            $GPGGA,175656.000,4221.5002,N,07105.2607,W,2,11,0.88,-5.0,M,-33.7,M,0000,0000*7B 
200.61184       GPS_NMEA_FROM_GPS    iGPS            $GPGGA,175657.000,4221.5003,N,07105.2607,W,2,10,0.93,-5.0,M,-33.7,M,0000,0000*70 
201.71430       GPS_NMEA_FROM_GPS    iGPS            $GPGSA,A,3,13,12,29,07,11,25,15,06,20,30,05,,1.14,0.88,0.72*0F 
202.61677       GPS_NMEA_FROM_GPS    iGPS            $GPGGA,175659.000,4221.5003,N,07105.2606,W,2,11,0.88,-5.0,M,-33.7,M,0000,0000*74 
203.61867       GPS_NMEA_FROM_GPS    iGPS            $GPGGA,175700.000,4221.5004,N,07105.2606,W,2,11,0.92,-5.0,M,-33.7,M,0000,0000*75 
204.72123       GPS_NMEA_FROM_GPS    iGPS            $GPGSA,A,3,13,12,29,07,11,25,15,06,20,30,05,,1.14,0.88,0.72*0F 
205.62295       GPS_NMEA_FROM_GPS    iGPS            $GPGGA,175702.000,4221.5004,N,07105.2606,W,2,11,0.88,-5.0,M,-33.7,M,0000,0000*7C 
206.62481       GPS_NMEA_FROM_GPS    iGPS            $GPGGA,175703.000,4221.5004,N,07105.2606,W,2,11,0.92,-5.0,M,-33.7,M,0000,0000*76 
207.62688       GPS_NMEA_FROM_GPS    iGPS            $GPGGA,175704.000,4221.5005,N,07105.2606,W,2,11,0.88,-4.9,M,-33.7,M,0000,0000*73 
208.62882       GPS_NMEA_FROM_GPS    iGPS            $GPGGA,175705.000,4221.5005,N,07105.2605,W,2,11,0.88,-4.9,M,-33.7,M,0000,0000*71 
209.63075       GPS_NMEA_FROM_GPS    iGPS            $GPGGA,175706.000,4221.5006,N,07105.2605,W,2,11,0.88,-4.9,M,-33.7,M,0000,0000*71 
210.63272       GPS_NMEA_FROM_GPS    iGPS            $GPGGA,175707.000,4221.5006,N,07105.2604,W,2,10,0.89,-4.9,M,-33.7,M,0000,0000*71 
211.63451       GPS_NMEA_FROM_GPS    iGPS            $GPGGA,175708.000,4221.5007,N,07105.2603,W,2,10,0.89,-4.9,M,-33.7,M,0000,0000*78 
212.63657       GPS_NMEA_FROM_GPS    iGPS            $GPGSA,A,3,13,12,29,07,11,25,15,06,30,05,,,1.17,0.89,0.75*08 
213.63837       GPS_NMEA_FROM_GPS    iGPS            $GPGSA,A,3,13,12,29,07,11,25,15,06,30,05,,,1.17,0.89,0.75*08 
214.64010       GPS_NMEA_FROM_GPS    iGPS            $GPGGA,175711.000,4221.5008,N,07105.2598,W,2,10,0.89,-4.9,M,-33.7,M,0000,0000*7E 
215.64194       GPS_NMEA_FROM_GPS    iGPS            $GPGGA,175712.000,4221.5008,N,07105.2596,W,2,11,0.88,-4.9,M,-33.7,M,0000,0000*73 
216.74468       GPS_NMEA_FROM_GPS    iGPS            $GPGSA,A,3,13,12,29,07,11,25,15,06,30,05,20,,1.14,0.88,0.72*0F 
217.64655       GPS_NMEA_FROM_GPS    iGPS            $GPGGA,175714.000,4221.5008,N,07105.2593,W,2,10,0.89,-4.9,M,-33.7,M,0000,0000*70 
218.64902       GPS_NMEA_FROM_GPS    iGPS            $GPGGA,175715.000,4221.5009,N,07105.2592,W,2,10,0.89,-4.9,M,-33.7,M,0000,0000*71 
219.65117       GPS_NMEA_FROM_GPS    iGPS            $GPGSA,A,3,13,12,29,07,11,25,15,06,30,05,,,1.17,0.89,0.75*08 
220.65340       GPS_NMEA_FROM_GPS    iGPS            $GPGSA,A,3,13,12,29,07,11,25,15,06,30,05,,,1.17,0.89,0.75*08 
221.65525       GPS_NMEA_FROM_GPS    iGPS            $GPGGA,175718.000,4221.5010,N,07105.2588,W,2,11,0.88,-4.9,M,-33.7,M,0000,0000*7F 
222.65724       GPS_NMEA_FROM_GPS    iGPS            $GPGGA,175719.000,4221.5009,N,07105.2587,W,2,11,0.88,-4.9,M,-33.7,M,0000,0000*79 
223.65927       GPS_NMEA_FROM_GPS    iGPS            $GPGSA,A,3,13,12,29,07,11,25,15,06,20,30,05,,1.14,0.88,0.72*0F 
224.66117       GPS_NMEA_FROM_GPS    iGPS            $GPGSA,A,3,13,12,29,07,11,25,15,06,20,30,05,,1.14,0.88,0.72*0F 
225.66314       GPS_NMEA_FROM_GPS    iGPS            $GPGSA,A,3,13,12,29,07,11,25,15,06,20,30,05,,1.14,0.88,0.72*0F 
226.66513       GPS_NMEA_FROM_GPS    iGPS            $GPGGA,175723.000,4221.5010,N,07105.2582,W,2,11,0.88,-4.9,M,-33.7,M,0000,0000*7D 
227.66710       GPS_NMEA_FROM_GPS    iGPS            $GPGGA,175724.000,4221.5010,N,07105.2582,W,2,11,0.88,-4.9,M,-33.7,M,0000,0000*7A 
228.66917       GPS_NMEA_FROM_GPS    iGPS            $GPGSA,A,3,13,12,29,07,11,25,15,06,20,30,05,,1.14,0.88,0.72*0F 
229.67095       GPS_NMEA_FROM_GPS    iGPS            $GPGSA,A,3,13,12,29,07,11,25,15,06,20,30,05,,1.14,0.88,0.72*0F 
230.67280       GPS_NMEA_FROM_GPS    iGPS            $GPGSA,A,3,13,12,29,07,11,25,15,06,20,30,05,,1.14,0.88,0.72*0F 
231.67452       GPS_NMEA_FROM_GPS    iGPS            $GPGGA,175728.000,4221.5012,N,07105.2577,W,2,11,0.88,-4.8,M,-33.7,M,0000,0000*7F 
232.57635       GPS_NMEA_FROM_GPS    iGPS            $GPGGA,175729.000,4221.5014,N,07105.2575,W,2,11,0.88,-4.8,M,-33.7,M,0000,0000*7A 
233.67841       GPS_NMEA_FROM_GPS    iGPS            $GPGGA,175730.000,4221.5009,N,07105.2568,W,2,11,0.88,-4.8,M,-33.7,M,0000,0000*72 
234.68032       GPS_NMEA_FROM_GPS    iGPS            $GPGSA,A,3,13,12,29,07,11,25,15,06,20,30,05,,1.14,0.88,0.72*0F 
235.68207       GPS_NMEA_FROM_GPS    iGPS            $GPGSA,A,3,13,12,29,07,11,25,15,06,20,30,05,,1.14,0.88,0.72*0F 
236.68388       GPS_NMEA_FROM_GPS    iGPS            $GPGSA,A,3,13,12,29,07,11,25,15,06,20,30,05,,1.14,0.88,0.72*0F 
237.68587       GPS_NMEA_FROM_GPS    iGPS            $GPGSA,A,3,13,12,29,07,11,25,15,06,20,30,05,,1.14,0.88,0.72*0F 
238.58750       GPS_NMEA_FROM_GPS    iGPS            $GPGGA,175735.000,4221.5001,N,07105.2544,W,2,11,0.88,-4.9,M,-33.7,M,0000,0000*70 
239.69096       GPS_NMEA_FROM_GPS    iGPS            $GPGSA,A,3,13,12,29,07,11,25,15,06,20,30,05,,1.14,0.88,0.72*0F 
240.59272       GPS_NMEA_FROM_GPS    iGPS            $GPGGA,175737.000,4221.4999,N,07105.2535,W,2,11,0.88,-5.2,M,-33.7,M,0000,0000*77 
241.59539       GPS_NMEA_FROM_GPS    iGPS            $GPGGA,175738.000,4221.4998,N,07105.2530,W,2,11,0.88,-5.2,M,-33.7,M,0000,0000*7C 
242.59741       GPS_NMEA_FROM_GPS    iGPS            $GPGGA,175739.000,4221.4996,N,07105.2524,W,2,11,0.88,-5.2,M,-33.7,M,0000,0000*76 
243.69950       GPS_NMEA_FROM_GPS    iGPS            $GPGSA,A,3,13,12,29,07,11,25,15,06,20,30,05,,1.14,0.88,0.72*0F 
244.60171       GPS_NMEA_FROM_GPS    iGPS            $GPGGA,175741.000,4221.4994,N,07105.2515,W,2,11,0.88,-5.3,M,-33.7,M,0000,0000*78 
245.60685       GPS_NMEA_FROM_GPS    iGPS            $GPGGA,175742.000,4221.4993,N,07105.2510,W,2,11,0.88,-5.4,M,-33.7,M,0000,0000*7E 
246.60868       GPS_NMEA_FROM_GPS    iGPS            $GPGGA,175743.000,4221.4993,N,07105.2503,W,2,11,0.88,-5.5,M,-33.7,M,0000,0000*7C 
247.71094       GPS_NMEA_FROM_GPS    iGPS            $GPGSA,A,3,13,12,29,07,11,25,15,06,20,30,05,,1.14,0.88,0.72*0F 
248.61260       GPS_NMEA_FROM_GPS    iGPS            $GPGGA,175745.000,4221.4992,N,07105.2491,W,2,11,0.88,-5.5,M,-33.7,M,0000,0000*71 
249.61456       GPS_NMEA_FROM_GPS    iGPS            $GPGSA,A,3,13,12,29,07,11,25,15,06,20,30,05,,1.14,0.88,0.72*0F 
250.61631       GPS_NMEA_FROM_GPS    iGPS            $GPGGA,175747.000,4221.4992,N,07105.2482,W,2,11,0.88,-5.5,M,-33.7,M,0000,0000*71 
250.61631       GPS_NMEA_FROM_GPS    iGPS            $GPGGA,175747.000,4221.4992,N,07105.2482,W,2,11,0.88,-5.5,M,-33.7,M,0000,0000*71 
251.61836       GPS_NMEA_FROM_GPS    iGPS            $GPGGA,175748.000,4221.4992,N,07105.2477,W,2,11,0.88,-5.5,M,-33.7,M,0000,0000*74 
252.72095       GPS_NMEA_FROM_GPS    iGPS            $GPGSA,A,3,13,12,29,07,11,25,15,06,20,30,05,,1.14,0.88,0.72*0F 
253.62261       GPS_NMEA_FROM_GPS    iGPS            $GPGGA,175750.000,4221.4991,N,07105.2469,W,2,11,0.88,-5.5,M,-33.7,M,0000,0000*71 
254.62457       GPS_NMEA_FROM_GPS    iGPS            $GPGGA,175751.000,4221.4992,N,07105.2465,W,2,11,0.88,-5.5,M,-33.7,M,0000,0000*7F 
255.62690       GPS_NMEA_FROM_GPS    iGPS            $GPGGA,175752.000,4221.4991,N,07105.2462,W,2,11,0.88,-5.5,M,-33.7,M,0000,0000*78 
256.62882       GPS_NMEA_FROM_GPS    iGPS            $GPGGA,175753.000,4221.4988,N,07105.2458,W,2,11,0.88,-5.5,M,-33.7,M,0000,0000*78 
257.63109       GPS_NMEA_FROM_GPS    iGPS            $GPGGA,175754.000,4221.4987,N,07105.2455,W,2,11,0.88,-5.5,M,-33.7,M,0000,0000*7D 
258.63301       GPS_NMEA_FROM_GPS    iGPS            $GPGGA,175755.000,4221.4984,N,07105.2453,W,2,11,0.88,-5.4,M,-33.7,M,0000,0000*78 
259.63560       GPS_NMEA_FROM_GPS    iGPS            $GPGGA,175756.000,4221.4982,N,07105.2451,W,2,11,0.88,-5.4,M,-33.7,M,0000,0000*7F 
260.63754       GPS_NMEA_FROM_GPS    iGPS            $GPGGA,175757.000,4221.4980,N,07105.2447,W,2,11,0.88,-5.3,M,-33.7,M,0000,0000*7C 
261.63951       GPS_NMEA_FROM_GPS    iGPS            $GPGGA,175758.000,4221.4980,N,07105.2443,W,2,11,0.88,-5.3,M,-33.7,M,0000,0000*77 
262.64215       GPS_NMEA_FROM_GPS    iGPS            $GPGSA,A,3,13,12,29,07,11,25,15,06,20,30,05,,1.14,0.88,0.72*0F 
263.64422       GPS_NMEA_FROM_GPS    iGPS            $GPGSA,A,3,13,12,29,07,11,25,15,06,20,30,05,,1.14,0.88,0.72*0F 
264.64610       GPS_NMEA_FROM_GPS    iGPS            $GPGGA,175801.000,4221.4975,N,07105.2429,W,2,11,0.88,-5.2,M,-33.7,M,0000,0000*73 
265.65122       GPS_NMEA_FROM_GPS    iGPS            $GPGSA,A,3,13,12,29,07,11,25,15,06,20,30,05,,1.14,0.88,0.72*0F 
266.65678       GPS_NMEA_FROM_GPS    iGPS            $GPGSA,A,3,13,12,29,07,11,25,15,06,20,30,05,,1.14,0.88,0.72*0F 
267.66180       GPS_NMEA_FROM_GPS    iGPS            $GPGSA,A,3,13,12,29,07,11,25,15,06,20,30,05,,1.14,0.88,0.72*0F 
268.66359       GPS_NMEA_FROM_GPS    iGPS            $GPGSA,A,3,13,12,29,07,11,25,15,06,20,30,05,,1.14,0.88,0.72*0F 
269.66563       GPS_NMEA_FROM_GPS    iGPS            $GPGGA,175806.000,4221.4975,N,07105.2412,W,2,11,0.88,-5.2,M,-33.7,M,0000,0000*7C 
270.66749       GPS_NMEA_FROM_GPS    iGPS            $GPGGA,175807.000,4221.4974,N,07105.2407,W,2,11,0.88,-5.2,M,-33.7,M,0000,0000*78 
271.66937       GPS_NMEA_FROM_GPS    iGPS            $GPGGA,175808.000,4221.4972,N,07105.2404,W,2,11,0.88,-5.1,M,-33.7,M,0000,0000*71 
272.67163       GPS_NMEA_FROM_GPS    iGPS            $GPGSA,A,3,13,12,29,07,11,25,15,06,20,30,05,,1.14,0.88,0.72*0F 
273.67351       GPS_NMEA_FROM_GPS    iGPS            $GPGGA,175810.000,4221.4970,N,07105.2397,W,2,11,0.88,-5.1,M,-33.7,M,0000,0000*77 
274.67542       GPS_NMEA_FROM_GPS    iGPS            $GPGGA,175811.000,4221.4967,N,07105.2394,W,2,11,0.88,-5.1,M,-33.7,M,0000,0000*73 
275.67736       GPS_NMEA_FROM_GPS    iGPS            $GPGGA,175812.000,4221.4966,N,07105.2390,W,2,11,0.88,-5.1,M,-33.7,M,0000,0000*75 
276.67923       GPS_NMEA_FROM_GPS    iGPS            $GPGGA,175813.000,4221.4964,N,07105.2387,W,2,11,0.88,-5.1,M,-33.7,M,0000,0000*70 
277.68131       GPS_NMEA_FROM_GPS    iGPS            $GPGGA,175814.000,4221.4962,N,07105.2384,W,2,11,0.88,-5.0,M,-33.7,M,0000,0000*73 
278.68312       GPS_NMEA_FROM_GPS    iGPS            $GPGGA,175815.000,4221.4960,N,07105.2380,W,2,11,0.88,-5.0,M,-33.7,M,0000,0000*74 
279.58524       GPS_NMEA_FROM_GPS    iGPS            $GPGGA,175816.000,4221.4958,N,07105.2376,W,2,11,0.88,-5.0,M,-33.7,M,0000,0000*75 
280.68716       GPS_NMEA_FROM_GPS    iGPS            $GPGSA,A,3,13,12,29,07,11,25,15,06,20,30,05,,1.14,0.88,0.72*0F 
281.68905       GPS_NMEA_FROM_GPS    iGPS            $GPGGA,175818.000,4221.4958,N,07105.2369,W,2,11,0.88,-5.1,M,-33.7,M,0000,0000*74 
282.69110       GPS_NMEA_FROM_GPS    iGPS            $GPGGA,175819.000,4221.4959,N,07105.2364,W,2,11,0.88,-5.1,M,-33.7,M,0000,0000*79 
283.59295       GPS_NMEA_FROM_GPS    iGPS            $GPGGA,175820.000,4221.4960,N,07105.2359,W,2,11,0.88,-5.1,M,-33.7,M,0000,0000*77 
284.69508       GPS_NMEA_FROM_GPS    iGPS            $GPGSA,A,3,13,12,29,07,11,25,15,06,20,30,05,,1.14,0.88,0.72*0F 
285.69714       GPS_NMEA_FROM_GPS    iGPS            $GPGSA,A,3,13,12,29,07,11,25,15,06,20,30,05,,1.14,0.88,0.72*0F 
286.59895       GPS_NMEA_FROM_GPS    iGPS            $GPGGA,175823.000,4221.4960,N,07105.2348,W,2,11,0.88,-5.1,M,-33.7,M,0000,0000*74 
287.60128       GPS_NMEA_FROM_GPS    iGPS            $GPGSA,A,3,13,12,29,07,11,25,15,06,20,30,05,,1.14,0.88,0.72*0F 
288.60313       GPS_NMEA_FROM_GPS    iGPS            $GPGGA,175825.000,4221.4959,N,07105.2341,W,2,11,0.88,-5.1,M,-33.7,M,0000,0000*71 
289.60519       GPS_NMEA_FROM_GPS    iGPS            $GPGGA,175826.000,4221.4958,N,07105.2338,W,2,11,0.88,-5.1,M,-33.7,M,0000,0000*7D 
290.60771       GPS_NMEA_FROM_GPS    iGPS            $GPGSA,A,3,13,12,29,07,11,25,15,06,20,30,05,,1.14,0.88,0.72*0F 
291.71455       GPS_NMEA_FROM_GPS    iGPS            $GPGSA,A,3,13,12,29,07,11,25,15,06,20,30,05,,1.14,0.88,0.72*0F 
292.61758       GPS_NMEA_FROM_GPS    iGPS            $GPGGA,175829.000,4221.4958,N,07105.2325,W,2,11,0.88,-5.1,M,-33.7,M,0000,0000*7E 
293.61948       GPS_NMEA_FROM_GPS    iGPS            $GPGGA,175830.000,4221.4960,N,07105.2323,W,2,11,0.88,-5.1,M,-33.7,M,0000,0000*7B 
294.72146       GPS_NMEA_FROM_GPS    iGPS            $GPGSA,A,3,13,12,29,07,11,25,15,06,20,30,05,,1.14,0.88,0.72*0F 
295.72330       GPS_NMEA_FROM_GPS    iGPS            $GPGSA,A,3,13,12,29,07,11,25,15,06,20,30,05,,1.14,0.88,0.72*0F 
296.72510       GPS_NMEA_FROM_GPS    iGPS            $GPGSA,A,3,13,12,29,07,11,25,15,06,20,30,05,,1.14,0.88,0.72*0F 
297.62752       GPS_NMEA_FROM_GPS    iGPS            $GPGGA,175834.000,4221.4962,N,07105.2308,W,2,11,0.88,-5.1,M,-33.7,M,0000,0000*74 
298.62946       GPS_NMEA_FROM_GPS    iGPS            $GPGSA,A,3,13,12,29,07,11,25,15,06,20,30,05,,1.14,0.88,0.72*0F 
299.63176       GPS_NMEA_FROM_GPS    iGPS            $GPGGA,175836.000,4221.4962,N,07105.2300,W,2,11,0.88,-5.1,M,-33.7,M,0000,0000*7E 
300.63415       GPS_NMEA_FROM_GPS    iGPS            $GPGGA,175837.000,4221.4961,N,07105.2296,W,2,11,0.88,-5.1,M,-33.7,M,0000,0000*72 
301.63601       GPS_NMEA_FROM_GPS    iGPS            $GPGGA,175838.000,4221.4960,N,07105.2293,W,2,11,0.88,-5.1,M,-33.7,M,0000,0000*79 
302.63844       GPS_NMEA_FROM_GPS    iGPS            $GPGSA,A,3,13,12,29,07,11,25,15,06,20,30,05,,1.14,0.88,0.72*0F 
303.64132       GPS_NMEA_FROM_GPS    iGPS            $GPGGA,175840.000,4221.4958,N,07105.2285,W,2,11,0.88,-5.1,M,-33.7,M,0000,0000*7A 
304.64315       GPS_NMEA_FROM_GPS    iGPS            $GPGGA,175841.000,4221.4958,N,07105.2282,W,2,11,0.88,-5.0,M,-33.7,M,0000,0000*7D 
305.64508       GPS_NMEA_FROM_GPS    iGPS            $GPGGA,175842.000,4221.4958,N,07105.2278,W,2,11,0.88,-5.0,M,-33.7,M,0000,0000*7B 
306.64731       GPS_NMEA_FROM_GPS    iGPS            $GPGGA,175843.000,4221.4958,N,07105.2275,W,2,11,0.88,-5.0,M,-33.7,M,0000,0000*77 
307.74953       GPS_NMEA_FROM_GPS    iGPS            $GPGSA,A,3,13,12,29,07,11,25,15,06,20,30,05,,1.14,0.88,0.72*0F 
308.65119       GPS_NMEA_FROM_GPS    iGPS            $GPGSA,A,3,13,12,29,07,11,25,15,06,20,30,05,,1.14,0.88,0.72*0F 
309.65304       GPS_NMEA_FROM_GPS    iGPS            $GPGSA,A,3,13,12,29,07,11,25,15,06,20,30,05,,1.14,0.88,0.72*0F 
310.65482       GPS_NMEA_FROM_GPS    iGPS            $GPGGA,175847.000,4221.4958,N,07105.2255,W,2,11,0.88,-4.9,M,-33.7,M,0000,0000*79 
311.65683       GPS_NMEA_FROM_GPS    iGPS            $GPGSA,A,3,13,12,29,07,11,25,15,06,20,30,05,,1.14,0.88,0.72*0F 
312.65890       GPS_NMEA_FROM_GPS    iGPS            $GPGGA,175849.000,4221.4957,N,07105.2249,W,2,11,0.88,-4.9,M,-33.7,M,0000,0000*75 
313.66079       GPS_NMEA_FROM_GPS    iGPS            $GPGSA,A,3,13,12,29,07,11,25,15,06,20,30,05,,1.14,0.88,0.72*0F 
314.66261       GPS_NMEA_FROM_GPS    iGPS            $GPGSA,A,3,13,12,29,07,11,25,15,06,20,30,05,,1.14,0.88,0.72*0F 
315.56435       GPS_NMEA_FROM_GPS    iGPS            $GPGGA,175852.000,4221.4960,N,07105.2237,W,2,11,0.88,-5.1,M,-33.7,M,0000,0000*7B 
316.66641       GPS_NMEA_FROM_GPS    iGPS            $GPGSA,A,3,13,12,29,07,11,25,15,06,20,30,05,,1.14,0.88,0.72*0F 
317.66860       GPS_NMEA_FROM_GPS    iGPS            $GPGSA,A,3,13,12,29,07,11,25,15,06,20,30,05,,1.14,0.88,0.72*0F 
318.57050       GPS_NMEA_FROM_GPS    iGPS            $GPGGA,175855.000,4221.4961,N,07105.2226,W,2,11,0.88,-5.2,M,-33.7,M,0000,0000*7E 
319.57259       GPS_NMEA_FROM_GPS    iGPS            $GPGGA,175856.000,4221.4962,N,07105.2223,W,2,11,0.88,-5.2,M,-33.7,M,0000,0000*7B 
320.67454       GPS_NMEA_FROM_GPS    iGPS            $GPGGA,175857.000,4221.4962,N,07105.2218,W,2,11,0.88,-5.1,M,-33.7,M,0000,0000*71 
321.67647       GPS_NMEA_FROM_GPS    iGPS            $GPGSA,A,3,13,12,29,07,11,25,15,06,20,30,05,,1.14,0.88,0.72*0F 
322.67849       GPS_NMEA_FROM_GPS    iGPS            $GPGGA,175859.000,4221.4963,N,07105.2213,W,2,11,0.88,-5.1,M,-33.7,M,0000,0000*75 
323.58063       GPS_NMEA_FROM_GPS    iGPS            $GPGGA,175900.000,4221.4964,N,07105.2209,W,2,11,0.88,-5.1,M,-33.7,M,0000,0000*74 
324.68296       GPS_NMEA_FROM_GPS    iGPS            $GPGSA,A,3,13,12,29,07,11,25,15,06,20,30,05,,1.14,0.88,0.72*0F 
325.58477       GPS_NMEA_FROM_GPS    iGPS            $GPGGA,175902.000,4221.4966,N,07105.2201,W,2,11,0.88,-5.1,M,-33.7,M,0000,0000*7C 
326.68675       GPS_NMEA_FROM_GPS    iGPS            $GPGGA,175903.000,4221.4967,N,07105.2198,W,2,11,0.88,-5.0,M,-33.7,M,0000,0000*7E 
327.68906       GPS_NMEA_FROM_GPS    iGPS            $GPGGA,175904.000,4221.4969,N,07105.2195,W,2,11,0.88,-5.0,M,-33.7,M,0000,0000*7A 
328.69100       GPS_NMEA_FROM_GPS    iGPS            $GPGSA,A,3,13,12,29,07,11,25,15,06,20,30,05,,1.14,0.88,0.72*0F 
329.59278       GPS_NMEA_FROM_GPS    iGPS            $GPGGA,175906.000,4221.4972,N,07105.2191,W,2,11,0.88,-4.9,M,-33.7,M,0000,0000*7E 
330.59455       GPS_NMEA_FROM_GPS    iGPS            $GPGGA,175907.000,4221.4974,N,07105.2188,W,2,11,0.88,-4.9,M,-33.7,M,0000,0000*71 
331.69660       GPS_NMEA_FROM_GPS    iGPS            $GPGSA,A,3,13,12,29,07,11,25,15,06,20,30,05,,1.14,0.88,0.72*0F 
332.59847       GPS_NMEA_FROM_GPS    iGPS            $GPGGA,175909.000,4221.4976,N,07105.2179,W,2,11,0.88,-4.8,M,-33.7,M,0000,0000*72 
333.60038       GPS_NMEA_FROM_GPS    iGPS            $GPGGA,175910.000,4221.4978,N,07105.2175,W,2,11,0.88,-4.8,M,-33.7,M,0000,0000*78 
334.70276       GPS_NMEA_FROM_GPS    iGPS            $GPGSA,A,3,13,12,29,07,11,25,15,06,20,30,05,,1.14,0.88,0.72*0F 
335.60526       GPS_NMEA_FROM_GPS    iGPS            $GPGGA,175912.000,4221.4979,N,07105.2168,W,2,11,0.88,-4.8,M,-33.7,M,0000,0000*77 
336.60714       GPS_NMEA_FROM_GPS    iGPS            $GPGGA,175913.000,4221.4980,N,07105.2165,W,2,11,0.88,-4.8,M,-33.7,M,0000,0000*7D 
337.60930       GPS_NMEA_FROM_GPS    iGPS            $GPGGA,175914.000,4221.4981,N,07105.2162,W,2,11,0.88,-4.8,M,-33.7,M,0000,0000*7C 
338.61119       GPS_NMEA_FROM_GPS    iGPS            $GPGGA,175915.000,4221.4982,N,07105.2160,W,2,11,0.88,-4.8,M,-33.7,M,0000,0000*7C 
339.61340       GPS_NMEA_FROM_GPS    iGPS            $GPGSA,A,3,13,12,29,07,11,25,15,06,20,30,05,,1.14,0.88,0.72*0F 
340.61517       GPS_NMEA_FROM_GPS    iGPS            $GPGSA,A,3,13,12,29,07,11,25,15,06,20,30,05,,1.14,0.88,0.72*0F 
341.61720       GPS_NMEA_FROM_GPS    iGPS            $GPGGA,175918.000,4221.4986,N,07105.2149,W,2,11,0.88,-4.8,M,-33.7,M,0000,0000*7E 
342.61940       GPS_NMEA_FROM_GPS    iGPS            $GPGGA,175919.000,4221.4987,N,07105.2146,W,2,11,0.88,-4.8,M,-33.7,M,0000,0000*71 
343.62124       GPS_NMEA_FROM_GPS    iGPS            $GPGGA,175920.000,4221.4989,N,07105.2144,W,2,11,0.88,-4.7,M,-33.7,M,0000,0000*78 
344.62307       GPS_NMEA_FROM_GPS    iGPS            $GPGSA,A,3,13,12,29,07,11,25,15,06,20,30,05,,1.14,0.88,0.72*0F 
345.62490       GPS_NMEA_FROM_GPS    iGPS            $GPGGA,175922.000,4221.4992,N,07105.2138,W,2,11,0.88,-4.6,M,-33.7,M,0000,0000*7A 
346.62673       GPS_NMEA_FROM_GPS    iGPS            $GPGGA,175923.000,4221.4993,N,07105.2135,W,2,11,0.88,-4.6,M,-33.7,M,0000,0000*77 
347.62884       GPS_NMEA_FROM_GPS    iGPS            $GPGGA,175924.000,4221.4993,N,07105.2132,W,2,11,0.88,-4.6,M,-33.7,M,0000,0000*77 
348.63108       GPS_NMEA_FROM_GPS    iGPS            $GPGGA,175925.000,4221.4994,N,07105.2129,W,2,11,0.88,-4.6,M,-33.7,M,0000,0000*7B 
349.63397       GPS_NMEA_FROM_GPS    iGPS            $GPGGA,175926.000,4221.4995,N,07105.2125,W,2,11,0.88,-4.6,M,-33.7,M,0000,0000*75 
350.63719       GPS_NMEA_FROM_GPS    iGPS            $GPGSA,A,3,13,12,29,07,11,25,15,06,20,30,05,,1.14,0.88,0.72*0F 
351.64016       GPS_NMEA_FROM_GPS    iGPS            $GPGSA,A,3,13,12,29,07,11,25,15,06,20,30,05,,1.14,0.88,0.72*0F 
352.64239       GPS_NMEA_FROM_GPS    iGPS            $GPGGA,175929.000,4221.4996,N,07105.2114,W,2,11,0.88,-4.8,M,-33.7,M,0000,0000*75 
353.64441       GPS_NMEA_FROM_GPS    iGPS            $GPGSA,A,3,13,12,29,07,11,25,15,06,20,30,05,,1.14,0.88,0.72*0F 
354.64635       GPS_NMEA_FROM_GPS    iGPS            $GPGGA,175931.000,4221.5001,N,07105.2111,W,2,11,0.88,-4.8,M,-33.7,M,0000,0000*7F 
355.64826       GPS_NMEA_FROM_GPS    iGPS            $GPGGA,175932.000,4221.5005,N,07105.2108,W,2,11,0.88,-4.9,M,-33.7,M,0000,0000*71 
356.65029       GPS_NMEA_FROM_GPS    iGPS            $GPGSA,A,3,13,12,29,07,11,25,15,06,20,30,05,,1.14,0.88,0.72*0F 
357.65250       GPS_NMEA_FROM_GPS    iGPS            $GPGSA,A,3,13,12,29,07,11,25,15,06,20,30,05,,1.14,0.88,0.72*0F 
358.65422       GPS_NMEA_FROM_GPS    iGPS            $GPGGA,175935.000,4221.5014,N,07105.2099,W,2,11,0.88,-4.8,M,-33.7,M,0000,0000*7E 
359.65610       GPS_NMEA_FROM_GPS    iGPS            $GPGGA,175936.000,4221.5015,N,07105.2096,W,2,11,0.88,-4.8,M,-33.7,M,0000,0000*73 
360.65801       GPS_NMEA_FROM_GPS    iGPS            $GPGSA,A,3,13,12,29,07,11,25,15,06,20,30,05,,1.14,0.88,0.72*0F 
361.66003       GPS_NMEA_FROM_GPS    iGPS            $GPGSA,A,3,13,12,29,07,11,25,15,06,20,30,05,,1.14,0.88,0.72*0F 
362.66245       GPS_NMEA_FROM_GPS    iGPS            $GPGGA,175939.000,4221.5019,N,07105.2086,W,2,11,0.88,-4.8,M,-33.7,M,0000,0000*71 
363.66433       GPS_NMEA_FROM_GPS    iGPS            $GPGGA,175940.000,4221.5020,N,07105.2082,W,2,11,0.88,-4.8,M,-33.7,M,0000,0000*71 
364.56601       GPS_NMEA_FROM_GPS    iGPS            $GPGGA,175941.000,4221.5021,N,07105.2077,W,2,11,0.88,-4.8,M,-33.7,M,0000,0000*7B 
365.66820       GPS_NMEA_FROM_GPS    iGPS            $GPGGA,175942.000,4221.5022,N,07105.2074,W,2,11,0.88,-4.7,M,-33.7,M,0000,0000*77 
366.67132       GPS_NMEA_FROM_GPS    iGPS            $GPGGA,175943.000,4221.5023,N,07105.2071,W,2,11,0.88,-4.7,M,-33.7,M,0000,0000*72 
367.67369       GPS_NMEA_FROM_GPS    iGPS            $GPGSA,A,3,13,12,29,07,11,25,15,06,20,30,05,,1.14,0.88,0.72*0F 
368.67552       GPS_NMEA_FROM_GPS    iGPS            $GPGSA,A,3,13,12,29,07,11,25,15,06,20,30,05,,1.14,0.88,0.72*0F 
369.57733       GPS_NMEA_FROM_GPS    iGPS            $GPGGA,175946.000,4221.5026,N,07105.2062,W,2,11,0.88,-4.8,M,-33.7,M,0000,0000*7F 
370.67932       GPS_NMEA_FROM_GPS    iGPS            $GPGSA,A,3,13,12,29,07,11,25,15,06,20,30,05,,1.14,0.88,0.72*0F 
371.68130       GPS_NMEA_FROM_GPS    iGPS            $GPGSA,A,3,13,12,29,07,11,25,15,06,20,30,05,,1.14,0.88,0.72*0F 
372.58358       GPS_NMEA_FROM_GPS    iGPS            $GPGGA,175949.000,4221.5031,N,07105.2055,W,2,11,0.88,-4.7,M,-33.7,M,0000,0000*7D 
373.58551       GPS_NMEA_FROM_GPS    iGPS            $GPGGA,175950.000,4221.5034,N,07105.2053,W,2,11,0.88,-4.7,M,-33.7,M,0000,0000*76 
374.58745       GPS_NMEA_FROM_GPS    iGPS            $GPGGA,175951.000,4221.5035,N,07105.2050,W,2,11,0.88,-4.7,M,-33.7,M,0000,0000*75 
375.58954       GPS_NMEA_FROM_GPS    iGPS            $GPGGA,175952.000,4221.5036,N,07105.2047,W,2,11,0.88,-4.7,M,-33.7,M,0000,0000*73 
376.69161       GPS_NMEA_FROM_GPS    iGPS            $GPGSA,A,3,13,12,29,07,11,25,15,06,20,30,05,,1.14,0.88,0.72*0F 
377.69384       GPS_NMEA_FROM_GPS    iGPS            $GPGSA,A,3,13,12,29,07,11,25,15,06,20,30,05,,1.14,0.88,0.72*0F 
378.59545       GPS_NMEA_FROM_GPS    iGPS            $GPGGA,175955.000,4221.5036,N,07105.2038,W,2,11,0.88,-4.7,M,-33.7,M,0000,0000*7C 
379.69774       GPS_NMEA_FROM_GPS    iGPS            $GPGGA,175956.000,4221.5038,N,07105.2035,W,2,11,0.88,-4.6,M,-33.7,M,0000,0000*7D 
380.70071       GPS_NMEA_FROM_GPS    iGPS            $GPGSA,A,3,13,12,29,07,11,25,15,06,20,30,05,,1.14,0.88,0.72*0F 
381.60552       GPS_NMEA_FROM_GPS    iGPS            $GPGSA,A,3,13,12,29,07,11,25,15,06,20,30,05,,1.14,0.88,0.72*0F 
382.60823       GPS_NMEA_FROM_GPS    iGPS            $GPGGA,175959.000,4221.5043,N,07105.2031,W,2,11,0.88,-4.7,M,-33.7,M,0000,0000*7B 
383.61013       GPS_NMEA_FROM_GPS    iGPS            $GPGGA,180000.000,4221.5045,N,07105.2028,W,2,11,0.88,-4.6,M,-33.7,M,0000,0000*7B 
384.71206       GPS_NMEA_FROM_GPS    iGPS            $GPGSA,A,3,13,12,29,07,11,25,15,06,20,30,05,,1.14,0.88,0.72*0F 
385.71394       GPS_NMEA_FROM_GPS    iGPS            $GPGSA,A,3,13,12,29,07,11,25,15,06,20,30,05,,1.14,0.88,0.72*0F 
386.61606       GPS_NMEA_FROM_GPS    iGPS            $GPGGA,180003.000,4221.5054,N,07105.2025,W,2,11,0.88,-4.6,M,-33.7,M,0000,0000*75 
387.71837       GPS_NMEA_FROM_GPS    iGPS            $GPGSA,A,3,13,12,29,07,11,25,15,06,20,30,05,,1.14,0.88,0.72*0F 
388.62002       GPS_NMEA_FROM_GPS    iGPS            $GPGGA,180005.000,4221.5063,N,07105.2021,W,2,11,0.88,-4.6,M,-33.7,M,0000,0000*73 
389.62197       GPS_NMEA_FROM_GPS    iGPS            $GPGGA,180006.000,4221.5066,N,07105.2019,W,2,11,0.88,-4.7,M,-33.7,M,0000,0000*7F 
390.62389       GPS_NMEA_FROM_GPS    iGPS            $GPGGA,180007.000,4221.5069,N,07105.2018,W,2,11,0.88,-4.7,M,-33.7,M,0000,0000*70 
391.62591       GPS_NMEA_FROM_GPS    iGPS            $GPGGA,180008.000,4221.5071,N,07105.2015,W,2,11,0.88,-4.7,M,-33.7,M,0000,0000*7B 
392.62798       GPS_NMEA_FROM_GPS    iGPS            $GPGGA,180009.000,4221.5074,N,07105.2011,W,2,11,0.88,-4.7,M,-33.7,M,0000,0000*7B 
393.62990       GPS_NMEA_FROM_GPS    iGPS            $GPGSA,A,3,13,12,29,07,11,25,15,06,20,30,05,,1.14,0.88,0.72*0F 
394.63163       GPS_NMEA_FROM_GPS    iGPS            $GPGGA,180011.000,4221.5077,N,07105.2004,W,2,11,0.88,-4.8,M,-33.7,M,0000,0000*7A 
395.64029       GPS_NMEA_FROM_GPS    iGPS            $GPGGA,180012.000,4221.5078,N,07105.2001,W,2,11,0.88,-4.8,M,-33.7,M,0000,0000*73 
396.64207       GPS_NMEA_FROM_GPS    iGPS            $GPGGA,180013.000,4221.5078,N,07105.1997,W,2,11,0.88,-4.8,M,-33.7,M,0000,0000*77 
397.64402       GPS_NMEA_FROM_GPS    iGPS            $GPGGA,180014.000,4221.5079,N,07105.1993,W,2,11,0.88,-4.8,M,-33.7,M,0000,0000*75 
398.64583       GPS_NMEA_FROM_GPS    iGPS            $GPGGA,180015.000,4221.5080,N,07105.1990,W,2,11,0.88,-4.9,M,-33.7,M,0000,0000*70 
399.64775       GPS_NMEA_FROM_GPS    iGPS            $GPGSA,A,3,13,12,29,07,11,25,15,06,20,30,05,,1.14,0.88,0.72*0F 
400.64946       GPS_NMEA_FROM_GPS    iGPS            $GPGGA,180017.000,4221.5089,N,07105.1987,W,2,11,0.88,-5.0,M,-33.7,M,0000,0000*75 
401.65243       GPS_NMEA_FROM_GPS    iGPS            $GPGGA,180018.000,4221.5092,N,07105.1986,W,2,11,0.88,-5.1,M,-33.7,M,0000,0000*70 
402.65448       GPS_NMEA_FROM_GPS    iGPS            $GPGGA,180019.000,4221.5095,N,07105.1985,W,2,11,0.88,-5.1,M,-33.7,M,0000,0000*75 
403.65631       GPS_NMEA_FROM_GPS    iGPS            $GPGGA,180020.000,4221.5098,N,07105.1982,W,2,11,0.88,-5.1,M,-33.7,M,0000,0000*75 
404.65878       GPS_NMEA_FROM_GPS    iGPS            $GPGSA,A,3,13,12,29,07,11,25,15,06,20,30,05,,1.14,0.88,0.72*0F 
405.66096       GPS_NMEA_FROM_GPS    iGPS            $GPGGA,180022.000,4221.5103,N,07105.1978,W,2,11,0.88,-5.0,M,-33.7,M,0000,0000*70 
406.66297       GPS_NMEA_FROM_GPS    iGPS            $GPGSA,A,3,13,12,29,07,11,25,15,06,20,30,05,,1.14,0.88,0.72*0F 
407.56494       GPS_NMEA_FROM_GPS    iGPS            $GPGGA,180024.000,4221.5106,N,07105.1970,W,2,11,0.88,-5.0,M,-33.7,M,0000,0000*7B 
408.66692       GPS_NMEA_FROM_GPS    iGPS            $GPGGA,180025.000,4221.5107,N,07105.1967,W,2,11,0.88,-5.0,M,-33.7,M,0000,0000*7D 
409.66877       GPS_NMEA_FROM_GPS    iGPS            $GPGGA,180026.000,4221.5109,N,07105.1964,W,2,11,0.88,-5.0,M,-33.7,M,0000,0000*73 
410.67057       GPS_NMEA_FROM_GPS    iGPS            $GPGGA,180027.000,4221.5109,N,07105.1961,W,2,11,0.88,-5.0,M,-33.7,M,0000,0000*77 
411.57236       GPS_NMEA_FROM_GPS    iGPS            $GPGGA,180028.000,4221.5111,N,07105.1957,W,2,11,0.88,-5.0,M,-33.7,M,0000,0000*74 
412.57436       GPS_NMEA_FROM_GPS    iGPS            $GPGGA,180029.000,4221.5115,N,07105.1955,W,2,11,0.88,-5.0,M,-33.7,M,0000,0000*73 
413.67712       GPS_NMEA_FROM_GPS    iGPS            $GPGGA,180030.000,4221.5117,N,07105.1953,W,2,11,0.88,-5.0,M,-33.7,M,0000,0000*7F 
414.57880       GPS_NMEA_FROM_GPS    iGPS            $GPGGA,180031.000,4221.5120,N,07105.1951,W,2,11,0.88,-5.0,M,-33.7,M,0000,0000*78 
415.68134       GPS_NMEA_FROM_GPS    iGPS            $GPGGA,180032.000,4221.5124,N,07105.1949,W,2,11,0.88,-5.0,M,-33.7,M,0000,0000*76 
416.68389       GPS_NMEA_FROM_GPS    iGPS            $GPGSA,A,3,13,12,29,07,11,25,15,06,20,30,05,,1.14,0.88,0.72*0F 
417.68634       GPS_NMEA_FROM_GPS    iGPS            $GPGSA,A,3,13,12,29,07,11,25,15,06,20,30,05,,1.14,0.88,0.72*0F 
418.58863       GPS_NMEA_FROM_GPS    iGPS            $GPGGA,180035.000,4221.5132,N,07105.1944,W,2,11,0.88,-4.9,M,-33.7,M,0000,0000*73 
419.69173       GPS_NMEA_FROM_GPS    iGPS            $GPGSA,A,3,13,12,29,07,11,25,15,06,20,30,05,,1.14,0.88,0.72*0F 
420.59489       GPS_NMEA_FROM_GPS    iGPS            $GPGGA,180037.000,4221.5137,N,07105.1940,W,2,11,0.88,-4.9,M,-33.7,M,0000,0000*70 
421.69777       GPS_NMEA_FROM_GPS    iGPS            $GPGSA,A,3,13,12,29,07,11,25,15,06,20,30,05,,1.14,0.88,0.72*0F 
422.69980       GPS_NMEA_FROM_GPS    iGPS            $GPGSA,A,3,13,12,29,07,11,25,15,06,20,30,05,,1.14,0.88,0.72*0F 
423.60186       GPS_NMEA_FROM_GPS    iGPS            $GPGGA,180040.000,4221.5142,N,07105.1933,W,2,11,0.88,-4.8,M,-33.7,M,0000,0000*77 
424.70390       GPS_NMEA_FROM_GPS    iGPS            $GPGSA,A,3,13,12,29,07,11,25,15,06,20,30,05,,1.14,0.88,0.72*0F 
425.60563       GPS_NMEA_FROM_GPS    iGPS            $GPGGA,180042.000,4221.5145,N,07105.1926,W,2,11,0.88,-4.8,M,-33.7,M,0000,0000*76 
426.70788       GPS_NMEA_FROM_GPS    iGPS            $GPGSA,A,3,13,12,29,07,11,25,15,06,20,30,05,,1.14,0.88,0.72*0F 
427.71130       GPS_NMEA_FROM_GPS    iGPS            $GPGSA,A,3,13,12,29,07,11,25,15,06,20,30,05,,1.14,0.88,0.72*0F 
428.61297       GPS_NMEA_FROM_GPS    iGPS            $GPGGA,180045.000,4221.5151,N,07105.1914,W,2,11,0.88,-4.7,M,-33.7,M,0000,0000*7A 
429.71501       GPS_NMEA_FROM_GPS    iGPS            $GPGSA,A,3,13,12,29,07,11,25,15,06,20,30,05,,1.14,0.88,0.72*0F 
430.71675       GPS_NMEA_FROM_GPS    iGPS            $GPGSA,A,3,13,12,29,07,11,25,15,06,20,30,05,,1.14,0.88,0.72*0F 
431.71858       GPS_NMEA_FROM_GPS    iGPS            $GPGSA,A,3,13,12,29,07,11,25,15,06,20,30,05,,1.14,0.88,0.72*0F 
432.62069       GPS_NMEA_FROM_GPS    iGPS            $GPGGA,180049.000,4221.5159,N,07105.1902,W,2,11,0.88,-4.6,M,-33.7,M,0000,0000*78 
433.62259       GPS_NMEA_FROM_GPS    iGPS            $GPGGA,180050.000,4221.5163,N,07105.1898,W,2,11,0.88,-4.5,M,-33.7,M,0000,0000*78 
434.62436       GPS_NMEA_FROM_GPS    iGPS            $GPGGA,180051.000,4221.5166,N,07105.1896,W,2,11,0.88,-4.5,M,-33.7,M,0000,0000*72 
435.62641       GPS_NMEA_FROM_GPS    iGPS            $GPGSA,A,3,13,12,29,07,11,25,15,06,20,30,05,,1.14,0.88,0.72*0F 
436.62854       GPS_NMEA_FROM_GPS    iGPS            $GPGGA,180053.000,4221.5171,N,07105.1891,W,2,11,0.88,-4.5,M,-33.7,M,0000,0000*71 
437.63054       GPS_NMEA_FROM_GPS    iGPS            $GPGSA,A,3,13,12,29,07,11,25,15,06,20,30,05,,1.14,0.88,0.72*0F 
438.63231       GPS_NMEA_FROM_GPS    iGPS            $GPGGA,180055.000,4221.5174,N,07105.1886,W,2,11,0.88,-4.5,M,-33.7,M,0000,0000*74 
439.63419       GPS_NMEA_FROM_GPS    iGPS            $GPGSA,A,3,13,12,29,07,11,25,15,06,20,30,05,,1.14,0.88,0.72*0F 
440.73623       GPS_NMEA_FROM_GPS    iGPS            $GPGSA,A,3,13,12,29,07,11,25,15,06,20,30,05,,1.14,0.88,0.72*0F 
441.63801       GPS_NMEA_FROM_GPS    iGPS            $GPGSA,A,3,13,12,29,07,11,25,15,06,20,30,05,,1.14,0.88,0.72*0F 
442.64013       GPS_NMEA_FROM_GPS    iGPS            $GPGGA,180059.000,4221.5183,N,07105.1877,W,2,11,0.88,-4.4,M,-33.7,M,0000,0000*7F 
443.64200       GPS_NMEA_FROM_GPS    iGPS            $GPGGA,180100.000,4221.5186,N,07105.1874,W,2,11,0.88,-4.4,M,-33.7,M,0000,0000*74 
444.64388       GPS_NMEA_FROM_GPS    iGPS            $GPGSA,A,3,13,12,29,07,11,25,15,06,20,30,05,,1.14,0.88,0.72*0F 
445.64574       GPS_NMEA_FROM_GPS    iGPS            $GPGGA,180102.000,4221.5189,N,07105.1868,W,2,11,0.88,-4.3,M,-33.7,M,0000,0000*73 
446.54746       GPS_NMEA_FROM_GPS    iGPS            $GPGGA,180103.000,4221.5191,N,07105.1866,W,2,11,0.88,-4.3,M,-33.7,M,0000,0000*75 
447.65047       GPS_NMEA_FROM_GPS    iGPS            $GPGGA,180104.000,4221.5193,N,07105.1864,W,2,11,0.88,-4.2,M,-33.7,M,0000,0000*73 
448.65230       GPS_NMEA_FROM_GPS    iGPS            $GPGGA,180105.000,4221.5194,N,07105.1861,W,2,11,0.88,-4.2,M,-33.7,M,0000,0000*70 
449.65427       GPS_NMEA_FROM_GPS    iGPS            $GPGSA,A,3,13,12,29,07,11,25,15,06,20,30,05,,1.14,0.88,0.72*0F 
450.65610       GPS_NMEA_FROM_GPS    iGPS            $GPGGA,180107.000,4221.5197,N,07105.1857,W,2,11,0.88,-4.2,M,-33.7,M,0000,0000*74 
451.65795       GPS_NMEA_FROM_GPS    iGPS            $GPGGA,180108.000,4221.5196,N,07105.1854,W,2,11,0.88,-4.2,M,-33.7,M,0000,0000*79 
452.65998       GPS_NMEA_FROM_GPS    iGPS            $GPGGA,180109.000,4221.5198,N,07105.1853,W,2,11,0.88,-4.2,M,-33.7,M,0000,0000*71 
453.66198       GPS_NMEA_FROM_GPS    iGPS            $GPGSA,A,3,13,12,29,07,11,25,15,06,20,30,05,,1.14,0.88,0.72*0F 
454.56367       GPS_NMEA_FROM_GPS    iGPS            $GPGGA,180111.000,4221.5202,N,07105.1850,W,2,11,0.88,-4.2,M,-33.7,M,0000,0000*7B 
455.66598       GPS_NMEA_FROM_GPS    iGPS            $GPGGA,180112.000,4221.5205,N,07105.1848,W,2,11,0.88,-4.2,M,-33.7,M,0000,0000*76 
456.56791       GPS_NMEA_FROM_GPS    iGPS            $GPGGA,180113.000,4221.5208,N,07105.1846,W,2,11,0.88,-4.1,M,-33.7,M,0000,0000*77 
457.67016       GPS_NMEA_FROM_GPS    iGPS            $GPGGA,180114.000,4221.5210,N,07105.1843,W,2,11,0.88,-4.1,M,-33.7,M,0000,0000*7C 
