2.88569         GPS_NMEA_FROM_GPS    iGPS            $GPGGA,160821.000,4221.5195,N,07105.2370,W,2,09,1.08,5.4,M,-33.7,M,0000,0000*52 
3.88885         GPS_NMEA_FROM_GPS    iGPS            $GPGSA,A,3,06,19,12,11,20,04,09,17,05,,,,1.83,1.08,1.48*0D 
3.88885         GPS_NMEA_FROM_GPS    iGPS            $GPGSA,A,3,06,19,12,11,20,04,09,17,05,,,,1.83,1.08,1.48*0D 
4.89156         GPS_NMEA_FROM_GPS    iGPS            $GPGGA,160823.000,4221.5195,N,07105.2371,W,2,09,1.08,5.5,M,-33.7,M,0000,0000*50 
5.89394         GPS_NMEA_FROM_GPS    iGPS            $GPGSA,A,3,06,19,12,11,20,04,09,17,05,,,,1.83,1.08,1.48*0D 
6.89608         GPS_NMEA_FROM_GPS    iGPS            $GPGSA,A,3,06,19,12,11,20,04,09,17,05,,,,1.83,1.08,1.48*0D 
7.89871         GPS_NMEA_FROM_GPS    iGPS            $GPGGA,160826.000,4221.5196,N,07105.2372,W,2,09,1.08,5.6,M,-33.7,M,0000,0000*56 
8.90139         GPS_NMEA_FROM_GPS    iGPS            $GPGGA,160827.000,4221.5196,N,07105.2372,W,2,09,1.08,5.6,M,-33.7,M,0000,0000*57 
9.90415         GPS_NMEA_FROM_GPS    iGPS            $GPGGA,160828.000,4221.5196,N,07105.2372,W,2,09,1.08,5.7,M,-33.7,M,0000,0000*59 
10.90634        GPS_NMEA_FROM_GPS    iGPS            $GPGGA,160829.000,4221.5196,N,07105.2372,W,2,09,1.08,5.7,M,-33.7,M,0000,0000*58 
10.90634        GPS_NMEA_FROM_GPS    iGPS            $GPGGA,160829.000,4221.5196,N,07105.2372,W,2,09,1.08,5.7,M,-33.7,M,0000,0000*58 
11.90910        GPS_NMEA_FROM_GPS    iGPS            $GPGGA,160830.000,4221.5196,N,07105.2372,W,2,09,1.08,5.8,M,-33.7,M,0000,0000*5F 
12.91209        GPS_NMEA_FROM_GPS    iGPS            $GPGGA,160831.000,4221.5196,N,07105.2372,W,2,09,1.02,5.8,M,-33.7,M,0000,0000*54 
13.81476        GPS_NMEA_FROM_GPS    iGPS            $GPGGA,160832.000,4221.5195,N,07105.2373,W,2,09,1.08,5.9,M,-33.7,M,0000,0000*5E 
14.91814        GPS_NMEA_FROM_GPS    iGPS            $GPGSA,A,3,06,19,12,11,20,04,09,17,05,,,,1.83,1.08,1.48*0D 
15.92044        GPS_NMEA_FROM_GPS    iGPS            $GPGGA,160834.000,4221.5195,N,07105.2374,W,2,09,1.08,6.0,M,-33.7,M,0000,0000*55 
16.92314        GPS_NMEA_FROM_GPS    iGPS            $GPGGA,160835.000,4221.5195,N,07105.2374,W,2,09,1.08,6.1,M,-33.7,M,0000,0000*55 
17.92612        GPS_NMEA_FROM_GPS    iGPS            $GPGGA,160836.000,4221.5195,N,07105.2375,W,2,09,1.08,6.1,M,-33.7,M,0000,0000*57 
18.92894        GPS_NMEA_FROM_GPS    iGPS            $GPGGA,160837.000,4221.5195,N,07105.2375,W,2,09,1.08,6.2,M,-33.7,M,0000,0000*55 
19.93171        GPS_NMEA_FROM_GPS    iGPS            $GPGGA,160838.000,4221.5194,N,07105.2376,W,2,09,1.08,6.3,M,-33.7,M,0000,0000*59 
20.93385        GPS_NMEA_FROM_GPS    iGPS            $GPGGA,160839.000,4221.5194,N,07105.2376,W,2,09,1.08,6.3,M,-33.7,M,0000,0000*58 
21.93616        GPS_NMEA_FROM_GPS    iGPS            $GPGSA,A,3,06,19,12,11,20,04,09,17,05,,,,1.83,1.08,1.48*0D 
22.83806        GPS_NMEA_FROM_GPS    iGPS            $GPGGA,160841.000,4221.5194,N,07105.2377,W,2,09,1.08,6.4,M,-33.7,M,0000,0000*51 
23.94031        GPS_NMEA_FROM_GPS    iGPS            $GPGSA,A,3,06,19,12,11,20,04,09,17,05,,,,1.83,1.08,1.48*0D 
24.84242        GPS_NMEA_FROM_GPS    iGPS            $GPGGA,160843.000,4221.5194,N,07105.2378,W,2,09,1.08,6.5,M,-33.7,M,0000,0000*5D 
25.84497        GPS_NMEA_FROM_GPS    iGPS            $GPGGA,160844.000,4221.5194,N,07105.2378,W,2,09,1.08,6.5,M,-33.7,M,0000,0000*5A 
26.84731        GPS_NMEA_FROM_GPS    iGPS            $GPGGA,160845.000,4221.5195,N,07105.2378,W,2,09,1.08,6.7,M,-33.7,M,0000,0000*58 
27.84947        GPS_NMEA_FROM_GPS    iGPS            $GPGGA,160846.000,4221.5195,N,07105.2378,W,2,09,1.08,6.7,M,-33.7,M,0000,0000*5B 
27.84947        GPS_NMEA_FROM_GPS    iGPS            $GPGGA,160846.000,4221.5195,N,07105.2378,W,2,09,1.08,6.7,M,-33.7,M,0000,0000*5B 
28.85190        GPS_NMEA_FROM_GPS    iGPS            $GPGGA,160847.000,4221.5195,N,07105.2377,W,2,09,1.08,6.9,M,-33.7,M,0000,0000*5B 
28.85190        GPS_NMEA_FROM_GPS    iGPS            $GPGGA,160847.000,4221.5195,N,07105.2377,W,2,09,1.08,6.9,M,-33.7,M,0000,0000*5B 
29.85517        GPS_NMEA_FROM_GPS    iGPS            $GPGGA,160848.000,4221.5195,N,07105.2378,W,2,09,1.08,6.9,M,-33.7,M,0000,0000*5B 
30.95900        GPS_NMEA_FROM_GPS    iGPS            $GPGSA,A,3,06,19,12,11,20,04,09,17,05,,,,1.83,1.08,1.48*0D 
31.96190        GPS_NMEA_FROM_GPS    iGPS            $GPGSA,A,3,06,19,12,11,20,04,09,17,05,,,,1.83,1.08,1.48*0D 
32.96464        GPS_NMEA_FROM_GPS    iGPS            $GPGSA,A,3,06,19,12,11,20,04,09,17,05,,,,1.83,1.08,1.48*0D 
33.96753        GPS_NMEA_FROM_GPS    iGPS            $GPGSA,A,3,06,19,12,11,20,04,09,17,05,,,,1.83,1.08,1.48*0D 
34.87077        GPS_NMEA_FROM_GPS    iGPS            $GPGGA,160853.000,4221.5195,N,07105.2378,W,2,09,1.08,7.0,M,-33.7,M,0000,0000*59 
35.87365        GPS_NMEA_FROM_GPS    iGPS            $GPGGA,160854.000,4221.5195,N,07105.2378,W,2,09,1.08,7.0,M,-33.7,M,0000,0000*5E 
36.97681        GPS_NMEA_FROM_GPS    iGPS            $GPGSA,A,3,06,19,12,11,20,04,09,17,05,,,,1.83,1.08,1.48*0D 
37.87919        GPS_NMEA_FROM_GPS    iGPS            $GPGGA,160856.000,4221.5195,N,07105.2378,W,2,09,1.08,7.0,M,-33.7,M,0000,0000*5C 
38.88151        GPS_NMEA_FROM_GPS    iGPS            $GPGGA,160857.000,4221.5195,N,07105.2378,W,2,09,1.08,7.0,M,-33.7,M,0000,0000*5D 
39.98427        GPS_NMEA_FROM_GPS    iGPS            $GPGSA,A,3,06,19,12,11,20,04,09,17,05,,,,1.83,1.08,1.48*0D 
40.98663        GPS_NMEA_FROM_GPS    iGPS            $GPGSA,A,3,06,19,12,11,20,04,09,17,05,,,,1.83,1.08,1.48*0D 
41.88920        GPS_NMEA_FROM_GPS    iGPS            $GPGGA,160900.000,4221.5195,N,07105.2378,W,2,09,1.08,7.0,M,-33.7,M,0000,0000*5E 
42.89205        GPS_NMEA_FROM_GPS    iGPS            $GPGGA,160901.000,4221.5195,N,07105.2377,W,2,09,1.08,7.0,M,-33.7,M,0000,0000*50 
43.89503        GPS_NMEA_FROM_GPS    iGPS            $GPGGA,160902.000,4221.5194,N,07105.2377,W,2,09,1.08,7.0,M,-33.7,M,0000,0000*52 
44.89812        GPS_NMEA_FROM_GPS    iGPS            $GPGGA,160903.000,4221.5194,N,07105.2375,W,2,09,1.08,7.0,M,-33.7,M,0000,0000*51 
45.90133        GPS_NMEA_FROM_GPS    iGPS            $GPGSA,A,3,06,19,12,11,20,09,17,05,,,,,2.50,1.41,2.07*01 
46.90425        GPS_NMEA_FROM_GPS    iGPS            $GPGSA,A,3,06,19,12,11,20,04,09,17,05,,,,1.83,1.08,1.48*0D 
47.90724        GPS_NMEA_FROM_GPS    iGPS            $GPGGA,160906.000,4221.5193,N,07105.2373,W,2,09,1.08,7.1,M,-33.7,M,0000,0000*54 
48.91040        GPS_NMEA_FROM_GPS    iGPS            $GPGSA,A,3,06,19,12,11,20,04,09,17,05,,,,1.83,1.08,1.48*0D 
49.91445        GPS_NMEA_FROM_GPS    iGPS            $GPGSA,A,3,06,19,12,11,20,04,09,17,05,,,,1.83,1.08,1.48*0D 
50.91669        GPS_NMEA_FROM_GPS    iGPS            $GPGSA,A,3,06,19,12,11,20,04,09,17,05,,,,1.83,1.08,1.48*0D 
51.91916        GPS_NMEA_FROM_GPS    iGPS            $GPGGA,160910.000,4221.5193,N,07105.2373,W,2,09,1.08,7.1,M,-33.7,M,0000,0000*53 
52.92179        GPS_NMEA_FROM_GPS    iGPS            $GPGGA,160911.000,4221.5193,N,07105.2373,W,2,09,1.08,7.1,M,-33.7,M,0000,0000*52 
53.92574        GPS_NMEA_FROM_GPS    iGPS            $GPGGA,160912.000,4221.5193,N,07105.2373,W,2,09,1.08,7.1,M,-33.7,M,0000,0000*51 
54.92984        GPS_NMEA_FROM_GPS    iGPS            $GPGGA,160913.000,4221.5193,N,07105.2373,W,2,09,1.08,7.1,M,-33.7,M,0000,0000*50 
55.93309        GPS_NMEA_FROM_GPS    iGPS            $GPGSA,A,3,06,19,12,11,20,04,09,17,05,,,,1.84,1.08,1.49*0B 
56.83553        GPS_NMEA_FROM_GPS    iGPS            $GPGGA,160915.000,4221.5193,N,07105.2373,W,2,09,1.08,7.1,M,-33.7,M,0000,0000*56 
57.93872        GPS_NMEA_FROM_GPS    iGPS            $GPGSA,A,3,06,19,12,11,20,04,09,17,05,,,,1.84,1.08,1.49*0B 
58.94158        GPS_NMEA_FROM_GPS    iGPS            $GPGSA,A,3,06,19,12,11,20,04,09,17,05,,,,1.84,1.08,1.49*0B 
59.84460        GPS_NMEA_FROM_GPS    iGPS            $GPGGA,160918.000,4221.5194,N,07105.2372,W,2,09,1.08,7.1,M,-33.7,M,0000,0000*5D 
60.94756        GPS_NMEA_FROM_GPS    iGPS            $GPGGA,160919.000,4221.5195,N,07105.2367,W,2,09,1.02,7.0,M,-33.7,M,0000,0000*52 
61.95132        GPS_NMEA_FROM_GPS    iGPS            $GPGSA,A,3,06,19,12,11,20,04,09,17,05,,,,1.31,1.02,0.83*08 
61.95132        GPS_NMEA_FROM_GPS    iGPS            $GPGSA,A,3,06,19,12,11,20,04,09,17,05,,,,1.31,1.02,0.83*08 
62.95381        GPS_NMEA_FROM_GPS    iGPS            $GPGSA,A,3,06,19,12,11,20,04,09,17,05,,,,1.31,1.02,0.83*08 
63.95639        GPS_NMEA_FROM_GPS    iGPS            $GPGSA,A,3,06,19,12,11,20,04,09,17,05,,,,1.84,1.08,1.49*0B 
64.95907        GPS_NMEA_FROM_GPS    iGPS            $GPGSA,A,3,06,19,12,11,20,04,09,17,05,,,,1.84,1.08,1.49*0B 
65.86157        GPS_NMEA_FROM_GPS    iGPS            $GPGGA,160924.000,4221.5196,N,07105.2354,W,2,09,1.08,6.9,M,-33.7,M,0000,0000*5D 
66.86436        GPS_NMEA_FROM_GPS    iGPS            $GPGGA,160925.000,4221.5197,N,07105.2353,W,2,09,1.08,6.9,M,-33.7,M,0000,0000*5A 
67.86728        GPS_NMEA_FROM_GPS    iGPS            $GPGGA,160926.000,4221.5197,N,07105.2352,W,2,09,1.02,7.0,M,-33.7,M,0000,0000*5A 
68.87048        GPS_NMEA_FROM_GPS    iGPS            $GPGGA,160927.000,4221.5197,N,07105.2351,W,2,09,1.02,7.0,M,-33.7,M,0000,0000*58 
69.87363        GPS_NMEA_FROM_GPS    iGPS            $GPGGA,160928.000,4221.5198,N,07105.2350,W,2,09,1.02,7.0,M,-33.7,M,0000,0000*59 
70.87653        GPS_NMEA_FROM_GPS    iGPS            $GPGGA,160929.000,4221.5198,N,07105.2349,W,2,09,1.02,7.0,M,-33.7,M,0000,0000*50 
71.87975        GPS_NMEA_FROM_GPS    iGPS            $GPGGA,160930.000,4221.5199,N,07105.2348,W,2,09,1.02,7.0,M,-33.7,M,0000,0000*58 
72.98354        GPS_NMEA_FROM_GPS    iGPS            $GPGSA,A,3,06,19,12,11,20,04,09,17,05,,,,1.31,1.02,0.83*08 
73.98702        GPS_NMEA_FROM_GPS    iGPS            $GPGSA,A,3,06,19,12,11,20,04,09,17,05,,,,1.31,1.02,0.83*08 
74.88981        GPS_NMEA_FROM_GPS    iGPS            $GPGGA,160933.000,4221.5200,N,07105.2344,W,2,09,1.02,7.0,M,-33.7,M,0000,0000*54 
75.89272        GPS_NMEA_FROM_GPS    iGPS            $GPGSA,A,3,06,19,12,11,20,04,09,17,05,,,,1.31,1.02,0.83*08 
76.89501        GPS_NMEA_FROM_GPS    iGPS            $GPGGA,160935.000,4221.5201,N,07105.2341,W,2,09,1.02,7.0,M,-33.7,M,0000,0000*56 
77.89754        GPS_NMEA_FROM_GPS    iGPS            $GPGGA,160936.000,4221.5202,N,07105.2340,W,2,09,1.02,7.0,M,-33.7,M,0000,0000*57 
78.89971        GPS_NMEA_FROM_GPS    iGPS            $GPGGA,160937.000,4221.5203,N,07105.2338,W,2,09,1.02,7.0,M,-33.7,M,0000,0000*58 
79.90273        GPS_NMEA_FROM_GPS    iGPS            $GPGSA,A,3,06,19,12,11,20,04,09,17,05,,,,1.31,1.02,0.83*08 
80.90543        GPS_NMEA_FROM_GPS    iGPS            $GPGSA,A,3,06,19,12,11,20,04,09,17,05,,,,1.31,1.02,0.83*08 
81.90856        GPS_NMEA_FROM_GPS    iGPS            $GPGGA,160940.000,4221.5205,N,07105.2329,W,2,09,1.08,7.0,M,-33.7,M,0000,0000*54 
82.91148        GPS_NMEA_FROM_GPS    iGPS            $GPGGA,160941.000,4221.5205,N,07105.2326,W,2,09,1.08,7.0,M,-33.7,M,0000,0000*5A 
83.91439        GPS_NMEA_FROM_GPS    iGPS            $GPGGA,160942.000,4221.5206,N,07105.2322,W,2,09,1.02,7.0,M,-33.7,M,0000,0000*54 
84.91744        GPS_NMEA_FROM_GPS    iGPS            $GPGGA,160943.000,4221.5207,N,07105.2318,W,2,09,1.02,6.9,M,-33.7,M,0000,0000*55 
85.92049        GPS_NMEA_FROM_GPS    iGPS            $GPGGA,160944.000,4221.5207,N,07105.2314,W,2,09,1.02,6.8,M,-33.7,M,0000,0000*5F 
86.92332        GPS_NMEA_FROM_GPS    iGPS            $GPGSA,A,3,06,19,12,11,20,04,09,17,05,,,,1.31,1.02,0.83*08 
87.82583        GPS_NMEA_FROM_GPS    iGPS            $GPGGA,160946.000,4221.5209,N,07105.2307,W,2,09,1.02,6.6,M,-33.7,M,0000,0000*5F 
88.92864        GPS_NMEA_FROM_GPS    iGPS            $GPGSA,A,3,06,19,12,11,20,04,09,17,05,,,,1.31,1.02,0.83*08 
89.83111        GPS_NMEA_FROM_GPS    iGPS            $GPGGA,160948.000,4221.5210,N,07105.2300,W,2,09,1.02,6.6,M,-33.7,M,0000,0000*5E 
90.93435        GPS_NMEA_FROM_GPS    iGPS            $GPGSA,A,3,06,19,12,11,20,04,09,17,05,,,,1.31,1.02,0.83*08 
91.83715        GPS_NMEA_FROM_GPS    iGPS            $GPGGA,160950.000,4221.5213,N,07105.2293,W,2,09,1.02,6.4,M,-33.7,M,0000,0000*5D 
92.94070        GPS_NMEA_FROM_GPS    iGPS            $GPGSA,A,3,06,19,12,11,20,04,09,17,05,,,,1.31,1.02,0.83*08 
93.94387        GPS_NMEA_FROM_GPS    iGPS            $GPGGA,160952.000,4221.5216,N,07105.2286,W,2,09,1.08,6.4,M,-33.7,M,0000,0000*54 
94.94706        GPS_NMEA_FROM_GPS    iGPS            $GPGGA,160953.000,4221.5218,N,07105.2283,W,2,09,1.08,6.3,M,-33.7,M,0000,0000*59 
95.95054        GPS_NMEA_FROM_GPS    iGPS            $GPGGA,160954.000,4221.5220,N,07105.2280,W,2,09,1.02,6.2,M,-33.7,M,0000,0000*5D 
96.85339        GPS_NMEA_FROM_GPS    iGPS            $GPGGA,160955.000,4221.5221,N,07105.2277,W,2,09,1.02,6.1,M,-33.7,M,0000,0000*56 
97.85635        GPS_NMEA_FROM_GPS    iGPS            $GPGGA,160956.000,4221.5223,N,07105.2273,W,2,09,1.08,6.1,M,-33.7,M,0000,0000*59 
98.86073        GPS_NMEA_FROM_GPS    iGPS            $GPGGA,160957.000,4221.5224,N,07105.2270,W,2,09,1.08,6.1,M,-33.7,M,0000,0000*5C 
99.96475        GPS_NMEA_FROM_GPS    iGPS            $GPGSA,A,3,06,19,12,11,20,04,09,17,05,,,,1.84,1.08,1.49*0B 
100.96693       GPS_NMEA_FROM_GPS    iGPS            $GPGSA,A,3,06,19,12,11,20,04,09,17,05,,,,1.84,1.08,1.49*0B 
101.86818       GPS_NMEA_FROM_GPS    iGPS            $GPGGA,161000.000,4221.5226,N,07105.2258,W,2,09,1.08,6.1,M,-33.7,M,0000,0000*5E 
102.97075       GPS_NMEA_FROM_GPS    iGPS            $GPGSA,A,3,06,19,12,11,20,04,09,17,05,,,,1.31,1.02,0.83*08 
103.87298       GPS_NMEA_FROM_GPS    iGPS            $GPGGA,161002.000,4221.5228,N,07105.2250,W,2,09,1.02,5.8,M,-33.7,M,0000,0000*5A 
104.97618       GPS_NMEA_FROM_GPS    iGPS            $GPGSA,A,3,06,19,12,11,20,04,09,17,05,,,,1.31,1.02,0.83*08 
105.87890       GPS_NMEA_FROM_GPS    iGPS            $GPGGA,161004.000,4221.5231,N,07105.2243,W,2,09,1.02,5.8,M,-33.7,M,0000,0000*56 
106.88188       GPS_NMEA_FROM_GPS    iGPS            $GPGGA,161005.000,4221.5232,N,07105.2240,W,2,09,1.02,5.8,M,-33.7,M,0000,0000*57 
107.88456       GPS_NMEA_FROM_GPS    iGPS            $GPGGA,161006.000,4221.5234,N,07105.2237,W,2,09,1.02,5.7,M,-33.7,M,0000,0000*5D 
108.98779       GPS_NMEA_FROM_GPS    iGPS            $GPGSA,A,3,06,19,12,11,20,04,09,17,05,,,,1.31,1.02,0.83*08 
109.89064       GPS_NMEA_FROM_GPS    iGPS            $GPGGA,161008.000,4221.5238,N,07105.2231,W,2,09,1.02,5.5,M,-33.7,M,0000,0000*5B 
110.89365       GPS_NMEA_FROM_GPS    iGPS            $GPGSA,A,3,06,19,12,11,20,04,09,17,05,,,,1.31,1.02,0.83*08 
111.89644       GPS_NMEA_FROM_GPS    iGPS            $GPGGA,161010.000,4221.5241,N,07105.2225,W,2,09,1.08,5.3,M,-33.7,M,0000,0000*55 
112.89968       GPS_NMEA_FROM_GPS    iGPS            $GPGGA,161011.000,4221.5243,N,07105.2221,W,2,09,1.02,5.3,M,-33.7,M,0000,0000*58 
113.90272       GPS_NMEA_FROM_GPS    iGPS            $GPGGA,161012.000,4221.5245,N,07105.2217,W,2,09,1.02,5.2,M,-33.7,M,0000,0000*59 
114.90547       GPS_NMEA_FROM_GPS    iGPS            $GPGGA,161013.000,4221.5246,N,07105.2214,W,2,09,1.02,5.2,M,-33.7,M,0000,0000*58 
115.90792       GPS_NMEA_FROM_GPS    iGPS            $GPGGA,161014.000,4221.5247,N,07105.2210,W,2,09,1.02,5.2,M,-33.7,M,0000,0000*5A 
116.91058       GPS_NMEA_FROM_GPS    iGPS            $GPGGA,161015.000,4221.5248,N,07105.2207,W,2,09,1.02,5.2,M,-33.7,M,0000,0000*52 
117.91383       GPS_NMEA_FROM_GPS    iGPS            $GPGSA,A,3,06,19,12,11,20,04,09,17,05,,,,1.84,1.08,1.49*0B 
118.91623       GPS_NMEA_FROM_GPS    iGPS            $GPGSA,A,3,06,19,12,11,20,04,09,17,05,,,,1.31,1.02,0.83*08 
119.91981       GPS_NMEA_FROM_GPS    iGPS            $GPGSA,A,3,06,19,12,11,20,04,09,17,05,,,,1.31,1.02,0.83*08 
120.92349       GPS_NMEA_FROM_GPS    iGPS            $GPGGA,161019.000,4221.5253,N,07105.2194,W,2,09,1.02,5.0,M,-33.7,M,0000,0000*5F 
121.92633       GPS_NMEA_FROM_GPS    iGPS            $GPGGA,161020.000,4221.5254,N,07105.2190,W,2,09,1.02,5.0,M,-33.7,M,0000,0000*56 
122.82944       GPS_NMEA_FROM_GPS    iGPS            $GPGGA,161021.000,4221.5255,N,07105.2187,W,2,09,1.02,5.0,M,-33.7,M,0000,0000*50 
123.93254       GPS_NMEA_FROM_GPS    iGPS            $GPGGA,161022.000,4221.5256,N,07105.2183,W,2,09,1.02,5.0,M,-33.7,M,0000,0000*54 
124.93572       GPS_NMEA_FROM_GPS    iGPS            $GPGSA,A,3,06,19,12,11,20,04,09,17,05,,,,1.31,1.02,0.83*08 
125.93847       GPS_NMEA_FROM_GPS    iGPS            $GPGSA,A,3,06,19,12,11,20,04,09,17,05,,,,1.31,1.02,0.83*08 
126.94123       GPS_NMEA_FROM_GPS    iGPS            $GPGGA,161025.000,4221.5260,N,07105.2173,W,2,09,1.02,5.2,M,-33.7,M,0000,0000*5B 
127.94355       GPS_NMEA_FROM_GPS    iGPS            $GPGGA,161026.000,4221.5261,N,07105.2169,W,2,09,1.02,5.2,M,-33.7,M,0000,0000*52 
128.84567       GPS_NMEA_FROM_GPS    iGPS            $GPGGA,161027.000,4221.5262,N,07105.2166,W,2,09,1.02,5.2,M,-33.7,M,0000,0000*5F 
129.94882       GPS_NMEA_FROM_GPS    iGPS            $GPGGA,161028.000,4221.5263,N,07105.2162,W,2,09,1.02,5.1,M,-33.7,M,0000,0000*56 
130.85190       GPS_NMEA_FROM_GPS    iGPS            $GPGGA,161029.000,4221.5264,N,07105.2159,W,2,09,1.02,5.0,M,-33.7,M,0000,0000*59 
131.85494       GPS_NMEA_FROM_GPS    iGPS            $GPGGA,161030.000,4221.5265,N,07105.2155,W,2,09,1.02,4.9,M,-33.7,M,0000,0000*54 
132.85795       GPS_NMEA_FROM_GPS    iGPS            $GPGGA,161031.000,4221.5266,N,07105.2151,W,2,09,1.02,4.9,M,-33.7,M,0000,0000*52 
133.86105       GPS_NMEA_FROM_GPS    iGPS            $GPGGA,161032.000,4221.5266,N,07105.2147,W,2,09,1.02,4.9,M,-33.7,M,0000,0000*56 
134.86430       GPS_NMEA_FROM_GPS    iGPS            $GPGGA,161033.000,4221.5266,N,07105.2144,W,2,09,1.02,4.9,M,-33.7,M,0000,0000*54 
135.86713       GPS_NMEA_FROM_GPS    iGPS            $GPGGA,161034.000,4221.5266,N,07105.2140,W,2,09,1.02,4.9,M,-33.7,M,0000,0000*57 
136.87014       GPS_NMEA_FROM_GPS    iGPS            $GPGGA,161035.000,4221.5267,N,07105.2137,W,2,09,1.02,4.8,M,-33.7,M,0000,0000*56 
137.87307       GPS_NMEA_FROM_GPS    iGPS            $GPGGA,161036.000,4221.5267,N,07105.2133,W,2,09,1.08,4.8,M,-33.7,M,0000,0000*5B 
138.97681       GPS_NMEA_FROM_GPS    iGPS            $GPGSA,A,3,06,19,12,11,20,04,09,17,05,,,,1.84,1.08,1.50*03 
139.87964       GPS_NMEA_FROM_GPS    iGPS            $GPGGA,161038.000,4221.5267,N,07105.2125,W,2,09,1.02,4.9,M,-33.7,M,0000,0000*59 
140.88228       GPS_NMEA_FROM_GPS    iGPS            $GPGGA,161039.000,4221.5268,N,07105.2121,W,2,09,1.02,4.9,M,-33.7,M,0000,0000*53 
141.88502       GPS_NMEA_FROM_GPS    iGPS            $GPGGA,161040.000,4221.5268,N,07105.2117,W,2,09,1.02,4.9,M,-33.7,M,0000,0000*58 
142.88793       GPS_NMEA_FROM_GPS    iGPS            $GPGGA,161041.000,4221.5269,N,07105.2113,W,2,09,1.02,5.0,M,-33.7,M,0000,0000*54 
143.89070       GPS_NMEA_FROM_GPS    iGPS            $GPGGA,161042.000,4221.5269,N,07105.2109,W,2,09,1.02,5.2,M,-33.7,M,0000,0000*5E 
144.89406       GPS_NMEA_FROM_GPS    iGPS            $GPGGA,161043.000,4221.5268,N,07105.2105,W,2,09,1.02,5.4,M,-33.7,M,0000,0000*54 
145.89694       GPS_NMEA_FROM_GPS    iGPS            $GPGSA,A,3,06,19,12,11,20,04,09,17,05,,,,1.31,1.02,0.83*08 
146.89968       GPS_NMEA_FROM_GPS    iGPS            $GPGGA,161045.000,4221.5267,N,07105.2098,W,2,09,1.02,5.5,M,-33.7,M,0000,0000*59 
147.90313       GPS_NMEA_FROM_GPS    iGPS            $GPGGA,161046.000,4221.5266,N,07105.2094,W,2,09,1.02,5.6,M,-33.7,M,0000,0000*54 
148.90622       GPS_NMEA_FROM_GPS    iGPS            $GPGGA,161047.000,4221.5264,N,07105.2091,W,2,09,1.08,5.7,M,-33.7,M,0000,0000*59 
149.90949       GPS_NMEA_FROM_GPS    iGPS            $GPGSA,A,3,06,19,12,11,20,04,09,17,05,,,,1.84,1.08,1.50*03 
150.91250       GPS_NMEA_FROM_GPS    iGPS            $GPGGA,161049.000,4221.5263,N,07105.2083,W,2,09,1.08,5.8,M,-33.7,M,0000,0000*5C 
151.91534       GPS_NMEA_FROM_GPS    iGPS            $GPGSA,A,3,06,19,12,11,20,04,09,17,05,,,,1.85,1.08,1.50*02 
152.91783       GPS_NMEA_FROM_GPS    iGPS            $GPGSA,A,3,06,19,12,11,20,04,09,17,05,,,,1.85,1.08,1.50*02 
153.91995       GPS_NMEA_FROM_GPS    iGPS            $GPGSA,A,3,06,19,12,11,20,04,09,17,05,,,,1.85,1.08,1.50*02 
154.92244       GPS_NMEA_FROM_GPS    iGPS            $GPGSA,A,3,06,19,12,11,20,04,09,17,05,,,,1.31,1.02,0.83*08 
155.92530       GPS_NMEA_FROM_GPS    iGPS            $GPGSA,A,3,06,19,12,11,20,04,09,17,05,,,,1.31,1.02,0.83*08 
156.92839       GPS_NMEA_FROM_GPS    iGPS            $GPGSA,A,3,06,19,12,11,20,04,09,17,05,,,,1.85,1.08,1.50*02 
157.83106       GPS_NMEA_FROM_GPS    iGPS            $GPGGA,161056.000,4221.5250,N,07105.2070,W,2,09,1.02,6.1,M,-33.7,M,0000,0000*5E 
158.93474       GPS_NMEA_FROM_GPS    iGPS            $GPGSA,A,3,06,19,12,11,20,04,09,17,05,,,,1.31,1.02,0.83*08 
159.93778       GPS_NMEA_FROM_GPS    iGPS            $GPGSA,A,3,06,19,12,11,20,04,09,17,05,,,,1.31,1.02,0.83*08 
160.94070       GPS_NMEA_FROM_GPS    iGPS            $GPGGA,161059.000,4221.5245,N,07105.2066,W,2,09,1.02,6.3,M,-33.7,M,0000,0000*50 
161.94444       GPS_NMEA_FROM_GPS    iGPS            $GPGGA,161100.000,4221.5243,N,07105.2064,W,2,09,1.08,6.2,M,-33.7,M,0000,0000*52 
162.94790       GPS_NMEA_FROM_GPS    iGPS            $GPGGA,161101.000,4221.5242,N,07105.2062,W,2,09,1.02,6.2,M,-33.7,M,0000,0000*5E 
163.95071       GPS_NMEA_FROM_GPS    iGPS            $GPGGA,161102.000,4221.5240,N,07105.2059,W,2,09,1.02,6.2,M,-33.7,M,0000,0000*57 
164.85397       GPS_NMEA_FROM_GPS    iGPS            $GPGGA,161103.000,4221.5238,N,07105.2057,W,2,09,1.02,6.3,M,-33.7,M,0000,0000*56 
165.85625       GPS_NMEA_FROM_GPS    iGPS            $GPGGA,161104.000,4221.5236,N,07105.2056,W,2,09,1.02,6.3,M,-33.7,M,0000,0000*5E 
166.95897       GPS_NMEA_FROM_GPS    iGPS            $GPGGA,161105.000,4221.5233,N,07105.2056,W,2,09,1.02,6.4,M,-33.7,M,0000,0000*5D 
167.96179       GPS_NMEA_FROM_GPS    iGPS            $GPGSA,A,3,06,19,12,11,20,04,09,17,05,,,,1.85,1.08,1.50*02 
168.96586       GPS_NMEA_FROM_GPS    iGPS            $GPGSA,A,3,06,19,12,11,20,04,09,17,05,,,,1.85,1.08,1.50*02 
169.96892       GPS_NMEA_FROM_GPS    iGPS            $GPGSA,A,3,06,19,12,11,20,04,09,17,05,,,,1.85,1.08,1.50*02 
170.97177       GPS_NMEA_FROM_GPS    iGPS            $GPGSA,A,3,06,19,12,11,20,04,09,17,05,,,,1.31,1.02,0.83*08 
171.97453       GPS_NMEA_FROM_GPS    iGPS            $GPGSA,A,3,06,19,12,11,20,04,09,17,05,,,,1.31,1.02,0.83*08 
172.87712       GPS_NMEA_FROM_GPS    iGPS            $GPGGA,161111.000,4221.5219,N,07105.2061,W,2,09,1.08,6.3,M,-33.7,M,0000,0000*59 
173.98008       GPS_NMEA_FROM_GPS    iGPS            $GPGSA,A,3,06,19,12,11,20,04,09,17,05,,,,1.85,1.08,1.50*02 
174.88303       GPS_NMEA_FROM_GPS    iGPS            $GPGGA,161113.000,4221.5216,N,07105.2061,W,2,09,1.08,6.3,M,-33.7,M,0000,0000*54 
175.88584       GPS_NMEA_FROM_GPS    iGPS            $GPGGA,161114.000,4221.5215,N,07105.2059,W,2,09,1.07,6.2,M,-33.7,M,0000,0000*55 
176.88874       GPS_NMEA_FROM_GPS    iGPS            $GPGGA,161115.000,4221.5214,N,07105.2058,W,2,09,1.08,6.1,M,-33.7,M,0000,0000*58 
177.89152       GPS_NMEA_FROM_GPS    iGPS            $GPGGA,161116.000,4221.5213,N,07105.2054,W,2,09,1.08,6.1,M,-33.7,M,0000,0000*50 
178.89406       GPS_NMEA_FROM_GPS    iGPS            $GPGGA,161117.000,4221.5211,N,07105.2052,W,2,09,1.02,6.1,M,-33.7,M,0000,0000*5F 
179.89668       GPS_NMEA_FROM_GPS    iGPS            $GPGGA,161118.000,4221.5210,N,07105.2050,W,2,09,1.02,6.0,M,-33.7,M,0000,0000*52 
180.89907       GPS_NMEA_FROM_GPS    iGPS            $GPGGA,161119.000,4221.5208,N,07105.2048,W,2,09,1.02,5.9,M,-33.7,M,0000,0000*59 
181.90190       GPS_NMEA_FROM_GPS    iGPS            $GPGGA,161120.000,4221.5205,N,07105.2047,W,2,09,1.02,5.9,M,-33.7,M,0000,0000*51 
182.90506       GPS_NMEA_FROM_GPS    iGPS            $GPGGA,161121.000,4221.5203,N,07105.2046,W,2,09,1.02,5.8,M,-33.7,M,0000,0000*56 
183.90893       GPS_NMEA_FROM_GPS    iGPS            $GPGGA,161122.000,4221.5201,N,07105.2045,W,2,09,1.07,5.8,M,-33.7,M,0000,0000*51 
184.91252       GPS_NMEA_FROM_GPS    iGPS            $GPGGA,161123.000,4221.5199,N,07105.2045,W,2,09,1.07,5.7,M,-33.7,M,0000,0000*5D 
185.91542       GPS_NMEA_FROM_GPS    iGPS            $GPGSA,A,3,06,19,12,11,20,04,09,17,05,,,,1.85,1.07,1.50*0D 
186.91828       GPS_NMEA_FROM_GPS    iGPS            $GPGSA,A,3,06,19,12,11,20,04,09,17,05,,,,1.85,1.07,1.50*0D 
187.92114       GPS_NMEA_FROM_GPS    iGPS            $GPGSA,A,3,06,19,12,11,20,04,17,05,,,,,1.35,1.06,0.84*06 
188.92400       GPS_NMEA_FROM_GPS    iGPS            $GPGSA,A,3,06,19,12,11,20,04,09,17,05,,,,1.31,1.02,0.83*08 
189.82681       GPS_NMEA_FROM_GPS    iGPS            $GPGGA,161128.000,4221.5185,N,07105.2052,W,2,09,1.02,5.7,M,-33.7,M,0000,0000*58 
190.93049       GPS_NMEA_FROM_GPS    iGPS            $GPGGA,161129.000,4221.5183,N,07105.2054,W,2,09,1.02,5.7,M,-33.7,M,0000,0000*59 
191.93288       GPS_NMEA_FROM_GPS    iGPS            $GPGSA,A,3,06,19,12,11,20,04,09,17,05,,,,1.85,1.07,1.51*0C 
192.93551       GPS_NMEA_FROM_GPS    iGPS            $GPGSA,A,3,06,19,12,11,20,04,09,17,05,,,,1.31,1.02,0.83*08 
193.93820       GPS_NMEA_FROM_GPS    iGPS            $GPGSA,A,3,06,19,12,11,20,04,09,17,05,,,,1.31,1.02,0.83*08 
194.94152       GPS_NMEA_FROM_GPS    iGPS            $GPGSA,A,3,06,19,12,11,20,04,09,17,05,,,,1.31,1.02,0.83*08 
195.84419       GPS_NMEA_FROM_GPS    iGPS            $GPGGA,161134.000,4221.5170,N,07105.2060,W,2,08,1.06,5.7,M,-33.7,M,0000,0000*5B 
196.84717       GPS_NMEA_FROM_GPS    iGPS            $GPGGA,161135.000,4221.5168,N,07105.2062,W,2,09,1.02,5.6,M,-33.7,M,0000,0000*55 
197.85035       GPS_NMEA_FROM_GPS    iGPS            $GPGGA,161136.000,4221.5166,N,07105.2063,W,2,09,1.02,5.6,M,-33.7,M,0000,0000*59 
198.85365       GPS_NMEA_FROM_GPS    iGPS            $GPGGA,161137.000,4221.5164,N,07105.2066,W,2,09,1.02,5.6,M,-33.7,M,0000,0000*5F 
199.85672       GPS_NMEA_FROM_GPS    iGPS            $GPGGA,161138.000,4221.5162,N,07105.2068,W,2,09,1.02,5.6,M,-33.7,M,0000,0000*58 
200.85961       GPS_NMEA_FROM_GPS    iGPS            $GPGGA,161139.000,4221.5160,N,07105.2071,W,2,09,1.02,5.6,M,-33.7,M,0000,0000*53 
201.86291       GPS_NMEA_FROM_GPS    iGPS            $GPGGA,161140.000,4221.5158,N,07105.2074,W,2,09,1.02,5.6,M,-33.7,M,0000,0000*53 
202.96614       GPS_NMEA_FROM_GPS    iGPS            $GPGSA,A,3,06,19,12,11,20,04,09,17,05,,,,1.85,1.07,1.51*0C 
203.96865       GPS_NMEA_FROM_GPS    iGPS            $GPGSA,A,3,06,19,12,11,20,04,09,17,05,,,,1.85,1.07,1.51*0C 
204.97143       GPS_NMEA_FROM_GPS    iGPS            $GPGSA,A,3,06,19,12,11,20,04,09,17,05,,,,1.85,1.07,1.51*0C 
205.97414       GPS_NMEA_FROM_GPS    iGPS            $GPGSA,A,3,06,19,12,11,20,04,09,17,05,,,,1.85,1.07,1.51*0C 
206.87737       GPS_NMEA_FROM_GPS    iGPS            $GPGSA,A,3,06,19,12,11,20,09,17,05,,,,,2.54,1.41,2.11*02 
207.88026       GPS_NMEA_FROM_GPS    iGPS            $GPGSA,A,3,06,19,12,11,20,09,17,05,,,,,2.54,1.41,2.11*02 
208.98327       GPS_NMEA_FROM_GPS    iGPS            $GPGSA,A,3,06,19,12,11,20,09,17,05,,,,,2.54,1.41,2.11*02 
209.88604       GPS_NMEA_FROM_GPS    iGPS            $GPGGA,161148.000,4221.5146,N,07105.2098,W,2,09,1.07,5.1,M,-33.7,M,0000,0000*54 
210.88930       GPS_NMEA_FROM_GPS    iGPS            $GPGGA,161149.000,4221.5144,N,07105.2101,W,2,09,1.07,5.2,M,-33.7,M,0000,0000*55 
211.89218       GPS_NMEA_FROM_GPS    iGPS            $GPGGA,161150.000,4221.5143,N,07105.2104,W,2,09,1.01,5.1,M,-33.7,M,0000,0000*5A 
212.89516       GPS_NMEA_FROM_GPS    iGPS            $GPGGA,161151.000,4221.5141,N,07105.2107,W,2,09,1.02,5.0,M,-33.7,M,0000,0000*58 
213.89816       GPS_NMEA_FROM_GPS    iGPS            $GPGGA,161152.000,4221.5139,N,07105.2110,W,2,09,1.07,5.0,M,-33.7,M,0000,0000*57 
214.90140       GPS_NMEA_FROM_GPS    iGPS            $GPGGA,161153.000,4221.5137,N,07105.2113,W,2,09,1.07,4.9,M,-33.7,M,0000,0000*53 
215.90454       GPS_NMEA_FROM_GPS    iGPS            $GPGGA,161154.000,4221.5135,N,07105.2116,W,2,09,1.07,4.8,M,-33.7,M,0000,0000*52 
216.90731       GPS_NMEA_FROM_GPS    iGPS            $GPGSA,A,3,06,19,12,11,20,04,09,17,05,,,,1.85,1.07,1.51*0C 
217.90968       GPS_NMEA_FROM_GPS    iGPS            $GPGSA,A,3,06,19,12,11,20,04,09,17,05,,,,1.31,1.02,0.83*08 
218.91284       GPS_NMEA_FROM_GPS    iGPS            $GPGSA,A,3,06,19,12,11,20,04,09,17,05,,,,1.31,1.02,0.83*08 
219.91592       GPS_NMEA_FROM_GPS    iGPS            $GPGSA,A,3,06,19,12,11,20,04,09,17,05,,,,1.31,1.02,0.83*08 
220.91892       GPS_NMEA_FROM_GPS    iGPS            $GPGSA,A,3,06,19,12,11,20,04,09,17,05,,,,1.31,1.02,0.83*08 
221.92175       GPS_NMEA_FROM_GPS    iGPS            $GPGSA,A,3,06,19,12,11,20,04,09,17,05,,,,1.85,1.07,1.51*0C 
222.92469       GPS_NMEA_FROM_GPS    iGPS            $GPGSA,A,3,06,19,12,11,20,04,09,17,05,,,,1.85,1.07,1.51*0C 
223.92822       GPS_NMEA_FROM_GPS    iGPS            $GPGGA,161202.000,4221.5131,N,07105.2145,W,2,09,1.07,4.6,M,-33.7,M,0000,0000*5E 
224.93191       GPS_NMEA_FROM_GPS    iGPS            $GPGGA,161203.000,4221.5131,N,07105.2148,W,2,09,1.07,4.6,M,-33.7,M,0000,0000*52 
225.93493       GPS_NMEA_FROM_GPS    iGPS            $GPGGA,161204.000,4221.5131,N,07105.2152,W,2,09,1.07,4.6,M,-33.7,M,0000,0000*5E 
226.83764       GPS_NMEA_FROM_GPS    iGPS            $GPGGA,161205.000,4221.5130,N,07105.2156,W,2,09,1.07,4.6,M,-33.7,M,0000,0000*5A 
227.94132       GPS_NMEA_FROM_GPS    iGPS            $GPGSA,A,3,06,19,12,11,20,04,09,17,05,,,,1.85,1.07,1.51*0C 
228.84303       GPS_NMEA_FROM_GPS    iGPS            $GPGGA,161207.000,4221.5125,N,07105.2160,W,2,08,1.41,4.6,M,-33.7,M,0000,0000*5A 
229.94590       GPS_NMEA_FROM_GPS    iGPS            $GPGGA,161208.000,4221.5123,N,07105.2163,W,2,09,1.07,4.5,M,-33.7,M,0000,0000*50 
230.84840       GPS_NMEA_FROM_GPS    iGPS            $GPGGA,161209.000,4221.5122,N,07105.2165,W,2,08,1.41,4.5,M,-33.7,M,0000,0000*55 
231.85065       GPS_NMEA_FROM_GPS    iGPS            $GPGGA,161210.000,4221.5120,N,07105.2167,W,2,09,1.07,4.4,M,-33.7,M,0000,0000*5F 
232.95378       GPS_NMEA_FROM_GPS    iGPS            $GPGSA,A,3,06,19,12,11,20,04,09,17,05,,,,1.85,1.07,1.51*0C 
233.95696       GPS_NMEA_FROM_GPS    iGPS            $GPGSA,A,3,06,19,12,11,20,04,09,17,05,,,,1.85,1.07,1.51*0C 
234.95933       GPS_NMEA_FROM_GPS    iGPS            $GPGSA,A,3,06,19,12,11,20,04,09,17,05,,,,1.85,1.07,1.51*0C 
235.96225       GPS_NMEA_FROM_GPS    iGPS            $GPGSA,A,3,06,19,12,11,20,04,09,17,05,,,,1.85,1.07,1.51*0C 
236.96507       GPS_NMEA_FROM_GPS    iGPS            $GPGSA,A,3,06,19,12,11,20,04,09,17,05,,,,1.85,1.07,1.51*0C 
237.86757       GPS_NMEA_FROM_GPS    iGPS            $GPGGA,161216.000,4221.5114,N,07105.2183,W,2,09,1.07,4.2,M,-33.7,M,0000,0000*52 
238.87050       GPS_NMEA_FROM_GPS    iGPS            $GPGGA,161217.000,4221.5114,N,07105.2187,W,2,09,1.07,4.2,M,-33.7,M,0000,0000*57 
239.87373       GPS_NMEA_FROM_GPS    iGPS            $GPGGA,161218.000,4221.5115,N,07105.2191,W,2,09,1.07,4.2,M,-33.7,M,0000,0000*5E 
240.87657       GPS_NMEA_FROM_GPS    iGPS            $GPGGA,161219.000,4221.5116,N,07105.2194,W,2,09,1.07,4.5,M,-33.7,M,0000,0000*5E 
241.87920       GPS_NMEA_FROM_GPS    iGPS            $GPGGA,161220.000,4221.5116,N,07105.2198,W,2,09,1.02,4.6,M,-33.7,M,0000,0000*5E 
242.88187       GPS_NMEA_FROM_GPS    iGPS            $GPGGA,161221.000,4221.5116,N,07105.2202,W,2,09,1.02,4.7,M,-33.7,M,0000,0000*5E 
243.88432       GPS_NMEA_FROM_GPS    iGPS            $GPGSA,A,3,06,19,12,11,20,04,09,17,05,,,,1.86,1.07,1.51*0F 
244.88681       GPS_NMEA_FROM_GPS    iGPS            $GPGGA,161223.000,4221.5116,N,07105.2209,W,2,09,1.07,4.8,M,-33.7,M,0000,0000*5D 
245.88964       GPS_NMEA_FROM_GPS    iGPS            $GPGGA,161224.000,4221.5115,N,07105.2211,W,2,09,1.07,4.9,M,-33.7,M,0000,0000*51 
246.89259       GPS_NMEA_FROM_GPS    iGPS            $GPGGA,161225.000,4221.5114,N,07105.2214,W,2,09,1.07,5.0,M,-33.7,M,0000,0000*5C 
247.89541       GPS_NMEA_FROM_GPS    iGPS            $GPGSA,A,3,06,19,12,11,20,04,09,17,05,,,,1.85,1.07,1.51*0C 
248.89838       GPS_NMEA_FROM_GPS    iGPS            $GPGSA,A,3,06,19,12,11,20,04,09,17,05,,,,1.85,1.07,1.51*0C 
249.90177       GPS_NMEA_FROM_GPS    iGPS            $GPGSA,A,3,06,19,12,11,20,04,09,17,05,,,,1.86,1.07,1.51*0F 
250.90506       GPS_NMEA_FROM_GPS    iGPS            $GPGGA,161229.000,4221.5103,N,07105.2220,W,2,09,1.02,5.0,M,-33.7,M,0000,0000*54 
251.90788       GPS_NMEA_FROM_GPS    iGPS            $GPGGA,161230.000,4221.5100,N,07105.2222,W,2,09,1.02,5.0,M,-33.7,M,0000,0000*5D 
252.91097       GPS_NMEA_FROM_GPS    iGPS            $GPGGA,161231.000,4221.5099,N,07105.2224,W,2,09,1.02,5.0,M,-33.7,M,0000,0000*5B 
253.91378       GPS_NMEA_FROM_GPS    iGPS            $GPGGA,161232.000,4221.5098,N,07105.2226,W,2,09,1.02,5.0,M,-33.7,M,0000,0000*5B 
254.91711       GPS_NMEA_FROM_GPS    iGPS            $GPGSA,A,3,06,19,12,11,20,04,09,17,05,,,,1.86,1.07,1.52*0C 
255.91932       GPS_NMEA_FROM_GPS    iGPS            $GPGGA,161234.000,4221.5095,N,07105.2229,W,2,09,1.07,5.0,M,-33.7,M,0000,0000*5A 
256.92207       GPS_NMEA_FROM_GPS    iGPS            $GPGGA,161235.000,4221.5094,N,07105.2232,W,2,09,1.07,4.9,M,-33.7,M,0000,0000*58 
257.92471       GPS_NMEA_FROM_GPS    iGPS            $GPGGA,161236.000,4221.5093,N,07105.2235,W,2,09,1.07,4.9,M,-33.7,M,0000,0000*5B 
258.92788       GPS_NMEA_FROM_GPS    iGPS            $GPGSA,A,3,06,19,12,11,20,04,09,17,05,,,,1.86,1.07,1.51*0F 
259.93066       GPS_NMEA_FROM_GPS    iGPS            $GPGGA,161238.000,4221.5092,N,07105.2241,W,2,09,1.07,4.9,M,-33.7,M,0000,0000*57 
260.83338       GPS_NMEA_FROM_GPS    iGPS            $GPGGA,161239.000,4221.5092,N,07105.2245,W,2,09,1.07,4.9,M,-33.7,M,0000,0000*52 
261.93643       GPS_NMEA_FROM_GPS    iGPS            $GPGSA,A,3,06,19,12,11,20,04,09,17,05,,,,1.86,1.07,1.52*0C 
262.83908       GPS_NMEA_FROM_GPS    iGPS            $GPGGA,161241.000,4221.5093,N,07105.2252,W,2,09,1.07,5.0,M,-33.7,M,0000,0000*52 
263.94280       GPS_NMEA_FROM_GPS    iGPS            $GPGSA,A,3,06,19,12,11,20,04,09,17,05,,,,1.86,1.07,1.52*0C 
264.84617       GPS_NMEA_FROM_GPS    iGPS            $GPGGA,161243.000,4221.5092,N,07105.2259,W,2,09,1.07,5.1,M,-33.7,M,0000,0000*5B 
265.94892       GPS_NMEA_FROM_GPS    iGPS            $GPGSA,A,3,06,19,12,11,20,04,09,17,05,,,,1.86,1.07,1.52*0C 
266.95204       GPS_NMEA_FROM_GPS    iGPS            $GPGGA,161245.000,4221.5091,N,07105.2266,W,2,09,1.07,5.2,M,-33.7,M,0000,0000*51 
267.95505       GPS_NMEA_FROM_GPS    iGPS            $GPGSA,A,3,06,19,12,11,20,04,09,17,05,,,,1.86,1.07,1.52*0C 
268.85734       GPS_NMEA_FROM_GPS    iGPS            $GPGGA,161247.000,4221.5088,N,07105.2271,W,2,09,1.07,5.1,M,-33.7,M,0000,0000*5E 
269.85947       GPS_NMEA_FROM_GPS    iGPS            $GPGGA,161248.000,4221.5086,N,07105.2274,W,2,09,1.07,5.1,M,-33.7,M,0000,0000*5A 
270.86258       GPS_NMEA_FROM_GPS    iGPS            $GPGGA,161249.000,4221.5084,N,07105.2276,W,2,09,1.07,4.9,M,-33.7,M,0000,0000*52 
271.96574       GPS_NMEA_FROM_GPS    iGPS            $GPGSA,A,3,06,19,12,11,20,04,09,17,05,,,,1.86,1.07,1.52*0C 
272.96857       GPS_NMEA_FROM_GPS    iGPS            $GPGSA,A,3,06,19,12,11,20,04,09,17,05,,,,1.86,1.07,1.52*0C 
273.87114       GPS_NMEA_FROM_GPS    iGPS            $GPGGA,161252.000,4221.5078,N,07105.2283,W,2,09,1.07,5.3,M,-33.7,M,0000,0000*5A 
274.87487       GPS_NMEA_FROM_GPS    iGPS            $GPGGA,161253.000,4221.5076,N,07105.2286,W,2,09,1.07,5.4,M,-33.7,M,0000,0000*57 
275.87769       GPS_NMEA_FROM_GPS    iGPS            $GPGGA,161254.000,4221.5075,N,07105.2288,W,2,09,1.07,5.5,M,-33.7,M,0000,0000*5C 
276.88205       GPS_NMEA_FROM_GPS    iGPS            $GPGGA,161255.000,4221.5074,N,07105.2291,W,2,09,1.07,5.7,M,-33.7,M,0000,0000*56 
277.88387       GPS_NMEA_FROM_GPS    iGPS            $GPGGA,161256.000,4221.5074,N,07105.2294,W,2,08,1.10,5.7,M,-33.7,M,0000,0000*57 
278.88678       GPS_NMEA_FROM_GPS    iGPS            $GPGGA,161257.000,4221.5075,N,07105.2297,W,2,09,1.07,5.8,M,-33.7,M,0000,0000*5C 
279.99007       GPS_NMEA_FROM_GPS    iGPS            $GPGSA,A,3,06,19,12,11,20,04,09,17,05,,,,1.86,1.07,1.52*0C 
280.89245       GPS_NMEA_FROM_GPS    iGPS            $GPGGA,161259.000,4221.5076,N,07105.2304,W,2,09,1.07,6.2,M,-33.7,M,0000,0000*53 
281.79545       GPS_NMEA_FROM_GPS    iGPS            $GPGGA,161300.000,4221.5076,N,07105.2307,W,2,09,1.02,6.3,M,-33.7,M,0000,0000*59 
282.89827       GPS_NMEA_FROM_GPS    iGPS            $GPGGA,161301.000,4221.5076,N,07105.2311,W,2,09,1.02,6.2,M,-33.7,M,0000,0000*5E 
283.90109       GPS_NMEA_FROM_GPS    iGPS            $GPGSA,A,3,06,19,12,11,20,04,09,17,05,,,,1.31,1.02,0.84*0F 
284.90445       GPS_NMEA_FROM_GPS    iGPS            $GPGSA,A,3,06,19,12,11,20,04,09,17,05,,,,1.31,1.01,0.84*0C 
285.90720       GPS_NMEA_FROM_GPS    iGPS            $GPGSA,A,3,06,19,12,11,20,04,09,17,05,,,,1.31,1.01,0.84*0C 
286.91003       GPS_NMEA_FROM_GPS    iGPS            $GPGGA,161305.000,4221.5077,N,07105.2321,W,2,09,1.02,6.3,M,-33.7,M,0000,0000*59 
287.91402       GPS_NMEA_FROM_GPS    iGPS            $GPGSA,A,3,06,19,12,11,20,04,09,17,05,,,,1.31,1.02,0.84*0F 
288.91786       GPS_NMEA_FROM_GPS    iGPS            $GPGSA,A,3,06,19,12,11,20,04,09,17,05,,,,1.31,1.02,0.84*0F 
289.92105       GPS_NMEA_FROM_GPS    iGPS            $GPGGA,161308.000,4221.5071,N,07105.2326,W,2,09,1.01,6.1,M,-33.7,M,0000,0000*54 
290.92414       GPS_NMEA_FROM_GPS    iGPS            $GPGGA,161309.000,4221.5069,N,07105.2328,W,2,09,1.02,6.1,M,-33.7,M,0000,0000*51 
291.92754       GPS_NMEA_FROM_GPS    iGPS            $GPGGA,161310.000,4221.5066,N,07105.2330,W,2,09,1.01,6.1,M,-33.7,M,0000,0000*5C 
292.93067       GPS_NMEA_FROM_GPS    iGPS            $GPGGA,161311.000,4221.5065,N,07105.2332,W,2,09,1.02,6.1,M,-33.7,M,0000,0000*5F 
293.93324       GPS_NMEA_FROM_GPS    iGPS            $GPGGA,161312.000,4221.5063,N,07105.2334,W,2,09,1.01,6.1,M,-33.7,M,0000,0000*5F 
294.93647       GPS_NMEA_FROM_GPS    iGPS            $GPGSA,A,3,06,19,12,11,20,04,09,17,05,,,,1.86,1.07,1.52*0C 
295.93876       GPS_NMEA_FROM_GPS    iGPS            $GPGSA,A,3,06,19,12,11,20,04,09,17,05,,,,1.86,1.07,1.52*0C 
296.84163       GPS_NMEA_FROM_GPS    iGPS            $GPGGA,161315.000,4221.5059,N,07105.2343,W,2,09,1.07,6.0,M,-33.7,M,0000,0000*56 
297.94468       GPS_NMEA_FROM_GPS    iGPS            $GPGSA,A,3,06,19,12,11,20,04,09,17,05,,,,1.86,1.07,1.52*0C 
298.94752       GPS_NMEA_FROM_GPS    iGPS            $GPGSA,A,3,06,19,12,11,20,04,09,17,05,,,,1.86,1.07,1.52*0C 
299.95063       GPS_NMEA_FROM_GPS    iGPS            $GPGSA,A,3,06,19,12,11,20,04,09,17,05,,,,1.86,1.07,1.52*0C 
300.85421       GPS_NMEA_FROM_GPS    iGPS            $GPGGA,161319.000,4221.5056,N,07105.2356,W,2,09,1.07,5.7,M,-33.7,M,0000,0000*55 
301.95876       GPS_NMEA_FROM_GPS    iGPS            $GPGSA,A,3,06,19,12,11,20,04,09,17,05,,,,1.86,1.07,1.52*0C 
302.86144       GPS_NMEA_FROM_GPS    iGPS            $GPGGA,161321.000,4221.5052,N,07105.2361,W,2,08,1.41,5.5,M,-33.7,M,0000,0000*5F 
303.86420       GPS_NMEA_FROM_GPS    iGPS            $GPGGA,161322.000,4221.5049,N,07105.2364,W,2,08,1.41,5.5,M,-33.7,M,0000,0000*53 
304.86733       GPS_NMEA_FROM_GPS    iGPS            $GPGGA,161323.000,4221.5047,N,07105.2366,W,2,09,1.07,5.5,M,-33.7,M,0000,0000*5D 
305.87030       GPS_NMEA_FROM_GPS    iGPS            $GPGGA,161324.000,4221.5045,N,07105.2369,W,2,09,1.07,5.5,M,-33.7,M,0000,0000*57 
306.87268       GPS_NMEA_FROM_GPS    iGPS            $GPGGA,161325.000,4221.5044,N,07105.2372,W,2,08,1.41,5.5,M,-33.7,M,0000,0000*5E 
307.87546       GPS_NMEA_FROM_GPS    iGPS            $GPGGA,161326.000,4221.5043,N,07105.2375,W,2,09,1.07,5.4,M,-33.7,M,0000,0000*5F 
308.87788       GPS_NMEA_FROM_GPS    iGPS            $GPGSA,A,3,06,19,12,11,20,04,09,17,05,,,,1.86,1.07,1.52*0C 
309.88106       GPS_NMEA_FROM_GPS    iGPS            $GPGSA,A,3,06,19,12,11,20,04,09,17,05,,,,1.86,1.07,1.52*0C 
310.88402       GPS_NMEA_FROM_GPS    iGPS            $GPGSA,A,3,06,19,12,11,20,04,09,17,05,,,,1.86,1.07,1.52*0C 
311.88689       GPS_NMEA_FROM_GPS    iGPS            $GPGGA,161330.000,4221.5040,N,07105.2387,W,2,08,1.10,5.2,M,-33.7,M,0000,0000*57 
312.89005       GPS_NMEA_FROM_GPS    iGPS            $GPGGA,161331.000,4221.5041,N,07105.2390,W,2,09,1.07,5.4,M,-33.7,M,0000,0000*50 
313.89285       GPS_NMEA_FROM_GPS    iGPS            $GPGGA,161332.000,4221.5041,N,07105.2393,W,2,09,1.07,5.5,M,-33.7,M,0000,0000*51 
314.89628       GPS_NMEA_FROM_GPS    iGPS            $GPGGA,161333.000,4221.5041,N,07105.2397,W,2,09,1.07,5.6,M,-33.7,M,0000,0000*57 
315.90026       GPS_NMEA_FROM_GPS    iGPS            $GPGSA,A,3,06,19,12,11,20,04,17,05,,,,,1.91,1.10,1.56*01 
316.90319       GPS_NMEA_FROM_GPS    iGPS            $GPGSA,A,3,06,19,12,11,20,04,09,17,05,,,,1.86,1.07,1.52*0C 
317.90623       GPS_NMEA_FROM_GPS    iGPS            $GPGGA,161336.000,4221.5043,N,07105.2407,W,2,09,1.07,5.6,M,-33.7,M,0000,0000*5E 
318.91017       GPS_NMEA_FROM_GPS    iGPS            $GPGGA,161337.000,4221.5043,N,07105.2411,W,2,09,1.07,5.7,M,-33.7,M,0000,0000*59 
319.91314       GPS_NMEA_FROM_GPS    iGPS            $GPGGA,161338.000,4221.5041,N,07105.2415,W,2,09,1.07,5.6,M,-33.7,M,0000,0000*51 
320.91565       GPS_NMEA_FROM_GPS    iGPS            $GPGGA,161339.000,4221.5040,N,07105.2418,W,2,09,1.07,5.7,M,-33.7,M,0000,0000*5D 
321.91817       GPS_NMEA_FROM_GPS    iGPS            $GPGGA,161340.000,4221.5036,N,07105.2420,W,2,09,1.07,5.9,M,-33.7,M,0000,0000*57 
322.92118       GPS_NMEA_FROM_GPS    iGPS            $GPGGA,161341.000,4221.5034,N,07105.2423,W,2,09,1.02,5.9,M,-33.7,M,0000,0000*52 
323.92429       GPS_NMEA_FROM_GPS    iGPS            $GPGSA,A,3,06,19,12,11,20,04,17,05,,,,,1.35,1.05,0.84*05 
324.92915       GPS_NMEA_FROM_GPS    iGPS            $GPGSA,A,3,06,19,12,11,20,04,09,17,05,,,,1.31,1.01,0.84*0C 
325.83171       GPS_NMEA_FROM_GPS    iGPS            $GPGGA,161344.000,4221.5027,N,07105.2430,W,2,08,1.14,6.1,M,-33.7,M,0000,0000*5A 
326.93491       GPS_NMEA_FROM_GPS    iGPS            $GPGSA,A,3,06,19,12,11,20,04,09,17,05,,,,1.31,1.01,0.84*0C 
327.83737       GPS_NMEA_FROM_GPS    iGPS            $GPGGA,161346.000,4221.5023,N,07105.2436,W,2,09,1.02,6.1,M,-33.7,M,0000,0000*5C 
328.94055       GPS_NMEA_FROM_GPS    iGPS            $GPGSA,A,3,06,19,12,11,20,04,09,17,05,,,,1.31,1.01,0.84*0C 
329.84341       GPS_NMEA_FROM_GPS    iGPS            $GPGGA,161348.000,4221.5020,N,07105.2442,W,2,09,1.02,6.2,M,-33.7,M,0000,0000*51 
330.84640       GPS_NMEA_FROM_GPS    iGPS            $GPGGA,161349.000,4221.5019,N,07105.2445,W,2,09,1.01,6.2,M,-33.7,M,0000,0000*5E 
331.84924       GPS_NMEA_FROM_GPS    iGPS            $GPGGA,161350.000,4221.5018,N,07105.2449,W,2,09,1.07,6.2,M,-33.7,M,0000,0000*5D 
332.95207       GPS_NMEA_FROM_GPS    iGPS            $GPGSA,A,3,06,19,12,11,20,04,09,17,05,,,,1.86,1.07,1.53*0D 
333.95453       GPS_NMEA_FROM_GPS    iGPS            $GPGGA,161352.000,4221.5014,N,07105.2455,W,2,09,1.07,6.1,M,-33.7,M,0000,0000*5D 
334.95816       GPS_NMEA_FROM_GPS    iGPS            $GPGSA,A,3,06,19,12,11,20,04,09,17,05,,,,1.86,1.07,1.53*0D 
335.96093       GPS_NMEA_FROM_GPS    iGPS            $GPGSA,A,3,06,19,12,11,20,04,09,17,05,,,,1.87,1.07,1.53*0C 
336.86371       GPS_NMEA_FROM_GPS    iGPS            $GPGGA,161355.000,4221.5009,N,07105.2465,W,2,09,1.07,6.0,M,-33.7,M,0000,0000*54 
337.86651       GPS_NMEA_FROM_GPS    iGPS            $GPGGA,161356.000,4221.5007,N,07105.2469,W,2,09,1.07,6.0,M,-33.7,M,0000,0000*55 
338.96984       GPS_NMEA_FROM_GPS    iGPS            $GPGSA,A,3,06,19,12,11,20,04,09,17,05,,,,1.87,1.07,1.53*0C 
339.87294       GPS_NMEA_FROM_GPS    iGPS            $GPGGA,161358.000,4221.5005,N,07105.2475,W,2,09,1.07,6.1,M,-33.7,M,0000,0000*55 
340.87610       GPS_NMEA_FROM_GPS    iGPS            $GPGGA,161359.000,4221.5005,N,07105.2478,W,2,09,1.07,6.0,M,-33.7,M,0000,0000*58 
341.87902       GPS_NMEA_FROM_GPS    iGPS            $GPGGA,161400.000,4221.5004,N,07105.2483,W,2,09,1.07,6.0,M,-33.7,M,0000,0000*56 
342.98215       GPS_NMEA_FROM_GPS    iGPS            $GPGSA,A,3,06,19,12,11,20,04,09,17,05,,,,1.87,1.07,1.53*0C 
343.98482       GPS_NMEA_FROM_GPS    iGPS            $GPGSA,A,3,06,19,12,11,20,04,09,17,05,,,,1.87,1.07,1.53*0C 
344.98771       GPS_NMEA_FROM_GPS    iGPS            $GPGSA,A,3,06,19,12,11,20,04,09,17,05,,,,1.87,1.07,1.53*0C 
345.98989       GPS_NMEA_FROM_GPS    iGPS            $GPGSA,A,3,06,19,12,11,20,04,09,17,05,,,,1.87,1.07,1.53*0C 
346.89199       GPS_NMEA_FROM_GPS    iGPS            $GPGSA,A,3,06,19,12,11,20,04,09,17,05,,,,1.87,1.07,1.53*0C 
347.89485       GPS_NMEA_FROM_GPS    iGPS            $GPGGA,161406.000,4221.5006,N,07105.2506,W,2,09,1.07,6.1,M,-33.7,M,0000,0000*5F 
348.89808       GPS_NMEA_FROM_GPS    iGPS            $GPGSA,A,3,06,19,12,11,20,04,09,17,05,,,,1.87,1.07,1.53*0C 
349.90145       GPS_NMEA_FROM_GPS    iGPS            $GPGSA,A,3,06,19,12,11,20,04,09,17,05,,,,1.87,1.07,1.53*0C 
350.90461       GPS_NMEA_FROM_GPS    iGPS            $GPGSA,A,3,06,19,12,11,20,09,17,05,,,,,2.57,1.41,2.15*05 
351.90765       GPS_NMEA_FROM_GPS    iGPS            $GPGSA,A,3,06,19,12,11,20,04,09,17,05,,,,1.87,1.07,1.53*0C 
352.91077       GPS_NMEA_FROM_GPS    iGPS            $GPGSA,A,3,06,19,12,11,20,04,09,17,05,,,,1.87,1.07,1.53*0C 
353.91342       GPS_NMEA_FROM_GPS    iGPS            $GPGGA,161412.000,4221.4994,N,07105.2523,W,2,09,1.01,6.2,M,-33.7,M,0000,0000*5B 
354.91665       GPS_NMEA_FROM_GPS    iGPS            $GPGGA,161413.000,4221.4992,N,07105.2526,W,2,09,1.01,6.2,M,-33.7,M,0000,0000*59 
355.91936       GPS_NMEA_FROM_GPS    iGPS            $GPGGA,161414.000,4221.4990,N,07105.2528,W,2,08,1.14,6.3,M,-33.7,M,0000,0000*56 
356.92236       GPS_NMEA_FROM_GPS    iGPS            $GPGGA,161415.000,4221.4988,N,07105.2530,W,2,09,1.01,6.4,M,-33.7,M,0000,0000*55 
357.82476       GPS_NMEA_FROM_GPS    iGPS            $GPGGA,161416.000,4221.4987,N,07105.2532,W,2,09,1.07,6.5,M,-33.7,M,0000,0000*5C 
358.82743       GPS_NMEA_FROM_GPS    iGPS            $GPGGA,161417.000,4221.4986,N,07105.2534,W,2,09,1.07,6.6,M,-33.7,M,0000,0000*59 
359.93052       GPS_NMEA_FROM_GPS    iGPS            $GPGGA,161418.000,4221.4985,N,07105.2536,W,2,09,1.07,6.6,M,-33.7,M,0000,0000*57 
360.83330       GPS_NMEA_FROM_GPS    iGPS            $GPGGA,161419.000,4221.4984,N,07105.2539,W,2,09,1.07,6.7,M,-33.7,M,0000,0000*59 
361.83665       GPS_NMEA_FROM_GPS    iGPS            $GPGGA,161420.000,4221.4985,N,07105.2542,W,2,09,1.07,6.7,M,-33.7,M,0000,0000*5E 
362.94034       GPS_NMEA_FROM_GPS    iGPS            $GPGSA,A,3,06,19,12,11,20,04,09,17,05,,,,1.87,1.07,1.53*0C 
363.94357       GPS_NMEA_FROM_GPS    iGPS            $GPGSA,A,3,06,19,12,11,20,04,09,17,05,,,,1.87,1.07,1.53*0C 
364.94741       GPS_NMEA_FROM_GPS    iGPS            $GPGGA,161423.000,4221.4989,N,07105.2553,W,2,09,1.01,6.6,M,-33.7,M,0000,0000*56 
365.95026       GPS_NMEA_FROM_GPS    iGPS            $GPGGA,161424.000,4221.4990,N,07105.2556,W,2,09,1.01,6.6,M,-33.7,M,0000,0000*5C 
366.95342       GPS_NMEA_FROM_GPS    iGPS            $GPGSA,A,3,06,19,12,11,20,04,09,17,05,,,,1.32,1.01,0.84*0F 
367.85620       GPS_NMEA_FROM_GPS    iGPS            $GPGGA,161426.000,4221.4991,N,07105.2563,W,2,09,1.01,6.8,M,-33.7,M,0000,0000*57 
368.85914       GPS_NMEA_FROM_GPS    iGPS            $GPGGA,161427.000,4221.4992,N,07105.2567,W,2,09,1.01,7.0,M,-33.7,M,0000,0000*58 
369.86237       GPS_NMEA_FROM_GPS    iGPS            $GPGGA,161428.000,4221.4992,N,07105.2571,W,2,09,1.01,7.0,M,-33.7,M,0000,0000*50 
370.86458       GPS_NMEA_FROM_GPS    iGPS            $GPGGA,161429.000,4221.4991,N,07105.2573,W,2,08,1.14,6.9,M,-33.7,M,0000,0000*5D 
371.86707       GPS_NMEA_FROM_GPS    iGPS            $GPGGA,161430.000,4221.4990,N,07105.2576,W,2,09,1.01,7.0,M,-33.7,M,0000,0000*5C 
372.86981       GPS_NMEA_FROM_GPS    iGPS            $GPGGA,161431.000,4221.4989,N,07105.2577,W,2,09,1.01,6.9,M,-33.7,M,0000,0000*5C 
373.87291       GPS_NMEA_FROM_GPS    iGPS            $GPGGA,161432.000,4221.4987,N,07105.2579,W,2,09,1.01,6.9,M,-33.7,M,0000,0000*5F 
374.87619       GPS_NMEA_FROM_GPS    iGPS            $GPGGA,161433.000,4221.4984,N,07105.2580,W,2,09,1.07,7.0,M,-33.7,M,0000,0000*55 
375.87905       GPS_NMEA_FROM_GPS    iGPS            $GPGGA,161434.000,4221.4983,N,07105.2582,W,2,08,1.41,7.0,M,-33.7,M,0000,0000*54 
376.88217       GPS_NMEA_FROM_GPS    iGPS            $GPGGA,161435.000,4221.4981,N,07105.2584,W,2,09,1.01,7.0,M,-33.7,M,0000,0000*54 
377.88518       GPS_NMEA_FROM_GPS    iGPS            $GPGGA,161436.000,4221.4980,N,07105.2586,W,2,09,1.07,7.1,M,-33.7,M,0000,0000*53 
378.88833       GPS_NMEA_FROM_GPS    iGPS            $GPGGA,161437.000,4221.4979,N,07105.2588,W,2,09,1.07,7.2,M,-33.7,M,0000,0000*59 
379.89175       GPS_NMEA_FROM_GPS    iGPS            $GPGSA,A,3,06,19,12,11,20,04,09,17,05,,,,1.87,1.07,1.53*0C 
380.89533       GPS_NMEA_FROM_GPS    iGPS            $GPGGA,161439.000,4221.4979,N,07105.2594,W,2,09,1.07,7.3,M,-33.7,M,0000,0000*5B 
381.89831       GPS_NMEA_FROM_GPS    iGPS            $GPGSA,A,3,06,19,12,11,20,04,09,17,05,,,,1.87,1.07,1.53*0C 
382.90127       GPS_NMEA_FROM_GPS    iGPS            $GPGSA,A,3,06,19,12,11,20,04,09,17,05,,,,1.87,1.07,1.53*0C 
383.90355       GPS_NMEA_FROM_GPS    iGPS            $GPGGA,161442.000,4221.4979,N,07105.2604,W,2,08,1.10,7.5,M,-33.7,M,0000,0000*5C 
384.90595       GPS_NMEA_FROM_GPS    iGPS            $GPGGA,161443.000,4221.4979,N,07105.2608,W,2,09,1.07,7.5,M,-33.7,M,0000,0000*56 
385.90851       GPS_NMEA_FROM_GPS    iGPS            $GPGGA,161444.000,4221.4979,N,07105.2612,W,2,09,1.07,7.6,M,-33.7,M,0000,0000*59 
386.91166       GPS_NMEA_FROM_GPS    iGPS            $GPGGA,161445.000,4221.4977,N,07105.2615,W,2,09,1.07,7.7,M,-33.7,M,0000,0000*50 
387.91465       GPS_NMEA_FROM_GPS    iGPS            $GPGGA,161446.000,4221.4976,N,07105.2618,W,2,08,1.41,7.7,M,-33.7,M,0000,0000*5C 
388.91760       GPS_NMEA_FROM_GPS    iGPS            $GPGGA,161447.000,4221.4972,N,07105.2621,W,2,09,1.07,7.7,M,-33.7,M,0000,0000*50 
389.82112       GPS_NMEA_FROM_GPS    iGPS            $GPGGA,161448.000,4221.4970,N,07105.2624,W,2,09,1.07,7.8,M,-33.7,M,0000,0000*57 
390.92424       GPS_NMEA_FROM_GPS    iGPS            $GPGSA,A,3,06,19,12,11,20,04,09,17,05,,,,1.87,1.07,1.53*0C 
391.82674       GPS_NMEA_FROM_GPS    iGPS            $GPGGA,161450.000,4221.4964,N,07105.2628,W,2,08,1.10,7.9,M,-33.7,M,0000,0000*51 
392.83020       GPS_NMEA_FROM_GPS    iGPS            $GPGGA,161451.000,4221.4962,N,07105.2630,W,2,09,1.07,7.9,M,-33.7,M,0000,0000*58 
393.83204       GPS_NMEA_FROM_GPS    iGPS            $GPGGA,161452.000,4221.4960,N,07105.2631,W,2,09,1.07,7.9,M,-33.7,M,0000,0000*58 
394.83520       GPS_NMEA_FROM_GPS    iGPS            $GPGGA,161453.000,4221.4958,N,07105.2634,W,2,08,1.41,7.8,M,-33.7,M,0000,0000*55 
395.93829       GPS_NMEA_FROM_GPS    iGPS            $GPGGA,161454.000,4221.4956,N,07105.2636,W,2,09,1.07,7.7,M,-33.7,M,0000,0000*52 
396.94099       GPS_NMEA_FROM_GPS    iGPS            $GPGSA,A,3,06,19,12,11,20,04,09,17,05,,,,1.87,1.07,1.54*0B 
397.94335       GPS_NMEA_FROM_GPS    iGPS            $GPGGA,161456.000,4221.4953,N,07105.2641,W,2,09,1.07,7.7,M,-33.7,M,0000,0000*55 
398.84597       GPS_NMEA_FROM_GPS    iGPS            $GPGGA,161457.000,4221.4952,N,07105.2645,W,2,09,1.07,7.7,M,-33.7,M,0000,0000*51 
399.84926       GPS_NMEA_FROM_GPS    iGPS            $GPGGA,161458.000,4221.4951,N,07105.2647,W,2,09,1.07,7.6,M,-33.7,M,0000,0000*5E 
400.85261       GPS_NMEA_FROM_GPS    iGPS            $GPGGA,161459.000,4221.4951,N,07105.2650,W,2,09,1.07,7.5,M,-33.7,M,0000,0000*5A 
401.95678       GPS_NMEA_FROM_GPS    iGPS            $GPGSA,A,3,06,19,12,11,20,04,09,17,05,,,,1.87,1.07,1.54*0B 
402.95922       GPS_NMEA_FROM_GPS    iGPS            $GPGSA,A,3,06,19,12,11,20,04,09,17,05,,,,1.87,1.07,1.54*0B 
403.86206       GPS_NMEA_FROM_GPS    iGPS            $GPGGA,161502.000,4221.4953,N,07105.2659,W,2,09,1.07,7.4,M,-33.7,M,0000,0000*5F 
404.96609       GPS_NMEA_FROM_GPS    iGPS            $GPGSA,A,3,06,19,12,11,20,04,09,17,05,,,,1.87,1.07,1.54*0B 
405.86995       GPS_NMEA_FROM_GPS    iGPS            $GPGGA,161504.000,4221.4954,N,07105.2667,W,2,09,1.07,7.2,M,-33.7,M,0000,0000*55 
406.97324       GPS_NMEA_FROM_GPS    iGPS            $GPGSA,A,3,06,19,12,11,20,04,09,17,05,,,,1.87,1.07,1.54*0B 
407.97607       GPS_NMEA_FROM_GPS    iGPS            $GPGSA,A,3,06,19,12,11,20,04,09,17,05,,,,1.87,1.07,1.54*0B 
408.87855       GPS_NMEA_FROM_GPS    iGPS            $GPGGA,161507.000,4221.4953,N,07105.2676,W,2,08,1.41,7.0,M,-33.7,M,0000,0000*50 
409.88130       GPS_NMEA_FROM_GPS    iGPS            $GPGGA,161508.000,4221.4951,N,07105.2677,W,2,09,1.07,7.0,M,-33.7,M,0000,0000*5F 
410.88369       GPS_NMEA_FROM_GPS    iGPS            $GPGGA,161509.000,4221.4949,N,07105.2679,W,2,08,1.10,6.9,M,-33.7,M,0000,0000*56 
411.88709       GPS_NMEA_FROM_GPS    iGPS            $GPGSA,A,3,06,19,12,11,20,04,09,17,05,,,,1.87,1.07,1.54*0B 
412.89014       GPS_NMEA_FROM_GPS    iGPS            $GPGSA,A,3,06,19,12,11,20,04,09,17,05,,,,1.87,1.07,1.54*0B 
413.89301       GPS_NMEA_FROM_GPS    iGPS            $GPGSA,A,3,06,19,12,11,20,04,09,17,05,,,,1.87,1.07,1.54*0B 
414.89622       GPS_NMEA_FROM_GPS    iGPS            $GPGSA,A,3,06,19,12,11,20,04,09,17,05,,,,1.87,1.07,1.54*0B 
415.89910       GPS_NMEA_FROM_GPS    iGPS            $GPGSA,A,3,06,19,12,11,20,09,17,05,,,,,2.59,1.41,2.17*09 
416.90207       GPS_NMEA_FROM_GPS    iGPS            $GPGGA,161515.000,4221.4936,N,07105.2691,W,2,09,1.07,6.7,M,-33.7,M,0000,0000*5C 
417.90500       GPS_NMEA_FROM_GPS    iGPS            $GPGGA,161516.000,4221.4934,N,07105.2694,W,2,09,1.07,6.7,M,-33.7,M,0000,0000*58 
418.90819       GPS_NMEA_FROM_GPS    iGPS            $GPGGA,161517.000,4221.4933,N,07105.2697,W,2,09,1.07,6.6,M,-33.7,M,0000,0000*5C 
419.91072       GPS_NMEA_FROM_GPS    iGPS            $GPGSA,A,3,06,19,12,11,20,04,09,17,05,,,,1.87,1.07,1.54*0B 
420.91388       GPS_NMEA_FROM_GPS    iGPS            $GPGSA,A,3,06,19,12,11,20,04,09,17,05,,,,1.32,1.01,0.84*0F 
421.91688       GPS_NMEA_FROM_GPS    iGPS            $GPGSA,A,3,06,19,12,11,20,04,09,17,05,,,,1.87,1.07,1.54*0B 
422.91898       GPS_NMEA_FROM_GPS    iGPS            $GPGGA,161521.000,4221.4933,N,07105.2709,W,2,09,1.07,6.4,M,-33.7,M,0000,0000*5D 
423.92150       GPS_NMEA_FROM_GPS    iGPS            $GPGGA,161522.000,4221.4933,N,07105.2713,W,2,09,1.07,6.3,M,-33.7,M,0000,0000*52 
424.82459       GPS_NMEA_FROM_GPS    iGPS            $GPGGA,161523.000,4221.4933,N,07105.2716,W,2,09,1.07,6.3,M,-33.7,M,0000,0000*56 
425.92805       GPS_NMEA_FROM_GPS    iGPS            $GPGGA,161524.000,4221.4933,N,07105.2719,W,2,09,1.07,6.2,M,-33.7,M,0000,0000*5F 
426.83083       GPS_NMEA_FROM_GPS    iGPS            $GPGGA,161525.000,4221.4933,N,07105.2722,W,2,09,1.07,6.2,M,-33.7,M,0000,0000*56 
427.93393       GPS_NMEA_FROM_GPS    iGPS            $GPGGA,161526.000,4221.4933,N,07105.2725,W,2,09,1.07,6.1,M,-33.7,M,0000,0000*51 
428.93697       GPS_NMEA_FROM_GPS    iGPS            $GPGGA,161527.000,4221.4932,N,07105.2727,W,2,09,1.07,6.2,M,-33.7,M,0000,0000*50 
429.94010       GPS_NMEA_FROM_GPS    iGPS            $GPGGA,161528.000,4221.4929,N,07105.2729,W,2,09,1.07,6.0,M,-33.7,M,0000,0000*59 
430.84280       GPS_NMEA_FROM_GPS    iGPS            $GPGGA,161529.000,4221.4928,N,07105.2730,W,2,09,1.07,6.0,M,-33.7,M,0000,0000*51 
431.94656       GPS_NMEA_FROM_GPS    iGPS            $GPGSA,A,3,06,19,12,11,20,04,09,17,05,,,,1.88,1.07,1.54*04 
432.94859       GPS_NMEA_FROM_GPS    iGPS            $GPGSA,A,3,06,19,12,25,11,20,04,09,17,05,,,1.54,0.84,1.29*02 
433.55072       GPS_NMEA_FROM_GPS    iGPS            $GPGGA,161532.000,4221.4920,N,07105.2735,W,2,10,0.84,6.1,M,-33.7,M,0000,0000*55 
434.55348       GPS_NMEA_FROM_GPS    iGPS            $GPGSA,A,3,06,19,12,25,11,20,04,09,17,05,,,1.54,0.84,1.29*02 
435.55626       GPS_NMEA_FROM_GPS    iGPS            $GPGGA,161534.000,4221.4915,N,07105.2738,W,2,10,0.84,6.3,M,-33.7,M,0000,0000*5A 
436.55840       GPS_NMEA_FROM_GPS    iGPS            $GPGGA,161535.000,4221.4914,N,07105.2739,W,2,10,0.84,6.5,M,-33.7,M,0000,0000*5D 
437.56150       GPS_NMEA_FROM_GPS    iGPS            $GPGGA,161536.000,4221.4913,N,07105.2741,W,2,10,0.84,6.4,M,-33.7,M,0000,0000*57 
438.56455       GPS_NMEA_FROM_GPS    iGPS            $GPGGA,161537.000,4221.4912,N,07105.2743,W,2,10,0.84,6.5,M,-33.7,M,0000,0000*54 
439.56782       GPS_NMEA_FROM_GPS    iGPS            $GPGSA,A,3,06,19,12,25,11,20,04,09,17,05,,,1.54,0.84,1.29*02 
440.57081       GPS_NMEA_FROM_GPS    iGPS            $GPGGA,161539.000,4221.4911,N,07105.2748,W,2,10,0.84,6.7,M,-33.7,M,0000,0000*50 
441.57393       GPS_NMEA_FROM_GPS    iGPS            $GPGSA,A,3,06,19,12,25,11,20,04,09,17,05,,,1.54,0.84,1.29*02 
442.57693       GPS_NMEA_FROM_GPS    iGPS            $GPGSA,A,3,06,19,12,25,11,20,04,09,17,05,,,1.54,0.84,1.29*02 
443.57977       GPS_NMEA_FROM_GPS    iGPS            $GPGGA,161542.000,4221.4913,N,07105.2759,W,2,10,0.84,7.4,M,-33.7,M,0000,0000*5C 
444.58327       GPS_NMEA_FROM_GPS    iGPS            $GPGSA,A,3,06,19,12,25,11,20,04,09,17,05,,,1.15,0.84,0.79*03 
445.58674       GPS_NMEA_FROM_GPS    iGPS            $GPGSA,A,3,06,19,12,25,11,20,04,09,17,05,,,1.15,0.84,0.79*03 
446.58979       GPS_NMEA_FROM_GPS    iGPS            $GPGSA,A,3,06,19,12,25,11,20,04,09,17,05,,,1.15,0.84,0.79*03 
447.49257       GPS_NMEA_FROM_GPS    iGPS            $GPGGA,161546.000,4221.4913,N,07105.2774,W,2,10,0.84,7.6,M,-33.7,M,0000,0000*55 
448.59598       GPS_NMEA_FROM_GPS    iGPS            $GPGSA,A,3,06,19,12,25,11,20,04,09,17,05,,,1.15,0.84,0.79*03 
449.59995       GPS_NMEA_FROM_GPS    iGPS            $GPGSA,A,3,06,19,12,25,11,20,04,09,17,05,,,1.15,0.84,0.79*03 
450.60289       GPS_NMEA_FROM_GPS    iGPS            $GPGSA,A,3,06,19,12,25,11,20,04,09,17,05,,,1.15,0.84,0.79*03 
451.50538       GPS_NMEA_FROM_GPS    iGPS            $GPGGA,161550.000,4221.4909,N,07105.2782,W,2,10,0.84,7.5,M,-33.7,M,0000,0000*53 
452.50809       GPS_NMEA_FROM_GPS    iGPS            $GPGGA,161551.000,4221.4907,N,07105.2784,W,2,10,0.84,7.5,M,-33.7,M,0000,0000*5A 
453.91209       GPS_NMEA_FROM_GPS    iGPS            $GPGGA,161552.000,4221.4906,N,07105.2787,W,2,10,0.84,7.5,M,-33.7,M,0000,0000*5B 
454.91520       GPS_NMEA_FROM_GPS    iGPS            $GPGSA,A,3,06,19,12,25,11,20,04,09,17,05,,,1.54,0.84,1.29*02 
455.91806       GPS_NMEA_FROM_GPS    iGPS            $GPGSA,A,3,06,19,12,25,11,20,04,09,17,05,,,1.54,0.84,1.29*02 
456.92086       GPS_NMEA_FROM_GPS    iGPS            $GPGSA,A,3,06,19,12,25,11,20,04,09,17,05,,,1.54,0.84,1.29*02 
457.92425       GPS_NMEA_FROM_GPS    iGPS            $GPGSA,A,3,06,19,12,25,11,20,04,09,17,05,,,1.54,0.84,1.29*02 
458.92745       GPS_NMEA_FROM_GPS    iGPS            $GPGSA,A,3,06,19,12,25,11,20,04,09,17,05,,,1.54,0.84,1.29*02 
459.93046       GPS_NMEA_FROM_GPS    iGPS            $GPGSA,A,3,06,19,12,25,11,20,04,09,17,05,,,1.54,0.84,1.29*02 
460.93279       GPS_NMEA_FROM_GPS    iGPS            $GPGSA,A,3,06,19,12,25,11,20,04,09,17,05,,,1.54,0.84,1.29*02 
461.93582       GPS_NMEA_FROM_GPS    iGPS            $GPGGA,161600.000,4221.4894,N,07105.2813,W,2,10,0.84,7.3,M,-33.7,M,0000,0000*51 
462.93884       GPS_NMEA_FROM_GPS    iGPS            $GPGGA,161601.000,4221.4893,N,07105.2816,W,2,10,0.84,7.3,M,-33.7,M,0000,0000*52 
463.94196       GPS_NMEA_FROM_GPS    iGPS            $GPGGA,161602.000,4221.4891,N,07105.2819,W,2,10,0.84,7.2,M,-33.7,M,0000,0000*5D 
464.94574       GPS_NMEA_FROM_GPS    iGPS            $GPGGA,161603.000,4221.4890,N,07105.2822,W,2,10,0.84,7.2,M,-33.7,M,0000,0000*55 
465.94787       GPS_NMEA_FROM_GPS    iGPS            $GPGGA,161604.000,4221.4888,N,07105.2825,W,2,10,0.84,7.0,M,-33.7,M,0000,0000*5E 
466.95156       GPS_NMEA_FROM_GPS    iGPS            $GPGSA,A,3,06,19,12,25,11,20,04,09,17,05,,,1.15,0.84,0.79*03 
467.85433       GPS_NMEA_FROM_GPS    iGPS            $GPGGA,161606.000,4221.4885,N,07105.2832,W,2,10,0.84,7.0,M,-33.7,M,0000,0000*57 
468.95745       GPS_NMEA_FROM_GPS    iGPS            $GPGGA,161607.000,4221.4883,N,07105.2835,W,2,10,0.84,7.0,M,-33.7,M,0000,0000*57 
469.96093       GPS_NMEA_FROM_GPS    iGPS            $GPGGA,161608.000,4221.4881,N,07105.2838,W,2,10,0.84,7.1,M,-33.7,M,0000,0000*56 
470.96409       GPS_NMEA_FROM_GPS    iGPS            $GPGGA,161609.000,4221.4878,N,07105.2841,W,2,10,0.84,7.2,M,-33.7,M,0000,0000*5C 
471.96706       GPS_NMEA_FROM_GPS    iGPS            $GPGGA,161610.000,4221.4875,N,07105.2844,W,2,10,0.84,7.2,M,-33.7,M,0000,0000*5C 
