2.07371         GPS_NMEA_FROM_GPS    iGPS            $GPGGA,161638.000,4221.4928,N,07105.2322,W,2,08,1.16,4.7,M,-33.7,M,0000,0000*51 
3.07593         GPS_NMEA_FROM_GPS    iGPS            $GPGSA,A,3,11,19,17,06,12,04,09,20,,,,,1.91,1.16,1.52*0F 
4.07904         GPS_NMEA_FROM_GPS    iGPS            $GPGGA,161640.000,4221.4928,N,07105.2326,W,2,08,1.16,4.6,M,-33.7,M,0000,0000*5B 
4.98099         GPS_NMEA_FROM_GPS    iGPS            $GPGGA,161641.000,4221.4928,N,07105.2328,W,2,08,1.16,4.6,M,-33.7,M,0000,0000*54 
5.98374         GPS_NMEA_FROM_GPS    iGPS            $GPGGA,161642.000,4221.4928,N,07105.2329,W,2,08,1.16,4.5,M,-33.7,M,0000,0000*55 
7.08673         GPS_NMEA_FROM_GPS    iGPS            $GPGSA,A,3,11,19,17,06,03,12,04,09,20,,,,1.65,0.97,1.34*0F 
8.08950         GPS_NMEA_FROM_GPS    iGPS            $GPGSA,A,3,11,19,17,06,03,12,04,09,20,,,,1.65,0.97,1.34*0F 
8.99192         GPS_NMEA_FROM_GPS    iGPS            $GPGGA,161645.000,4221.4928,N,07105.2335,W,2,09,0.97,4.3,M,-33.7,M,0000,0000*50 
9.99516         GPS_NMEA_FROM_GPS    iGPS            $GPGGA,161646.000,4221.4928,N,07105.2336,W,2,09,0.97,4.2,M,-33.7,M,0000,0000*51 
10.99713        GPS_NMEA_FROM_GPS    iGPS            $GPGGA,161647.000,4221.4928,N,07105.2338,W,2,09,0.97,4.2,M,-33.7,M,0000,0000*5E 
10.99713        GPS_NMEA_FROM_GPS    iGPS            $GPGGA,161647.000,4221.4928,N,07105.2338,W,2,09,0.97,4.2,M,-33.7,M,0000,0000*5E 
12.00093        GPS_NMEA_FROM_GPS    iGPS            $GPGGA,161648.000,4221.4928,N,07105.2339,W,2,09,0.97,4.1,M,-33.7,M,0000,0000*53 
13.00408        GPS_NMEA_FROM_GPS    iGPS            $GPGGA,161649.000,4221.4928,N,07105.2341,W,2,09,0.97,4.1,M,-33.7,M,0000,0000*5D 
14.00650        GPS_NMEA_FROM_GPS    iGPS            $GPGGA,161650.000,4221.4928,N,07105.2343,W,2,09,0.97,4.0,M,-33.7,M,0000,0000*56 
15.10935        GPS_NMEA_FROM_GPS    iGPS            $GPGSA,A,3,11,19,17,06,03,12,04,09,20,,,,1.65,0.97,1.34*0F 
16.11168        GPS_NMEA_FROM_GPS    iGPS            $GPGSA,A,3,11,19,17,06,03,12,04,09,20,,,,1.65,0.97,1.34*0F 
17.01501        GPS_NMEA_FROM_GPS    iGPS            $GPGGA,161653.000,4221.4928,N,07105.2348,W,2,09,0.97,3.8,M,-33.7,M,0000,0000*51 
17.01501        GPS_NMEA_FROM_GPS    iGPS            $GPGGA,161653.000,4221.4928,N,07105.2348,W,2,09,0.97,3.8,M,-33.7,M,0000,0000*51 
18.01852        GPS_NMEA_FROM_GPS    iGPS            $GPGGA,161654.000,4221.4928,N,07105.2349,W,2,09,0.97,3.7,M,-33.7,M,0000,0000*58 
19.02101        GPS_NMEA_FROM_GPS    iGPS            $GPGGA,161655.000,4221.4927,N,07105.2351,W,2,09,0.97,3.7,M,-33.7,M,0000,0000*5F 
20.02404        GPS_NMEA_FROM_GPS    iGPS            $GPGGA,161656.000,4221.4927,N,07105.2353,W,2,09,0.97,3.6,M,-33.7,M,0000,0000*5F 
21.02662        GPS_NMEA_FROM_GPS    iGPS            $GPGSA,A,3,11,19,17,06,03,12,04,09,20,,,,1.65,0.97,1.34*0F 
22.03056        GPS_NMEA_FROM_GPS    iGPS            $GPGGA,161658.000,4221.4927,N,07105.2356,W,2,09,0.97,3.5,M,-33.7,M,0000,0000*57 
23.03342        GPS_NMEA_FROM_GPS    iGPS            $GPGGA,161659.000,4221.4926,N,07105.2358,W,2,09,0.97,3.4,M,-33.7,M,0000,0000*58 
23.03342        GPS_NMEA_FROM_GPS    iGPS            $GPGGA,161659.000,4221.4926,N,07105.2358,W,2,09,0.97,3.4,M,-33.7,M,0000,0000*58 
24.03603        GPS_NMEA_FROM_GPS    iGPS            $GPGGA,161700.000,4221.4926,N,07105.2359,W,2,09,0.97,3.4,M,-33.7,M,0000,0000*54 
25.03863        GPS_NMEA_FROM_GPS    iGPS            $GPGGA,161701.000,4221.4926,N,07105.2361,W,2,09,0.97,3.3,M,-33.7,M,0000,0000*59 
26.04149        GPS_NMEA_FROM_GPS    iGPS            $GPGGA,161702.000,4221.4925,N,07105.2363,W,2,09,0.97,3.2,M,-33.7,M,0000,0000*5A 
27.04382        GPS_NMEA_FROM_GPS    iGPS            $GPGGA,161703.000,4221.4925,N,07105.2365,W,2,09,0.97,3.2,M,-33.7,M,0000,0000*5D 
28.04616        GPS_NMEA_FROM_GPS    iGPS            $GPGGA,161704.000,4221.4924,N,07105.2367,W,2,09,0.97,3.1,M,-33.7,M,0000,0000*5A 
29.04961        GPS_NMEA_FROM_GPS    iGPS            $GPGGA,161705.000,4221.4924,N,07105.2368,W,2,09,0.97,3.1,M,-33.7,M,0000,0000*54 
30.05250        GPS_NMEA_FROM_GPS    iGPS            $GPGSA,A,3,11,19,17,06,03,12,04,09,20,,,,1.65,0.97,1.34*0F 
31.05487        GPS_NMEA_FROM_GPS    iGPS            $GPGSA,A,3,11,19,17,06,03,12,04,09,20,,,,1.65,0.97,1.34*0F 
32.05736        GPS_NMEA_FROM_GPS    iGPS            $GPGSA,A,3,11,19,17,06,03,12,04,09,20,,,,1.65,0.97,1.34*0F 
32.95934        GPS_NMEA_FROM_GPS    iGPS            $GPGGA,161709.000,4221.4922,N,07105.2376,W,2,09,0.97,2.9,M,-33.7,M,0000,0000*58 
33.96231        GPS_NMEA_FROM_GPS    iGPS            $GPGGA,161710.000,4221.4922,N,07105.2378,W,2,09,0.97,2.8,M,-33.7,M,0000,0000*5F 
34.96510        GPS_NMEA_FROM_GPS    iGPS            $GPGGA,161711.000,4221.4922,N,07105.2380,W,2,09,0.97,2.8,M,-33.7,M,0000,0000*59 
36.06811        GPS_NMEA_FROM_GPS    iGPS            $GPGGA,161712.000,4221.4922,N,07105.2382,W,2,09,0.97,2.7,M,-33.7,M,0000,0000*57 
37.07112        GPS_NMEA_FROM_GPS    iGPS            $GPGGA,161713.000,4221.4922,N,07105.2384,W,2,09,0.97,2.7,M,-33.7,M,0000,0000*50 
38.07399        GPS_NMEA_FROM_GPS    iGPS            $GPGGA,161714.000,4221.4922,N,07105.2385,W,2,09,0.97,2.6,M,-33.7,M,0000,0000*57 
38.97609        GPS_NMEA_FROM_GPS    iGPS            $GPGGA,161715.000,4221.4922,N,07105.2387,W,2,09,0.97,2.6,M,-33.7,M,0000,0000*54 
39.97853        GPS_NMEA_FROM_GPS    iGPS            $GPGGA,161716.000,4221.4921,N,07105.2389,W,2,09,0.97,2.6,M,-33.7,M,0000,0000*5A 
41.08174        GPS_NMEA_FROM_GPS    iGPS            $GPGSA,A,3,11,19,17,06,03,12,04,09,20,,,,1.66,0.97,1.34*0C 
41.98551        GPS_NMEA_FROM_GPS    iGPS            $GPGGA,161718.000,4221.4921,N,07105.2393,W,2,09,0.97,2.5,M,-33.7,M,0000,0000*5C 
42.98872        GPS_NMEA_FROM_GPS    iGPS            $GPGGA,161719.000,4221.4921,N,07105.2395,W,2,09,0.97,2.5,M,-33.7,M,0000,0000*5B 
43.99152        GPS_NMEA_FROM_GPS    iGPS            $GPGGA,161720.000,4221.4920,N,07105.2397,W,2,09,0.97,2.5,M,-33.7,M,0000,0000*52 
45.09452        GPS_NMEA_FROM_GPS    iGPS            $GPGSA,A,3,11,19,17,06,03,12,04,09,20,,,,1.66,0.97,1.34*0C 
46.09745        GPS_NMEA_FROM_GPS    iGPS            $GPGSA,A,3,11,19,17,06,03,12,04,09,20,,,,1.66,0.97,1.34*0C 
47.00028        GPS_NMEA_FROM_GPS    iGPS            $GPGGA,161723.000,4221.4921,N,07105.2405,W,2,09,0.97,2.5,M,-33.7,M,0000,0000*5C 
48.10440        GPS_NMEA_FROM_GPS    iGPS            $GPGSA,A,3,11,19,17,06,03,12,04,09,20,,,,1.66,0.97,1.34*0C 
49.10710        GPS_NMEA_FROM_GPS    iGPS            $GPGSA,A,3,11,19,17,06,03,12,04,09,20,,,,1.66,0.97,1.34*0C 
50.00967        GPS_NMEA_FROM_GPS    iGPS            $GPGGA,161726.000,4221.4922,N,07105.2412,W,2,09,0.97,2.3,M,-33.7,M,0000,0000*5A 
51.01236        GPS_NMEA_FROM_GPS    iGPS            $GPGSA,A,3,11,19,17,06,03,12,04,09,20,,,,1.66,0.97,1.34*0C 
52.01482        GPS_NMEA_FROM_GPS    iGPS            $GPGGA,161728.000,4221.4923,N,07105.2415,W,2,09,0.97,2.3,M,-33.7,M,0000,0000*52 
53.01734        GPS_NMEA_FROM_GPS    iGPS            $GPGGA,161729.000,4221.4922,N,07105.2416,W,2,09,0.97,2.4,M,-33.7,M,0000,0000*56 
54.02078        GPS_NMEA_FROM_GPS    iGPS            $GPGGA,161730.000,4221.4920,N,07105.2417,W,2,09,0.97,2.3,M,-33.7,M,0000,0000*5A 
55.02389        GPS_NMEA_FROM_GPS    iGPS            $GPGSA,A,3,11,19,17,06,03,12,04,09,20,,,,1.66,0.97,1.34*0C 
56.02654        GPS_NMEA_FROM_GPS    iGPS            $GPGSA,A,3,11,19,17,06,03,12,04,09,20,,,,1.66,0.97,1.34*0C 
57.02920        GPS_NMEA_FROM_GPS    iGPS            $GPGGA,161733.000,4221.4918,N,07105.2421,W,2,09,0.97,2.4,M,-33.7,M,0000,0000*50 
58.03234        GPS_NMEA_FROM_GPS    iGPS            $GPGSA,A,3,11,19,17,06,03,12,04,09,20,,,,1.66,0.97,1.34*0C 
58.93518        GPS_NMEA_FROM_GPS    iGPS            $GPGGA,161735.000,4221.4918,N,07105.2424,W,2,09,0.97,2.3,M,-33.7,M,0000,0000*54 
60.03868        GPS_NMEA_FROM_GPS    iGPS            $GPGGA,161736.000,4221.4917,N,07105.2426,W,2,09,0.97,2.3,M,-33.7,M,0000,0000*5A 
61.04112        GPS_NMEA_FROM_GPS    iGPS            $GPGGA,161737.000,4221.4917,N,07105.2427,W,2,09,0.97,2.3,M,-33.7,M,0000,0000*5A 
62.04458        GPS_NMEA_FROM_GPS    iGPS            $GPGGA,161738.000,4221.4917,N,07105.2429,W,2,09,0.97,2.3,M,-33.7,M,0000,0000*5B 
62.94927        GPS_NMEA_FROM_GPS    iGPS            $GPGGA,161739.000,4221.4916,N,07105.2431,W,2,09,0.97,2.3,M,-33.7,M,0000,0000*52 
63.95127        GPS_NMEA_FROM_GPS    iGPS            $GPGGA,161740.000,4221.4916,N,07105.2433,W,2,09,0.97,2.3,M,-33.7,M,0000,0000*5E 
64.95358        GPS_NMEA_FROM_GPS    iGPS            $GPGGA,161741.000,4221.4916,N,07105.2435,W,2,09,0.97,2.2,M,-33.7,M,0000,0000*58 
66.05627        GPS_NMEA_FROM_GPS    iGPS            $GPGSA,A,3,11,19,17,06,03,12,04,09,20,,,,1.66,0.97,1.34*0C 
67.05915        GPS_NMEA_FROM_GPS    iGPS            $GPGSA,A,3,11,19,17,06,03,12,04,09,20,,,,1.66,0.97,1.34*0C 
68.06237        GPS_NMEA_FROM_GPS    iGPS            $GPGSA,A,3,11,19,17,06,03,12,04,09,20,,,,1.66,0.97,1.34*0C 
69.06515        GPS_NMEA_FROM_GPS    iGPS            $GPGSA,A,3,11,19,17,06,03,12,04,09,20,,,,1.66,0.97,1.34*0C 
70.06827        GPS_NMEA_FROM_GPS    iGPS            $GPGSA,A,3,11,19,17,06,03,12,04,09,20,,,,1.66,0.97,1.34*0C 
71.07074        GPS_NMEA_FROM_GPS    iGPS            $GPGSA,A,3,11,19,17,06,03,12,04,09,20,,,,1.66,0.97,1.34*0C 
71.97364        GPS_NMEA_FROM_GPS    iGPS            $GPGGA,161748.000,4221.4913,N,07105.2446,W,2,09,0.97,2.2,M,-33.7,M,0000,0000*50 
72.97653        GPS_NMEA_FROM_GPS    iGPS            $GPGGA,161749.000,4221.4913,N,07105.2448,W,2,09,0.97,2.2,M,-33.7,M,0000,0000*5F 
73.97940        GPS_NMEA_FROM_GPS    iGPS            $GPGGA,161750.000,4221.4913,N,07105.2449,W,2,09,0.97,2.2,M,-33.7,M,0000,0000*56 
74.98211        GPS_NMEA_FROM_GPS    iGPS            $GPGGA,161751.000,4221.4912,N,07105.2450,W,2,09,0.97,2.2,M,-33.7,M,0000,0000*5E 
75.98450        GPS_NMEA_FROM_GPS    iGPS            $GPGGA,161752.000,4221.4912,N,07105.2452,W,2,09,0.96,2.2,M,-33.7,M,0000,0000*5E 
76.98702        GPS_NMEA_FROM_GPS    iGPS            $GPGGA,161753.000,4221.4911,N,07105.2453,W,2,09,0.97,2.2,M,-33.7,M,0000,0000*5C 
78.08938        GPS_NMEA_FROM_GPS    iGPS            $GPGSA,A,3,11,19,17,06,03,12,04,09,20,,,,1.66,0.97,1.34*0C 
78.99161        GPS_NMEA_FROM_GPS    iGPS            $GPGGA,161755.000,4221.4911,N,07105.2456,W,2,09,0.97,2.1,M,-33.7,M,0000,0000*5C 
79.99467        GPS_NMEA_FROM_GPS    iGPS            $GPGSA,A,3,11,19,17,06,03,12,04,09,20,,,,1.66,0.97,1.35*0D 
80.99774        GPS_NMEA_FROM_GPS    iGPS            $GPGGA,161757.000,4221.4910,N,07105.2458,W,2,09,0.97,2.1,M,-33.7,M,0000,0000*51 
82.00091        GPS_NMEA_FROM_GPS    iGPS            $GPGGA,161758.000,4221.4910,N,07105.2460,W,2,09,0.97,2.2,M,-33.7,M,0000,0000*56 
83.00451        GPS_NMEA_FROM_GPS    iGPS            $GPGGA,161759.000,4221.4910,N,07105.2461,W,2,09,0.97,2.2,M,-33.7,M,0000,0000*56 
84.00795        GPS_NMEA_FROM_GPS    iGPS            $GPGSA,A,3,11,19,17,06,03,12,04,09,20,,,,1.66,0.97,1.34*0C 
85.01108        GPS_NMEA_FROM_GPS    iGPS            $GPGGA,161801.000,4221.4909,N,07105.2464,W,2,09,0.97,2.2,M,-33.7,M,0000,0000*59 
86.01392        GPS_NMEA_FROM_GPS    iGPS            $GPGGA,161802.000,4221.4909,N,07105.2465,W,2,09,0.97,2.2,M,-33.7,M,0000,0000*5B 
87.01742        GPS_NMEA_FROM_GPS    iGPS            $GPGGA,161803.000,4221.4909,N,07105.2466,W,2,09,0.97,2.2,M,-33.7,M,0000,0000*59 
88.02064        GPS_NMEA_FROM_GPS    iGPS            $GPGGA,161804.000,4221.4908,N,07105.2468,W,2,09,0.97,2.2,M,-33.7,M,0000,0000*51 
89.02357        GPS_NMEA_FROM_GPS    iGPS            $GPGGA,161805.000,4221.4908,N,07105.2469,W,2,09,0.97,2.2,M,-33.7,M,0000,0000*51 
90.02722        GPS_NMEA_FROM_GPS    iGPS            $GPGSA,A,3,11,19,17,06,03,12,04,09,20,,,,1.66,0.97,1.35*0D 
91.02959        GPS_NMEA_FROM_GPS    iGPS            $GPGGA,161807.000,4221.4907,N,07105.2472,W,2,09,0.97,2.2,M,-33.7,M,0000,0000*56 
92.03190        GPS_NMEA_FROM_GPS    iGPS            $GPGGA,161808.000,4221.4907,N,07105.2473,W,2,09,0.97,2.2,M,-33.7,M,0000,0000*58 
93.03505        GPS_NMEA_FROM_GPS    iGPS            $GPGGA,161809.000,4221.4906,N,07105.2475,W,2,09,0.97,2.2,M,-33.7,M,0000,0000*5E 
93.93784        GPS_NMEA_FROM_GPS    iGPS            $GPGGA,161810.000,4221.4906,N,07105.2477,W,2,09,0.97,2.2,M,-33.7,M,0000,0000*54 
95.04084        GPS_NMEA_FROM_GPS    iGPS            $GPGSA,A,3,11,19,17,06,03,12,04,09,20,,,,1.66,0.97,1.35*0D 
95.94307        GPS_NMEA_FROM_GPS    iGPS            $GPGGA,161812.000,4221.4905,N,07105.2480,W,2,09,0.97,2.2,M,-33.7,M,0000,0000*5D 
97.04596        GPS_NMEA_FROM_GPS    iGPS            $GPGSA,A,3,11,19,17,06,03,12,04,09,20,,,,1.66,0.97,1.35*0D 
97.94854        GPS_NMEA_FROM_GPS    iGPS            $GPGGA,161814.000,4221.4904,N,07105.2482,W,2,09,0.97,2.2,M,-33.7,M,0000,0000*58 
99.05154        GPS_NMEA_FROM_GPS    iGPS            $GPGGA,161815.000,4221.4904,N,07105.2484,W,2,09,0.97,2.2,M,-33.7,M,0000,0000*5F 
100.05470       GPS_NMEA_FROM_GPS    iGPS            $GPGSA,A,3,11,19,17,06,03,12,04,09,20,,,,1.66,0.97,1.35*0D 
101.05716       GPS_NMEA_FROM_GPS    iGPS            $GPGSA,A,3,11,19,17,06,03,12,04,09,20,,,,1.66,0.97,1.35*0D 
102.06061       GPS_NMEA_FROM_GPS    iGPS            $GPGGA,161818.000,4221.4903,N,07105.2488,W,2,09,0.96,2.3,M,-33.7,M,0000,0000*59 
103.06316       GPS_NMEA_FROM_GPS    iGPS            $GPGGA,161819.000,4221.4904,N,07105.2489,W,2,09,0.97,2.3,M,-33.7,M,0000,0000*5F 
104.06599       GPS_NMEA_FROM_GPS    iGPS            $GPGSA,A,3,11,19,17,06,03,12,04,09,20,,,,1.66,0.97,1.35*0D 
104.96845       GPS_NMEA_FROM_GPS    iGPS            $GPGGA,161821.000,4221.4906,N,07105.2490,W,2,09,0.97,2.4,M,-33.7,M,0000,0000*59 
106.07158       GPS_NMEA_FROM_GPS    iGPS            $GPGSA,A,3,11,19,17,06,03,12,04,09,20,,,,1.66,0.97,1.35*0D 
106.97381       GPS_NMEA_FROM_GPS    iGPS            $GPGGA,161823.000,4221.4909,N,07105.2491,W,2,09,0.97,2.4,M,-33.7,M,0000,0000*55 
108.07684       GPS_NMEA_FROM_GPS    iGPS            $GPGSA,A,3,11,19,17,06,03,12,04,09,20,,,,1.66,0.97,1.35*0D 
109.07995       GPS_NMEA_FROM_GPS    iGPS            $GPGSA,A,3,11,19,17,06,03,12,04,09,20,,,,1.66,0.97,1.35*0D 
110.08282       GPS_NMEA_FROM_GPS    iGPS            $GPGSA,A,3,11,19,17,06,03,12,04,09,20,,,,1.66,0.97,1.35*0D 
110.98499       GPS_NMEA_FROM_GPS    iGPS            $GPGGA,161827.000,4221.4917,N,07105.2494,W,2,09,0.97,2.8,M,-33.7,M,0000,0000*57 
111.98819       GPS_NMEA_FROM_GPS    iGPS            $GPGGA,161828.000,4221.4920,N,07105.2498,W,2,09,0.97,2.8,M,-33.7,M,0000,0000*50 
112.99269       GPS_NMEA_FROM_GPS    iGPS            $GPGGA,161829.000,4221.4922,N,07105.2502,W,2,09,0.97,2.8,M,-33.7,M,0000,0000*51 
113.99623       GPS_NMEA_FROM_GPS    iGPS            $GPGGA,161830.000,4221.4923,N,07105.2504,W,2,09,0.96,2.8,M,-33.7,M,0000,0000*5F 
115.00007       GPS_NMEA_FROM_GPS    iGPS            $GPGGA,161831.000,4221.4922,N,07105.2510,W,2,09,0.97,3.0,M,-33.7,M,0000,0000*52 
116.10254       GPS_NMEA_FROM_GPS    iGPS            $GPGSA,A,3,11,19,17,06,03,12,04,09,20,,,,1.66,0.97,1.35*0D 
117.10500       GPS_NMEA_FROM_GPS    iGPS            $GPGSA,A,3,11,19,17,06,03,12,04,09,20,,,,1.66,0.97,1.35*0D 
118.00749       GPS_NMEA_FROM_GPS    iGPS            $GPGGA,161834.000,4221.4923,N,07105.2520,W,2,09,0.97,2.6,M,-33.7,M,0000,0000*52 
119.01030       GPS_NMEA_FROM_GPS    iGPS            $GPGGA,161835.000,4221.4922,N,07105.2524,W,2,09,0.97,2.5,M,-33.7,M,0000,0000*55 
120.01361       GPS_NMEA_FROM_GPS    iGPS            $GPGGA,161836.000,4221.4922,N,07105.2528,W,2,09,0.97,2.3,M,-33.7,M,0000,0000*5C 
121.01601       GPS_NMEA_FROM_GPS    iGPS            $GPGGA,161837.000,4221.4922,N,07105.2531,W,2,09,0.97,2.3,M,-33.7,M,0000,0000*55 
122.01911       GPS_NMEA_FROM_GPS    iGPS            $GPGGA,161838.000,4221.4922,N,07105.2535,W,2,09,0.97,2.2,M,-33.7,M,0000,0000*5F 
123.02238       GPS_NMEA_FROM_GPS    iGPS            $GPGGA,161839.000,4221.4921,N,07105.2540,W,2,09,0.97,2.2,M,-33.7,M,0000,0000*5F 
124.02557       GPS_NMEA_FROM_GPS    iGPS            $GPGGA,161840.000,4221.4918,N,07105.2545,W,2,09,0.97,2.2,M,-33.7,M,0000,0000*5E 
125.02861       GPS_NMEA_FROM_GPS    iGPS            $GPGGA,161841.000,4221.4919,N,07105.2550,W,2,09,0.97,2.3,M,-33.7,M,0000,0000*5B 
126.03103       GPS_NMEA_FROM_GPS    iGPS            $GPGGA,161842.000,4221.4918,N,07105.2555,W,2,09,0.97,2.2,M,-33.7,M,0000,0000*5D 
127.03353       GPS_NMEA_FROM_GPS    iGPS            $GPGGA,161843.000,4221.4919,N,07105.2562,W,2,09,0.97,2.1,M,-33.7,M,0000,0000*5A 
128.03744       GPS_NMEA_FROM_GPS    iGPS            $GPGSA,A,3,11,19,17,06,03,12,04,09,20,,,,1.67,0.97,1.35*0C 
129.03991       GPS_NMEA_FROM_GPS    iGPS            $GPGGA,161845.000,4221.4921,N,07105.2573,W,2,09,0.97,2.0,M,-33.7,M,0000,0000*56 
130.04189       GPS_NMEA_FROM_GPS    iGPS            $GPGSA,A,3,11,19,17,06,03,12,04,09,20,,,,1.67,0.97,1.35*0C 
131.04409       GPS_NMEA_FROM_GPS    iGPS            $GPGGA,161847.000,4221.4923,N,07105.2580,W,2,09,0.97,2.1,M,-33.7,M,0000,0000*5B 
132.04731       GPS_NMEA_FROM_GPS    iGPS            $GPGGA,161848.000,4221.4924,N,07105.2584,W,2,09,0.97,2.2,M,-33.7,M,0000,0000*54 
133.05033       GPS_NMEA_FROM_GPS    iGPS            $GPGGA,161849.000,4221.4926,N,07105.2589,W,2,09,0.97,2.4,M,-33.7,M,0000,0000*5C 
134.05364       GPS_NMEA_FROM_GPS    iGPS            $GPGSA,A,3,11,19,17,06,03,12,04,09,20,,,,1.67,0.97,1.35*0C 
135.05647       GPS_NMEA_FROM_GPS    iGPS            $GPGSA,A,3,11,19,17,06,03,12,04,09,20,,,,1.67,0.97,1.35*0C 
135.95896       GPS_NMEA_FROM_GPS    iGPS            $GPGGA,161852.000,4221.4928,N,07105.2601,W,2,09,0.97,2.7,M,-33.7,M,0000,0000*58 
137.06233       GPS_NMEA_FROM_GPS    iGPS            $GPGGA,161853.000,4221.4931,N,07105.2607,W,2,09,0.97,2.6,M,-33.7,M,0000,0000*56 
138.06531       GPS_NMEA_FROM_GPS    iGPS            $GPGGA,161854.000,4221.4933,N,07105.2613,W,2,09,0.97,2.7,M,-33.7,M,0000,0000*57 
139.06836       GPS_NMEA_FROM_GPS    iGPS            $GPGSA,A,3,11,19,17,06,03,12,04,09,20,,,,1.67,0.97,1.35*0C 
139.97160       GPS_NMEA_FROM_GPS    iGPS            $GPGGA,161856.000,4221.4933,N,07105.2622,W,2,09,0.97,2.5,M,-33.7,M,0000,0000*55 
139.97160       GPS_NMEA_FROM_GPS    iGPS            $GPGGA,161856.000,4221.4933,N,07105.2622,W,2,09,0.97,2.5,M,-33.7,M,0000,0000*55 
140.97430       GPS_NMEA_FROM_GPS    iGPS            $GPGGA,161857.000,4221.4934,N,07105.2628,W,2,09,0.97,2.6,M,-33.7,M,0000,0000*5A 
141.97653       GPS_NMEA_FROM_GPS    iGPS            $GPGGA,161858.000,4221.4934,N,07105.2632,W,2,09,0.96,2.5,M,-33.7,M,0000,0000*5C 
142.97915       GPS_NMEA_FROM_GPS    iGPS            $GPGGA,161859.000,4221.4935,N,07105.2638,W,2,09,0.97,2.5,M,-33.7,M,0000,0000*57 
143.98181       GPS_NMEA_FROM_GPS    iGPS            $GPGGA,161900.000,4221.4936,N,07105.2643,W,2,09,0.96,2.5,M,-33.7,M,0000,0000*54 
145.08520       GPS_NMEA_FROM_GPS    iGPS            $GPGGA,161901.000,4221.4937,N,07105.2648,W,2,09,0.96,2.4,M,-33.7,M,0000,0000*5E 
146.08764       GPS_NMEA_FROM_GPS    iGPS            $GPGSA,A,3,11,19,17,06,03,12,04,09,20,,,,1.25,0.96,0.80*04 
147.09036       GPS_NMEA_FROM_GPS    iGPS            $GPGSA,A,3,19,17,06,03,12,04,09,20,,,,,1.29,1.01,0.80*07 
147.99299       GPS_NMEA_FROM_GPS    iGPS            $GPGGA,161904.000,4221.4940,N,07105.2665,W,2,08,1.01,2.1,M,-33.7,M,0000,0000*5F 
148.99597       GPS_NMEA_FROM_GPS    iGPS            $GPGGA,161905.000,4221.4942,N,07105.2668,W,2,09,0.96,2.2,M,-33.7,M,0000,0000*5C 
150.09906       GPS_NMEA_FROM_GPS    iGPS            $GPGSA,A,3,11,19,17,06,03,12,04,09,20,,,,1.25,0.96,0.80*04 
151.00126       GPS_NMEA_FROM_GPS    iGPS            $GPGGA,161907.000,4221.4945,N,07105.2677,W,2,09,0.96,2.2,M,-33.7,M,0000,0000*57 
152.00431       GPS_NMEA_FROM_GPS    iGPS            $GPGGA,161908.000,4221.4947,N,07105.2681,W,2,09,0.96,2.3,M,-33.7,M,0000,0000*52 
153.00812       GPS_NMEA_FROM_GPS    iGPS            $GPGGA,161909.000,4221.4949,N,07105.2683,W,2,09,0.96,2.3,M,-33.7,M,0000,0000*5F 
154.01074       GPS_NMEA_FROM_GPS    iGPS            $GPGGA,161910.000,4221.4951,N,07105.2686,W,2,09,0.96,2.3,M,-33.7,M,0000,0000*5B 
155.11334       GPS_NMEA_FROM_GPS    iGPS            $GPGSA,A,3,11,19,17,06,03,12,04,09,20,,,,1.25,0.96,0.80*04 
156.01532       GPS_NMEA_FROM_GPS    iGPS            $GPGGA,161912.000,4221.4955,N,07105.2689,W,2,09,0.96,2.3,M,-33.7,M,0000,0000*52 
157.01794       GPS_NMEA_FROM_GPS    iGPS            $GPGGA,161913.000,4221.4958,N,07105.2691,W,2,09,0.96,2.3,M,-33.7,M,0000,0000*57 
158.02063       GPS_NMEA_FROM_GPS    iGPS            $GPGGA,161914.000,4221.4961,N,07105.2691,W,2,09,0.96,2.3,M,-33.7,M,0000,0000*5A 
159.02472       GPS_NMEA_FROM_GPS    iGPS            $GPGGA,161915.000,4221.4962,N,07105.2694,W,2,09,0.96,2.4,M,-33.7,M,0000,0000*5A 
159.92737       GPS_NMEA_FROM_GPS    iGPS            $GPGGA,161916.000,4221.4962,N,07105.2696,W,2,09,0.96,2.5,M,-33.7,M,0000,0000*5A 
161.03084       GPS_NMEA_FROM_GPS    iGPS            $GPGSA,A,3,11,19,17,06,03,12,04,09,20,,,,1.25,0.96,0.80*04 
162.03369       GPS_NMEA_FROM_GPS    iGPS            $GPGSA,A,3,11,19,17,06,03,12,04,09,20,,,,1.25,0.96,0.80*04 
163.03671       GPS_NMEA_FROM_GPS    iGPS            $GPGSA,A,3,11,19,17,06,03,12,04,09,20,,,,1.25,0.96,0.80*04 
164.03959       GPS_NMEA_FROM_GPS    iGPS            $GPGSA,A,3,11,19,17,06,03,12,04,09,20,,,,1.25,0.96,0.80*04 
165.04311       GPS_NMEA_FROM_GPS    iGPS            $GPGSA,A,3,11,19,17,06,03,12,04,09,20,,,,1.25,0.96,0.80*04 
166.04560       GPS_NMEA_FROM_GPS    iGPS            $GPGGA,161922.000,4221.4968,N,07105.2709,W,2,09,0.96,2.7,M,-33.7,M,0000,0000*52 
167.04824       GPS_NMEA_FROM_GPS    iGPS            $GPGGA,161923.000,4221.4969,N,07105.2710,W,2,09,0.96,2.7,M,-33.7,M,0000,0000*5A 
168.05114       GPS_NMEA_FROM_GPS    iGPS            $GPGGA,161924.000,4221.4972,N,07105.2712,W,2,09,0.96,2.8,M,-33.7,M,0000,0000*5A 
169.05385       GPS_NMEA_FROM_GPS    iGPS            $GPGSA,A,3,11,19,17,06,03,12,04,09,20,,,,1.25,0.96,0.80*04 
170.05670       GPS_NMEA_FROM_GPS    iGPS            $GPGSA,A,3,11,19,17,06,03,12,04,09,20,,,,1.25,0.96,0.80*04 
171.05902       GPS_NMEA_FROM_GPS    iGPS            $GPGGA,161927.000,4221.4979,N,07105.2712,W,2,09,0.96,2.9,M,-33.7,M,0000,0000*53 
171.96129       GPS_NMEA_FROM_GPS    iGPS            $GPGGA,161928.000,4221.4978,N,07105.2712,W,2,09,0.96,2.9,M,-33.7,M,0000,0000*5D 
172.96453       GPS_NMEA_FROM_GPS    iGPS            $GPGGA,161929.000,4221.4977,N,07105.2712,W,2,09,0.96,3.0,M,-33.7,M,0000,0000*5B 
173.96733       GPS_NMEA_FROM_GPS    iGPS            $GPGGA,161930.000,4221.4976,N,07105.2712,W,2,09,0.96,3.0,M,-33.7,M,0000,0000*52 
175.07040       GPS_NMEA_FROM_GPS    iGPS            $GPGGA,161931.000,4221.4974,N,07105.2712,W,2,09,0.96,3.1,M,-33.7,M,0000,0000*50 
176.07267       GPS_NMEA_FROM_GPS    iGPS            $GPGSA,A,3,11,19,17,06,03,12,04,09,20,,,,1.25,0.96,0.81*05 
177.07546       GPS_NMEA_FROM_GPS    iGPS            $GPGSA,A,3,11,19,17,06,03,12,04,09,20,,,,1.25,0.96,0.80*04 
178.07822       GPS_NMEA_FROM_GPS    iGPS            $GPGGA,161934.000,4221.4972,N,07105.2713,W,2,09,0.96,3.1,M,-33.7,M,0000,0000*52 
179.08104       GPS_NMEA_FROM_GPS    iGPS            $GPGGA,161935.000,4221.4970,N,07105.2713,W,2,09,0.96,3.1,M,-33.7,M,0000,0000*51 
179.98329       GPS_NMEA_FROM_GPS    iGPS            $GPGGA,161936.000,4221.4969,N,07105.2713,W,2,09,0.96,3.1,M,-33.7,M,0000,0000*5A 
181.08601       GPS_NMEA_FROM_GPS    iGPS            $GPGSA,A,3,11,19,17,06,03,12,04,09,20,,,,1.25,0.96,0.81*05 
181.98842       GPS_NMEA_FROM_GPS    iGPS            $GPGGA,161938.000,4221.4967,N,07105.2713,W,2,09,0.96,3.2,M,-33.7,M,0000,0000*59 
182.99144       GPS_NMEA_FROM_GPS    iGPS            $GPGGA,161939.000,4221.4966,N,07105.2714,W,2,09,0.96,3.2,M,-33.7,M,0000,0000*5E 
183.99457       GPS_NMEA_FROM_GPS    iGPS            $GPGSA,A,3,11,19,17,06,03,12,04,09,20,,,,1.26,0.96,0.81*06 
184.99752       GPS_NMEA_FROM_GPS    iGPS            $GPGGA,161941.000,4221.4963,N,07105.2713,W,2,09,0.96,3.2,M,-33.7,M,0000,0000*53 
185.99993       GPS_NMEA_FROM_GPS    iGPS            $GPGGA,161942.000,4221.4962,N,07105.2712,W,2,09,0.96,3.2,M,-33.7,M,0000,0000*50 
187.10299       GPS_NMEA_FROM_GPS    iGPS            $GPGSA,A,3,11,19,17,06,03,12,04,09,20,,,,1.26,0.96,0.81*06 
188.00690       GPS_NMEA_FROM_GPS    iGPS            $GPGGA,161944.000,4221.4956,N,07105.2712,W,2,09,0.96,3.3,M,-33.7,M,0000,0000*50 
189.10983       GPS_NMEA_FROM_GPS    iGPS            $GPGSA,A,3,11,19,17,06,03,12,04,09,20,,,,1.26,0.96,0.81*06 
190.01134       GPS_NMEA_FROM_GPS    iGPS            $GPGSA,A,3,11,19,17,06,03,12,04,09,20,,,,1.26,0.96,0.81*06 
191.01389       GPS_NMEA_FROM_GPS    iGPS            $GPGSA,A,3,11,19,17,06,03,12,04,09,20,,,,1.26,0.96,0.81*06 
